[{"city":"Cairo","city_ascii":"Cairo","lat":"30.0561","lng":"31.2394","country":"Egypt","iso2":"EG","iso3":"EGY","admin_name":"Al Qāhirah","capital":"primary","population":"19372000","id":"1818253931"},{"city":"Chennai","city_ascii":"Chennai","lat":"13.0825","lng":"80.2750","country":"India","iso2":"IN","iso3":"IND","admin_name":"Tamil Nādu","capital":"admin","population":"11324000","id":"1356374944"},{"city":"Chengdu","city_ascii":"Chengdu","lat":"30.6636","lng":"104.0667","country":"China","iso2":"CN","iso3":"CHN","admin_name":"Sichuan","capital":"admin","population":"11309000","id":"1156421555"},{"city":"Chicago","city_ascii":"Chicago","lat":"41.8373","lng":"-87.6862","country":"United States","iso2":"US","iso3":"USA","admin_name":"Illinois","capital":"","population":"8604203","id":"1840000494"},{"city":"Chongqing","city_ascii":"Chongqing","lat":"29.5500","lng":"106.5069","country":"China","iso2":"CN","iso3":"CHN","admin_name":"Chongqing","capital":"admin","population":"7739000","id":"1156936556"},{"city":"Changchun","city_ascii":"Changchun","lat":"43.9000","lng":"125.2000","country":"China","iso2":"CN","iso3":"CHN","admin_name":"Jilin","capital":"admin","population":"7674439","id":"1156078103"},{"city":"Changsha","city_ascii":"Changsha","lat":"28.1987","lng":"112.9709","country":"China","iso2":"CN","iso3":"CHN","admin_name":"Hunan","capital":"admin","population":"7044118","id":"1156961497"},{"city":"Cangzhou","city_ascii":"Cangzhou","lat":"38.3037","lng":"116.8452","country":"China","iso2":"CN","iso3":"CHN","admin_name":"Hebei","capital":"","population":"6800000","id":"1156698069"},{"city":"Changde","city_ascii":"Changde","lat":"29.0397","lng":"111.6839","country":"China","iso2":"CN","iso3":"CHN","admin_name":"Hunan","capital":"minor","population":"5717200","id":"1156449091"},{"city":"Changzhou","city_ascii":"Changzhou","lat":"31.8122","lng":"119.9692","country":"China","iso2":"CN","iso3":"CHN","admin_name":"Jiangsu","capital":"minor","population":"4592431","id":"1156185511"},{"city":"Chenzhou","city_ascii":"Chenzhou","lat":"25.7989","lng":"113.0267","country":"China","iso2":"CN","iso3":"CHN","admin_name":"Hunan","capital":"minor","population":"4581778","id":"1156291915"},{"city":"Chifeng","city_ascii":"Chifeng","lat":"42.2663","lng":"118.9223","country":"China","iso2":"CN","iso3":"CHN","admin_name":"Inner Mongolia","capital":"minor","population":"4376600","id":"1156277458"},{"city":"Casablanca","city_ascii":"Casablanca","lat":"33.5992","lng":"-7.6200","country":"Morocco","iso2":"MA","iso3":"MAR","admin_name":"Casablanca-Settat","capital":"admin","population":"4370000","id":"1504175315"},{"city":"Chuzhou","city_ascii":"Chuzhou","lat":"32.3062","lng":"118.3115","country":"China","iso2":"CN","iso3":"CHN","admin_name":"Anhui","capital":"","population":"4110000","id":"1156036420"},{"city":"Chengde","city_ascii":"Chengde","lat":"40.9739","lng":"117.9322","country":"China","iso2":"CN","iso3":"CHN","admin_name":"Hebei","capital":"","population":"3610000","id":"1156197800"},{"city":"Chaoyang","city_ascii":"Chaoyang","lat":"41.5757","lng":"120.4486","country":"China","iso2":"CN","iso3":"CHN","admin_name":"Liaoning","capital":"","population":"3370000","id":"1156706927"},{"city":"Changzhi","city_ascii":"Changzhi","lat":"36.1953","lng":"113.0970","country":"China","iso2":"CN","iso3":"CHN","admin_name":"Shanxi","capital":"minor","population":"3230000","id":"1156057944"},{"city":"Cawnpore","city_ascii":"Cawnpore","lat":"26.4725","lng":"80.3311","country":"India","iso2":"IN","iso3":"IND","admin_name":"Uttar Pradesh","capital":"","population":"2701324","id":"1356575238"},{"city":"Chaozhou","city_ascii":"Chaozhou","lat":"23.6700","lng":"116.6300","country":"China","iso2":"CN","iso3":"CHN","admin_name":"Guangdong","capital":"minor","population":"2620000","id":"1156549118"},{"city":"Chattogram","city_ascii":"Chattogram","lat":"22.3350","lng":"91.8325","country":"Bangladesh","iso2":"BD","iso3":"BGD","admin_name":"Chittagong","capital":"admin","population":"2581643","id":"1050830722"},{"city":"Cali","city_ascii":"Cali","lat":"3.4400","lng":"-76.5197","country":"Colombia","iso2":"CO","iso3":"COL","admin_name":"Valle del Cauca","capital":"admin","population":"2471474","id":"1170417589"},{"city":"Chongzuo","city_ascii":"Chongzuo","lat":"22.4167","lng":"107.3667","country":"China","iso2":"CN","iso3":"CHN","admin_name":"Guangxi","capital":"minor","population":"1994285","id":"1156438670"},{"city":"Caracas","city_ascii":"Caracas","lat":"10.5000","lng":"-66.9333","country":"Venezuela","iso2":"VE","iso3":"VEN","admin_name":"Distrito Capital","capital":"primary","population":"1943901","id":"1862748204"},{"city":"Curitiba","city_ascii":"Curitiba","lat":"-25.4297","lng":"-49.2719","country":"Brazil","iso2":"BR","iso3":"BRA","admin_name":"Paraná","capital":"admin","population":"1879355","id":"1076701712"},{"city":"Chinchvad","city_ascii":"Chinchvad","lat":"18.6278","lng":"73.8131","country":"India","iso2":"IN","iso3":"IND","admin_name":"Mahārāshtra","capital":"","population":"1729320","id":"1356475483"},{"city":"Cleveland","city_ascii":"Cleveland","lat":"41.4767","lng":"-81.6804","country":"United States","iso2":"US","iso3":"USA","admin_name":"Ohio","capital":"","population":"1710093","id":"1840000596"},{"city":"Conakry","city_ascii":"Conakry","lat":"9.5092","lng":"-13.7122","country":"Guinea","iso2":"GN","iso3":"GIN","admin_name":"Conakry","capital":"primary","population":"1667864","id":"1324568159"},{"city":"Cincinnati","city_ascii":"Cincinnati","lat":"39.1413","lng":"-84.5061","country":"United States","iso2":"US","iso3":"USA","admin_name":"Ohio","capital":"","population":"1662691","id":"1840003814"},{"city":"Caloocan City","city_ascii":"Caloocan City","lat":"14.6500","lng":"120.9667","country":"Philippines","iso2":"PH","iso3":"PHL","admin_name":"Caloocan","capital":"admin","population":"1583978","id":"1608897690"},{"city":"Chengtangcun","city_ascii":"Chengtangcun","lat":"35.0833","lng":"117.1500","country":"China","iso2":"CN","iso3":"CHN","admin_name":"Shandong","capital":"","population":"1603659","id":"1156883901"},{"city":"Columbus","city_ascii":"Columbus","lat":"39.9862","lng":"-82.9850","country":"United States","iso2":"US","iso3":"USA","admin_name":"Ohio","capital":"admin","population":"1562009","id":"1840003760"},{"city":"Charlotte","city_ascii":"Charlotte","lat":"35.2080","lng":"-80.8304","country":"United States","iso2":"US","iso3":"USA","admin_name":"North Carolina","capital":"","population":"1512923","id":"1840014557"},{"city":"Changshu","city_ascii":"Changshu","lat":"31.6500","lng":"120.7333","country":"China","iso2":"CN","iso3":"CHN","admin_name":"Jiangsu","capital":"","population":"1510100","id":"1156901538"},{"city":"Chizhou","city_ascii":"Chizhou","lat":"30.6583","lng":"117.4849","country":"China","iso2":"CN","iso3":"CHN","admin_name":"Anhui","capital":"minor","population":"1430000","id":"1156131504"},{"city":"Córdoba","city_ascii":"Cordoba","lat":"-31.4167","lng":"-64.1833","country":"Argentina","iso2":"AR","iso3":"ARG","admin_name":"Córdoba","capital":"admin","population":"1329604","id":"1032803249"},{"city":"Comayagüela","city_ascii":"Comayaguela","lat":"14.0833","lng":"-87.2167","country":"Honduras","iso2":"HN","iso3":"HND","admin_name":"Francisco Morazán","capital":"","population":"1250000","id":"1340762485"},{"city":"Calgary","city_ascii":"Calgary","lat":"51.0500","lng":"-114.0667","country":"Canada","iso2":"CA","iso3":"CAN","admin_name":"Alberta","capital":"","population":"1239220","id":"1124690423"},{"city":"Cần Thơ","city_ascii":"Can Tho","lat":"10.0333","lng":"105.7833","country":"Vietnam","iso2":"VN","iso3":"VNM","admin_name":"Cần Thơ","capital":"admin","population":"1237300","id":"1704783472"},{"city":"Chelyabinsk","city_ascii":"Chelyabinsk","lat":"55.1500","lng":"61.4000","country":"Russia","iso2":"RU","iso3":"RUS","admin_name":"Chelyabinskaya Oblast’","capital":"admin","population":"1202371","id":"1643224011"},{"city":"Cilacap","city_ascii":"Cilacap","lat":"-7.7167","lng":"109.0170","country":"Indonesia","iso2":"ID","iso3":"IDN","admin_name":"Jawa Tengah","capital":"minor","population":"1174964","id":"1360503809"},{"city":"Campinas","city_ascii":"Campinas","lat":"-22.9009","lng":"-47.0573","country":"Brazil","iso2":"BR","iso3":"BRA","admin_name":"São Paulo","capital":"","population":"1164098","id":"1076145766"},{"city":"Callao","city_ascii":"Callao","lat":"-12.0611","lng":"-77.1333","country":"Peru","iso2":"PE","iso3":"PER","admin_name":"Callao","capital":"admin","population":"1129854","id":"1604422141"},{"city":"Ciudad Nezahualcóyotl","city_ascii":"Ciudad Nezahualcoyotl","lat":"19.4100","lng":"-99.0300","country":"Mexico","iso2":"MX","iso3":"MEX","admin_name":"México","capital":"","population":"1109363","id":"1484016661"},{"city":"Copenhagen","city_ascii":"Copenhagen","lat":"55.6786","lng":"12.5635","country":"Denmark","iso2":"DK","iso3":"DNK","admin_name":"Hovedstaden","capital":"primary","population":"1085000","id":"1208763942"},{"city":"Cologne","city_ascii":"Cologne","lat":"50.9422","lng":"6.9578","country":"Germany","iso2":"DE","iso3":"DEU","admin_name":"North Rhine-Westphalia","capital":"","population":"1085664","id":"1276015998"},{"city":"Changwon","city_ascii":"Changwon","lat":"35.2281","lng":"128.6811","country":"Korea, South","iso2":"KR","iso3":"KOR","admin_name":"Gyeongnam","capital":"admin","population":"1046054","id":"1410592618"},{"city":"Cartagena","city_ascii":"Cartagena","lat":"10.4236","lng":"-75.5253","country":"Colombia","iso2":"CO","iso3":"COL","admin_name":"Bolívar","capital":"admin","population":"1036412","id":"1170886102"},{"city":"Chandīgarh","city_ascii":"Chandigarh","lat":"30.7353","lng":"76.7911","country":"India","iso2":"IN","iso3":"IND","admin_name":"Chandīgarh","capital":"admin","population":"1026459","id":"1356739179"},{"city":"Cotonou","city_ascii":"Cotonou","lat":"6.4000","lng":"2.5200","country":"Benin","iso2":"BJ","iso3":"BEN","admin_name":"Littoral","capital":"primary","population":"762000","id":"1204955174"},{"city":"Colombo","city_ascii":"Colombo","lat":"6.9167","lng":"79.8333","country":"Sri Lanka","iso2":"LK","iso3":"LKA","admin_name":"Western","capital":"primary","population":"752993","id":"1144251314"},{"city":"Chisinau","city_ascii":"Chisinau","lat":"47.0056","lng":"28.8575","country":"Moldova","iso2":"MD","iso3":"MDA","admin_name":"Chişinău","capital":"primary","population":"685900","id":"1498011437"},{"city":"Cape Town","city_ascii":"Cape Town","lat":"-33.9250","lng":"18.4250","country":"South Africa","iso2":"ZA","iso3":"ZAF","admin_name":"Western Cape","capital":"primary","population":"433688","id":"1710680650"},{"city":"Canberra","city_ascii":"Canberra","lat":"-35.2931","lng":"149.1269","country":"Australia","iso2":"AU","iso3":"AUS","admin_name":"Australian Capital Territory","capital":"primary","population":"426704","id":"1036142029"},{"city":"Castries","city_ascii":"Castries","lat":"14.0167","lng":"-60.9833","country":"Saint Lucia","iso2":"LC","iso3":"LCA","admin_name":"Castries","capital":"primary","population":"70000","id":"1662922505"},{"city":"Capitol Hill","city_ascii":"Capitol Hill","lat":"15.2137","lng":"145.7546","country":"Northern Mariana Islands","iso2":"MP","iso3":"MNP","admin_name":"","capital":"primary","population":"2500","id":"1580556972"},{"city":"Chiba","city_ascii":"Chiba","lat":"35.6000","lng":"140.1000","country":"Japan","iso2":"JP","iso3":"JPN","admin_name":"Chiba","capital":"admin","population":"980203","id":"1392107144"},{"city":"Coimbatore","city_ascii":"Coimbatore","lat":"11.0000","lng":"76.9667","country":"India","iso2":"IN","iso3":"IND","admin_name":"Tamil Nādu","capital":"","population":"959823","id":"1356999503"},{"city":"Cebu City","city_ascii":"Cebu City","lat":"10.3000","lng":"123.9000","country":"Philippines","iso2":"PH","iso3":"PHL","admin_name":"Cebu","capital":"admin","population":"922611","id":"1608136151"},{"city":"Chihuahua","city_ascii":"Chihuahua","lat":"28.6353","lng":"-106.0889","country":"Mexico","iso2":"MX","iso3":"MEX","admin_name":"Chihuahua","capital":"admin","population":"878062","id":"1484335603"},{"city":"Campo Grande","city_ascii":"Campo Grande","lat":"-20.4686","lng":"-54.6222","country":"Brazil","iso2":"BR","iso3":"BRA","admin_name":"Mato Grosso do Sul","capital":"admin","population":"874210","id":"1076660445"},{"city":"Cheongju","city_ascii":"Cheongju","lat":"36.6372","lng":"127.4897","country":"Korea, South","iso2":"KR","iso3":"KOR","admin_name":"Chungbuk","capital":"admin","population":"833276","id":"1410964361"},{"city":"Culiacán","city_ascii":"Culiacan","lat":"24.8069","lng":"-107.3939","country":"Mexico","iso2":"MX","iso3":"MEX","admin_name":"Sinaloa","capital":"admin","population":"785800","id":"1484516810"},{"city":"Chaohucun","city_ascii":"Chaohucun","lat":"31.6783","lng":"117.7353","country":"China","iso2":"CN","iso3":"CHN","admin_name":"Anhui","capital":"","population":"782000","id":"1156671495"},{"city":"Cencheng","city_ascii":"Cencheng","lat":"22.9297","lng":"111.0186","country":"China","iso2":"CN","iso3":"CHN","admin_name":"Guangxi","capital":"","population":"772113","id":"1156000460"},{"city":"Changhua","city_ascii":"Changhua","lat":"24.0667","lng":"120.5333","country":"Taiwan","iso2":"TW","iso3":"TWN","admin_name":"Changhua","capital":"admin","population":"750000","id":"1158439005"},{"city":"Ciudad Guayana","city_ascii":"Ciudad Guayana","lat":"8.3596","lng":"-62.6517","country":"Venezuela","iso2":"VE","iso3":"VEN","admin_name":"Bolívar","capital":"minor","population":"751331","id":"1862889027"},{"city":"Cúcuta","city_ascii":"Cucuta","lat":"7.9075","lng":"-72.5047","country":"Colombia","iso2":"CO","iso3":"COL","admin_name":"Norte de Santander","capital":"admin","population":"750000","id":"1170743755"},{"city":"Cancún","city_ascii":"Cancun","lat":"21.1606","lng":"-86.8475","country":"Mexico","iso2":"MX","iso3":"MEX","admin_name":"Quintana Roo","capital":"minor","population":"743626","id":"1484010310"},{"city":"Chengguan","city_ascii":"Chengguan","lat":"35.4599","lng":"113.7975","country":"China","iso2":"CN","iso3":"CHN","admin_name":"Henan","capital":"minor","population":"740435","id":"1156866870"},{"city":"Chengxiang","city_ascii":"Chengxiang","lat":"31.4515","lng":"121.1043","country":"China","iso2":"CN","iso3":"CHN","admin_name":"Jiangsu","capital":"minor","population":"709500","id":"1156254788"},{"city":"Changsha","city_ascii":"Changsha","lat":"22.3762","lng":"112.6877","country":"China","iso2":"CN","iso3":"CHN","admin_name":"Guangdong","capital":"minor","population":"699242","id":"1156011120"},{"city":"City of Parañaque","city_ascii":"City of Paranaque","lat":"14.4667","lng":"121.0167","country":"Philippines","iso2":"PH","iso3":"PHL","admin_name":"Parañaque","capital":"admin","population":"665822","id":"1608379532"},{"city":"Cagayan de Oro","city_ascii":"Cagayan de Oro","lat":"8.4833","lng":"124.6500","country":"Philippines","iso2":"PH","iso3":"PHL","admin_name":"Cagayan de Oro","capital":"admin","population":"675950","id":"1608831546"},{"city":"Cape Coral","city_ascii":"Cape Coral","lat":"26.6446","lng":"-81.9956","country":"United States","iso2":"US","iso3":"USA","admin_name":"Florida","capital":"","population":"668382","id":"1840015130"},{"city":"Ch’ŏngjin","city_ascii":"Ch'ongjin","lat":"41.8000","lng":"129.7831","country":"Korea, North","iso2":"KP","iso3":"PRK","admin_name":"Hambuk","capital":"minor","population":"667929","id":"1408498177"},{"city":"Catia La Mar","city_ascii":"Catia La Mar","lat":"10.6000","lng":"-67.0333","country":"Venezuela","iso2":"VE","iso3":"VEN","admin_name":"Vargas","capital":"minor","population":"661897","id":"1862657837"},{"city":"Concord","city_ascii":"Concord","lat":"37.9722","lng":"-122.0016","country":"United States","iso2":"US","iso3":"USA","admin_name":"California","capital":"","population":"652308","id":"1840018905"},{"city":"Ch’ŏnan","city_ascii":"Ch'onan","lat":"36.8064","lng":"127.1522","country":"Korea, South","iso2":"KR","iso3":"KOR","admin_name":"Chungnam","capital":"","population":"651661","id":"1410020455"},{"city":"Colorado Springs","city_ascii":"Colorado Springs","lat":"38.8674","lng":"-104.7606","country":"United States","iso2":"US","iso3":"USA","admin_name":"Colorado","capital":"","population":"642413","id":"1840018825"},{"city":"Cochabamba","city_ascii":"Cochabamba","lat":"-17.3935","lng":"-66.1570","country":"Bolivia","iso2":"BO","iso3":"BOL","admin_name":"Cochabamba","capital":"admin","population":"632013","id":"1068793894"},{"city":"Changping","city_ascii":"Changping","lat":"40.2248","lng":"116.1944","country":"China","iso2":"CN","iso3":"CHN","admin_name":"Beijing","capital":"","population":"614821","id":"1156166828"},{"city":"Charleston","city_ascii":"Charleston","lat":"32.8153","lng":"-79.9628","country":"United States","iso2":"US","iso3":"USA","admin_name":"South Carolina","capital":"","population":"628377","id":"1840015163"},{"city":"Chimalhuacán","city_ascii":"Chimalhuacan","lat":"19.4167","lng":"-98.9000","country":"Mexico","iso2":"MX","iso3":"MEX","admin_name":"México","capital":"minor","population":"614453","id":"1484504936"},{"city":"Cuttack","city_ascii":"Cuttack","lat":"20.4500","lng":"85.8667","country":"India","iso2":"IN","iso3":"IND","admin_name":"Odisha","capital":"","population":"606007","id":"1356872061"},{"city":"Canoas","city_ascii":"Canoas","lat":"-29.9200","lng":"-51.1800","country":"Brazil","iso2":"BR","iso3":"BRA","admin_name":"Rio Grande do Sul","capital":"","population":"600000","id":"1076009922"},{"city":"Cimahi","city_ascii":"Cimahi","lat":"-6.8833","lng":"107.5333","country":"Indonesia","iso2":"ID","iso3":"IDN","admin_name":"Jawa Barat","capital":"","population":"586580","id":"1360181436"},{"city":"Chānda","city_ascii":"Chanda","lat":"19.9500","lng":"79.3000","country":"India","iso2":"IN","iso3":"IND","admin_name":"Mahārāshtra","capital":"","population":"595118","id":"1356592607"},{"city":"Chuxiong","city_ascii":"Chuxiong","lat":"25.0461","lng":"101.5436","country":"China","iso2":"CN","iso3":"CHN","admin_name":"Yunnan","capital":"","population":"588620","id":"1156225985"},{"city":"Cuiabá","city_ascii":"Cuiaba","lat":"-15.5958","lng":"-56.0969","country":"Brazil","iso2":"BR","iso3":"BRA","admin_name":"Mato Grosso","capital":"admin","population":"585367","id":"1076112309"},{"city":"Ciudad Bolívar","city_ascii":"Ciudad Bolivar","lat":"8.1167","lng":"-63.5500","country":"Venezuela","iso2":"VE","iso3":"VEN","admin_name":"Bolívar","capital":"admin","population":"567953","id":"1862318264"},{"city":"Columbia","city_ascii":"Columbia","lat":"34.0376","lng":"-80.9037","country":"United States","iso2":"US","iso3":"USA","admin_name":"South Carolina","capital":"admin","population":"560041","id":"1840014730"},{"city":"Chiclayo","city_ascii":"Chiclayo","lat":"-6.7630","lng":"-79.8366","country":"Peru","iso2":"PE","iso3":"PER","admin_name":"Lambayeque","capital":"admin","population":"552508","id":"1604799615"},{"city":"Cabinda","city_ascii":"Cabinda","lat":"-5.5500","lng":"12.2000","country":"Angola","iso2":"AO","iso3":"AGO","admin_name":"Cabinda","capital":"admin","population":"550000","id":"1024474012"},{"city":"Chang’an","city_ascii":"Chang'an","lat":"29.4761","lng":"113.4480","country":"China","iso2":"CN","iso3":"CHN","admin_name":"Hunan","capital":"minor","population":"537500","id":"1156139784"},{"city":"Ciudad Apodaca","city_ascii":"Ciudad Apodaca","lat":"25.7833","lng":"-100.1833","country":"Mexico","iso2":"MX","iso3":"MEX","admin_name":"Nuevo León","capital":"minor","population":"523370","id":"1484855080"},{"city":"Cuautitlán Izcalli","city_ascii":"Cuautitlan Izcalli","lat":"19.6500","lng":"-99.2500","country":"Mexico","iso2":"MX","iso3":"MEX","admin_name":"México","capital":"minor","population":"511675","id":"1484282338"},{"city":"Carrefour","city_ascii":"Carrefour","lat":"18.5333","lng":"-72.4000","country":"Haiti","iso2":"HT","iso3":"HTI","admin_name":"Ouest","capital":"","population":"511345","id":"1332000098"},{"city":"Chimbote","city_ascii":"Chimbote","lat":"-9.0745","lng":"-78.5936","country":"Peru","iso2":"PE","iso3":"PER","admin_name":"Ancash","capital":"","population":"497875","id":"1604199858"},{"city":"Chengjiao","city_ascii":"Chengjiao","lat":"35.4043","lng":"114.0593","country":"China","iso2":"CN","iso3":"CHN","admin_name":"Henan","capital":"minor","population":"495744","id":"1156571332"},{"city":"Ciudad López Mateos","city_ascii":"Ciudad Lopez Mateos","lat":"19.5500","lng":"-99.2833","country":"Mexico","iso2":"MX","iso3":"MEX","admin_name":"México","capital":"minor","population":"489937","id":"1484363879"},{"city":"Cheboksary","city_ascii":"Cheboksary","lat":"56.1333","lng":"47.2500","country":"Russia","iso2":"RU","iso3":"RUS","admin_name":"Chuvashiya","capital":"admin","population":"489498","id":"1643163382"},{"city":"Caerdydd","city_ascii":"Caerdydd","lat":"51.4833","lng":"-3.1833","country":"United Kingdom","iso2":"GB","iso3":"GBR","admin_name":"Cardiff","capital":"","population":"479000","id":"1826362422"},{"city":"Chiniot","city_ascii":"Chiniot","lat":"31.7167","lng":"72.9833","country":"Pakistan","iso2":"PK","iso3":"PAK","admin_name":"Punjab","capital":"minor","population":"477781","id":"1586413435"},{"city":"Celaya","city_ascii":"Celaya","lat":"20.5222","lng":"-100.8122","country":"Mexico","iso2":"MX","iso3":"MEX","admin_name":"Guanajuato","capital":"minor","population":"468469","id":"1484979555"},{"city":"Calabar","city_ascii":"Calabar","lat":"4.9500","lng":"8.3250","country":"Nigeria","iso2":"NG","iso3":"NGA","admin_name":"Cross River","capital":"admin","population":"461796","id":"1566495489"},{"city":"City of Calamba","city_ascii":"City of Calamba","lat":"14.2167","lng":"121.1667","country":"Philippines","iso2":"PH","iso3":"PHL","admin_name":"Laguna","capital":"","population":"454486","id":"1608985581"},{"city":"Constantine","city_ascii":"Constantine","lat":"36.3650","lng":"6.6147","country":"Algeria","iso2":"DZ","iso3":"DZA","admin_name":"Constantine","capital":"admin","population":"448374","id":"1012275076"},{"city":"Calicut","city_ascii":"Calicut","lat":"11.2500","lng":"75.7667","country":"India","iso2":"IN","iso3":"IND","admin_name":"Kerala","capital":"minor","population":"431560","id":"1356010401"},{"city":"Cusco","city_ascii":"Cusco","lat":"-13.5183","lng":"-71.9781","country":"Peru","iso2":"PE","iso3":"PER","admin_name":"Cusco","capital":"admin","population":"428450","id":"1604162901"},{"city":"Chattanooga","city_ascii":"Chattanooga","lat":"35.0657","lng":"-85.2488","country":"United States","iso2":"US","iso3":"USA","admin_name":"Tennessee","capital":"","population":"415501","id":"1840014569"},{"city":"Ciudad Obregón","city_ascii":"Ciudad Obregon","lat":"27.4939","lng":"-109.9389","country":"Mexico","iso2":"MX","iso3":"MEX","admin_name":"Sonora","capital":"minor","population":"405000","id":"1484887986"},{"city":"Campina Grande","city_ascii":"Campina Grande","lat":"-7.2306","lng":"-35.8811","country":"Brazil","iso2":"BR","iso3":"BRA","admin_name":"Paraíba","capital":"","population":"405072","id":"1076218697"},{"city":"Carapicuíba","city_ascii":"Carapicuiba","lat":"-23.5228","lng":"-46.8358","country":"Brazil","iso2":"BR","iso3":"BRA","admin_name":"São Paulo","capital":"","population":"392294","id":"1076874103"},{"city":"Comilla","city_ascii":"Comilla","lat":"23.4704","lng":"91.1700","country":"Bangladesh","iso2":"BD","iso3":"BGD","admin_name":"Chittagong","capital":"","population":"389411","id":"1050609330"},{"city":"Campos","city_ascii":"Campos","lat":"-21.7523","lng":"-41.3304","country":"Brazil","iso2":"BR","iso3":"BRA","admin_name":"Rio de Janeiro","capital":"","population":"387417","id":"1076606365"},{"city":"Caxias do Sul","city_ascii":"Caxias do Sul","lat":"-29.1800","lng":"-51.1700","country":"Brazil","iso2":"BR","iso3":"BRA","admin_name":"Rio Grande do Sul","capital":"","population":"381270","id":"1076809957"},{"city":"Cilegon","city_ascii":"Cilegon","lat":"-6.0027","lng":"106.0112","country":"Indonesia","iso2":"ID","iso3":"IDN","admin_name":"Banten","capital":"","population":"387543","id":"1360643410"},{"city":"Christchurch","city_ascii":"Christchurch","lat":"-43.5309","lng":"172.6365","country":"New Zealand","iso2":"NZ","iso3":"NZL","admin_name":"Canterbury","capital":"admin","population":"377200","id":"1554377228"},{"city":"Cumaná","city_ascii":"Cumana","lat":"10.4500","lng":"-64.1667","country":"Venezuela","iso2":"VE","iso3":"VEN","admin_name":"Sucre","capital":"admin","population":"374706","id":"1862583279"},{"city":"Cuernavaca","city_ascii":"Cuernavaca","lat":"18.9186","lng":"-99.2342","country":"Mexico","iso2":"MX","iso3":"MEX","admin_name":"Morelos","capital":"admin","population":"366321","id":"1484926471"},{"city":"Coventry","city_ascii":"Coventry","lat":"52.4081","lng":"-1.5106","country":"United Kingdom","iso2":"GB","iso3":"GBR","admin_name":"Coventry","capital":"","population":"362690","id":"1826979198"},{"city":"Ciudad General Escobedo","city_ascii":"Ciudad General Escobedo","lat":"25.7933","lng":"-100.1583","country":"Mexico","iso2":"MX","iso3":"MEX","admin_name":"Nuevo León","capital":"minor","population":"363436","id":"1484345554"},{"city":"Corrientes","city_ascii":"Corrientes","lat":"-27.4833","lng":"-58.8167","country":"Argentina","iso2":"AR","iso3":"ARG","admin_name":"Corrientes","capital":"admin","population":"352646","id":"1032173097"},{"city":"Cabimas","city_ascii":"Cabimas","lat":"10.4000","lng":"-71.4333","country":"Venezuela","iso2":"VE","iso3":"VEN","admin_name":"Zulia","capital":"minor","population":"351735","id":"1862398719"},{"city":"Chita","city_ascii":"Chita","lat":"52.0333","lng":"113.5000","country":"Russia","iso2":"RU","iso3":"RUS","admin_name":"Zabaykal’skiy Kray","capital":"admin","population":"347088","id":"1643036673"},{"city":"Chitungwiza","city_ascii":"Chitungwiza","lat":"-18.0000","lng":"31.1000","country":"Zimbabwe","iso2":"ZW","iso3":"ZWE","admin_name":"Harare","capital":"","population":"340360","id":"1716688236"},{"city":"Cuddapah","city_ascii":"Cuddapah","lat":"14.4667","lng":"78.8167","country":"India","iso2":"IN","iso3":"IND","admin_name":"Andhra Pradesh","capital":"","population":"344893","id":"1356360140"},{"city":"Corpus Christi","city_ascii":"Corpus Christi","lat":"27.7260","lng":"-97.3755","country":"United States","iso2":"US","iso3":"USA","admin_name":"Texas","capital":"","population":"342464","id":"1840019718"},{"city":"Chinju","city_ascii":"Chinju","lat":"35.1928","lng":"128.0847","country":"Korea, South","iso2":"KR","iso3":"KOR","admin_name":"Gyeongnam","capital":"","population":"337230","id":"1410560599"},{"city":"Cuenca","city_ascii":"Cuenca","lat":"-2.8974","lng":"-79.0045","country":"Ecuador","iso2":"EC","iso3":"ECU","admin_name":"Azuay","capital":"admin","population":"329928","id":"1218041020"},{"city":"Cluj-Napoca","city_ascii":"Cluj-Napoca","lat":"46.7800","lng":"23.5594","country":"Romania","iso2":"RO","iso3":"ROU","admin_name":"Cluj","capital":"admin","population":"324576","id":"1642503974"},{"city":"Córdoba","city_ascii":"Cordoba","lat":"37.8833","lng":"-4.7667","country":"Spain","iso2":"ES","iso3":"ESP","admin_name":"Andalusia","capital":"minor","population":"325701","id":"1724706440"},{"city":"Camagüey","city_ascii":"Camaguey","lat":"21.3786","lng":"-77.9186","country":"Cuba","iso2":"CU","iso3":"CUB","admin_name":"Camagüey","capital":"admin","population":"321992","id":"1192667983"},{"city":"Cherepovets","city_ascii":"Cherepovets","lat":"59.1333","lng":"37.9167","country":"Russia","iso2":"RU","iso3":"RUS","admin_name":"Vologodskaya Oblast’","capital":"","population":"318856","id":"1643937680"},{"city":"Coatzacoalcos","city_ascii":"Coatzacoalcos","lat":"18.1500","lng":"-94.4333","country":"Mexico","iso2":"MX","iso3":"MEX","admin_name":"Veracruz","capital":"minor","population":"319187","id":"1484016854"},{"city":"Cirebon","city_ascii":"Cirebon","lat":"-6.7167","lng":"108.5667","country":"Indonesia","iso2":"ID","iso3":"IDN","admin_name":"Jawa Barat","capital":"","population":"316126","id":"1360011375"},{"city":"Cà Mau","city_ascii":"Ca Mau","lat":"9.1833","lng":"105.1500","country":"Vietnam","iso2":"VN","iso3":"VNM","admin_name":"Cà Mau","capital":"admin","population":"315270","id":"1704320474"},{"city":"Cabuyao","city_ascii":"Cabuyao","lat":"14.2750","lng":"121.1250","country":"Philippines","iso2":"PH","iso3":"PHL","admin_name":"Laguna","capital":"","population":"308745","id":"1608604441"},{"city":"Catania","city_ascii":"Catania","lat":"37.5027","lng":"15.0873","country":"Italy","iso2":"IT","iso3":"ITA","admin_name":"Sicilia","capital":"minor","population":"311584","id":"1380562508"},{"city":"Chalco","city_ascii":"Chalco","lat":"19.2647","lng":"-98.8975","country":"Mexico","iso2":"MX","iso3":"MEX","admin_name":"México","capital":"minor","population":"310130","id":"1484834149"},{"city":"Ciudad del Este","city_ascii":"Ciudad del Este","lat":"-25.5167","lng":"-54.6167","country":"Paraguay","iso2":"PY","iso3":"PRY","admin_name":"Alto Paraná","capital":"admin","population":"304282","id":"1600265252"},{"city":"Ciudad Victoria","city_ascii":"Ciudad Victoria","lat":"23.7333","lng":"-99.1333","country":"Mexico","iso2":"MX","iso3":"MEX","admin_name":"Tamaulipas","capital":"admin","population":"305155","id":"1484616519"},{"city":"Curepipe","city_ascii":"Curepipe","lat":"-20.3162","lng":"57.5166","country":"Mauritius","iso2":"MU","iso3":"MUS","admin_name":"Plaines Wilhems","capital":"","population":"299975","id":"1480343099"},{"city":"Cabanatuan City","city_ascii":"Cabanatuan City","lat":"15.4833","lng":"120.9667","country":"Philippines","iso2":"PH","iso3":"PHL","admin_name":"Nueva Ecija","capital":"","population":"302231","id":"1608247694"},{"city":"Cadiz","city_ascii":"Cadiz","lat":"10.9587","lng":"123.3086","country":"Philippines","iso2":"PH","iso3":"PHL","admin_name":"Negros Occidental","capital":"","population":"283157","id":"1608224037"},{"city":"Cotabato","city_ascii":"Cotabato","lat":"7.2167","lng":"124.2500","country":"Philippines","iso2":"PH","iso3":"PHL","admin_name":"Cotabato","capital":"admin","population":"299438","id":"1608753128"},{"city":"Chernihiv","city_ascii":"Chernihiv","lat":"51.5000","lng":"31.3000","country":"Ukraine","iso2":"UA","iso3":"UKR","admin_name":"Chernihivs’ka Oblast’","capital":"admin","population":"294522","id":"1804565996"},{"city":"Cagliari","city_ascii":"Cagliari","lat":"39.2224","lng":"9.1040","country":"Italy","iso2":"IT","iso3":"ITA","admin_name":"Sardegna","capital":"admin","population":"291511","id":"1380685705"},{"city":"Constanţa","city_ascii":"Constanta","lat":"44.1733","lng":"28.6383","country":"Romania","iso2":"RO","iso3":"ROU","admin_name":"Constanţa","capital":"admin","population":"283872","id":"1642851858"},{"city":"Coacalco","city_ascii":"Coacalco","lat":"19.6333","lng":"-99.0931","country":"Mexico","iso2":"MX","iso3":"MEX","admin_name":"México","capital":"minor","population":"278064","id":"1484929782"},{"city":"Crato","city_ascii":"Crato","lat":"-7.2342","lng":"-39.4094","country":"Brazil","iso2":"BR","iso3":"BRA","admin_name":"Ceará","capital":"","population":"273883","id":"1076894967"},{"city":"Coro","city_ascii":"Coro","lat":"11.3950","lng":"-69.6816","country":"Venezuela","iso2":"VE","iso3":"VEN","admin_name":"Falcón","capital":"admin","population":"284266","id":"1862429150"},{"city":"Chuncheon","city_ascii":"Chuncheon","lat":"37.8747","lng":"127.7342","country":"Korea, South","iso2":"KR","iso3":"KOR","admin_name":"Gangwon","capital":"admin","population":"281596","id":"1410231130"},{"city":"Cherkasy","city_ascii":"Cherkasy","lat":"49.4444","lng":"32.0597","country":"Ukraine","iso2":"UA","iso3":"UKR","admin_name":"Cherkas’ka Oblast’","capital":"admin","population":"276360","id":"1804459212"},{"city":"Chula Vista","city_ascii":"Chula Vista","lat":"32.6281","lng":"-117.0145","country":"United States","iso2":"US","iso3":"USA","admin_name":"California","capital":"","population":"274492","id":"1840019350"},{"city":"Crato","city_ascii":"Crato","lat":"-7.4639","lng":"-63.0400","country":"Brazil","iso2":"BR","iso3":"BRA","admin_name":"Amazonas","capital":"","population":"273883","id":"1076425706"},{"city":"Chiayi","city_ascii":"Chiayi","lat":"23.4800","lng":"120.4497","country":"Taiwan","iso2":"TW","iso3":"TWN","admin_name":"Chiayi","capital":"admin","population":"268622","id":"1158867217"},{"city":"Craiova","city_ascii":"Craiova","lat":"44.3333","lng":"23.8167","country":"Romania","iso2":"RO","iso3":"ROU","admin_name":"Dolj","capital":"admin","population":"269506","id":"1642859458"},{"city":"Canton","city_ascii":"Canton","lat":"40.8075","lng":"-81.3677","country":"United States","iso2":"US","iso3":"USA","admin_name":"Ohio","capital":"","population":"269418","id":"1840000963"},{"city":"Chernivtsi","city_ascii":"Chernivtsi","lat":"48.2908","lng":"25.9344","country":"Ukraine","iso2":"UA","iso3":"UKR","admin_name":"Chernivets’ka Oblast’","capital":"admin","population":"266550","id":"1804652872"},{"city":"Concord","city_ascii":"Concord","lat":"35.3933","lng":"-80.6366","country":"United States","iso2":"US","iso3":"USA","admin_name":"North Carolina","capital":"","population":"261801","id":"1840014559"},{"city":"Ciudad Benito Juárez","city_ascii":"Ciudad Benito Juarez","lat":"25.6500","lng":"-100.0833","country":"Mexico","iso2":"MX","iso3":"MEX","admin_name":"Nuevo León","capital":"minor","population":"260683","id":"1484140727"},{"city":"Cascavel","city_ascii":"Cascavel","lat":"-24.9558","lng":"-53.4553","country":"Brazil","iso2":"BR","iso3":"BRA","admin_name":"Paraná","capital":"","population":"257172","id":"1076509946"},{"city":"Columbus","city_ascii":"Columbus","lat":"32.5100","lng":"-84.8771","country":"United States","iso2":"US","iso3":"USA","admin_name":"Georgia","capital":"","population":"261445","id":"1840014887"},{"city":"Chandler","city_ascii":"Chandler","lat":"33.2826","lng":"-111.8516","country":"United States","iso2":"US","iso3":"USA","admin_name":"Arizona","capital":"","population":"261165","id":"1840019309"},{"city":"Ciudad Santa Catarina","city_ascii":"Ciudad Santa Catarina","lat":"25.6833","lng":"-100.4500","country":"Mexico","iso2":"MX","iso3":"MEX","admin_name":"Nuevo León","capital":"minor","population":"259896","id":"1484858068"},{"city":"Chōfugaoka","city_ascii":"Chofugaoka","lat":"35.6506","lng":"139.5408","country":"Japan","iso2":"JP","iso3":"JPN","admin_name":"Tōkyō","capital":"","population":"239650","id":"1392692794"},{"city":"Caruaru","city_ascii":"Caruaru","lat":"-8.2800","lng":"-35.9800","country":"Brazil","iso2":"BR","iso3":"BRA","admin_name":"Pernambuco","capital":"","population":"242094","id":"1076397475"},{"city":"Chigasaki","city_ascii":"Chigasaki","lat":"35.3339","lng":"139.4047","country":"Japan","iso2":"JP","iso3":"JPN","admin_name":"Kanagawa","capital":"","population":"241887","id":"1392346493"},{"city":"Chemnitz","city_ascii":"Chemnitz","lat":"50.8333","lng":"12.9167","country":"Germany","iso2":"DE","iso3":"DEU","admin_name":"Saxony","capital":"minor","population":"245403","id":"1276519956"},{"city":"Colón","city_ascii":"Colon","lat":"9.3598","lng":"-79.9004","country":"Panama","iso2":"PA","iso3":"PAN","admin_name":"Colón","capital":"admin","population":"241817","id":"1591599922"},{"city":"Chesapeake","city_ascii":"Chesapeake","lat":"36.6778","lng":"-76.3024","country":"United States","iso2":"US","iso3":"USA","admin_name":"Virginia","capital":"","population":"244835","id":"1840003874"},{"city":"Chimoio","city_ascii":"Chimoio","lat":"-19.1167","lng":"33.4500","country":"Mozambique","iso2":"MZ","iso3":"MOZ","admin_name":"Manica","capital":"admin","population":"238976","id":"1508460246"},{"city":"Chishui","city_ascii":"Chishui","lat":"28.5902","lng":"105.6946","country":"China","iso2":"CN","iso3":"CHN","admin_name":"Guizhou","capital":"","population":"237052","id":"1156325764"},{"city":"Centurion","city_ascii":"Centurion","lat":"-25.8603","lng":"28.1894","country":"South Africa","iso2":"ZA","iso3":"ZAF","admin_name":"Gauteng","capital":"","population":"236580","id":"1710138774"},{"city":"Cotia","city_ascii":"Cotia","lat":"-23.6039","lng":"-46.9189","country":"Brazil","iso2":"BR","iso3":"BRA","admin_name":"São Paulo","capital":"","population":"229548","id":"1076098590"},{"city":"Częstochowa","city_ascii":"Czestochowa","lat":"50.8000","lng":"19.1167","country":"Poland","iso2":"PL","iso3":"POL","admin_name":"Śląskie","capital":"minor","population":"228179","id":"1616881632"},{"city":"Campeche","city_ascii":"Campeche","lat":"19.8500","lng":"-90.5306","country":"Mexico","iso2":"MX","iso3":"MEX","admin_name":"Campeche","capital":"admin","population":"220389","id":"1484431512"},{"city":"Cidade de Nacala","city_ascii":"Cidade de Nacala","lat":"-14.5186","lng":"40.7150","country":"Mozambique","iso2":"MZ","iso3":"MOZ","admin_name":"Nampula","capital":"","population":"224795","id":"1508752825"},{"city":"Carlos Manuel de Céspedes","city_ascii":"Carlos Manuel de Cespedes","lat":"21.5767","lng":"-78.2775","country":"Cuba","iso2":"CU","iso3":"CUB","admin_name":"Camagüey","capital":"minor","population":"224488","id":"1192400731"},{"city":"Cartago","city_ascii":"Cartago","lat":"9.8667","lng":"-83.9167","country":"Costa Rica","iso2":"CR","iso3":"CRI","admin_name":"Cartago","capital":"admin","population":"221733","id":"1188911724"},{"city":"Córdoba","city_ascii":"Cordoba","lat":"18.8942","lng":"-96.9347","country":"Mexico","iso2":"MX","iso3":"MEX","admin_name":"Veracruz","capital":"minor","population":"218153","id":"1484179679"},{"city":"Ciudad Acuña","city_ascii":"Ciudad Acuna","lat":"29.3242","lng":"-100.9317","country":"Mexico","iso2":"MX","iso3":"MEX","admin_name":"Coahuila de Zaragoza","capital":"minor","population":"216099","id":"1484828397"},{"city":"Concepción","city_ascii":"Concepcion","lat":"-36.8271","lng":"-73.0503","country":"Chile","iso2":"CL","iso3":"CHL","admin_name":"Biobío","capital":"admin","population":"217537","id":"1152838958"},{"city":"Cúa","city_ascii":"Cua","lat":"10.1667","lng":"-66.8833","country":"Venezuela","iso2":"VE","iso3":"VEN","admin_name":"Miranda","capital":"minor","population":"214823","id":"1862770169"},{"city":"College Station","city_ascii":"College Station","lat":"30.5852","lng":"-96.2960","country":"United States","iso2":"US","iso3":"USA","admin_name":"Texas","capital":"","population":"215243","id":"1840019570"},{"city":"Cartagena","city_ascii":"Cartagena","lat":"37.6000","lng":"-0.9819","country":"Spain","iso2":"ES","iso3":"ESP","admin_name":"Murcia","capital":"","population":"214802","id":"1724143241"},{"city":"Criciúma","city_ascii":"Criciuma","lat":"-28.6800","lng":"-49.3900","country":"Brazil","iso2":"BR","iso3":"BRA","admin_name":"Santa Catarina","capital":"","population":"204217","id":"1076000206"},{"city":"Ciudad Madero","city_ascii":"Ciudad Madero","lat":"22.2500","lng":"-97.8333","country":"Mexico","iso2":"MX","iso3":"MEX","admin_name":"Tamaulipas","capital":"minor","population":"209175","id":"1484185237"},{"city":"Chungju","city_ascii":"Chungju","lat":"36.9706","lng":"127.9322","country":"Korea, South","iso2":"KR","iso3":"KOR","admin_name":"Chungbuk","capital":"","population":"211005","id":"1410333057"},{"city":"Cork","city_ascii":"Cork","lat":"51.9000","lng":"-8.4731","country":"Ireland","iso2":"IE","iso3":"IRL","admin_name":"Cork","capital":"admin","population":"208669","id":"1372221853"},{"city":"Coquimbo","city_ascii":"Coquimbo","lat":"-29.9532","lng":"-71.3380","country":"Chile","iso2":"CL","iso3":"CHL","admin_name":"Coquimbo","capital":"minor","population":"204068","id":"1152038253"},{"city":"Charleroi","city_ascii":"Charleroi","lat":"50.4167","lng":"4.4442","country":"Belgium","iso2":"BE","iso3":"BEL","admin_name":"Wallonia","capital":"minor","population":"201816","id":"1056263311"},{"city":"Cajamarca","city_ascii":"Cajamarca","lat":"-7.1644","lng":"-78.5106","country":"Peru","iso2":"PE","iso3":"PER","admin_name":"Cajamarca","capital":"admin","population":"201329","id":"1604091119"},{"city":"Croydon","city_ascii":"Croydon","lat":"51.3727","lng":"-0.1099","country":"United Kingdom","iso2":"GB","iso3":"GBR","admin_name":"Croydon","capital":"","population":"192064","id":"1826126675"},{"city":"Chakradharpur","city_ascii":"Chakradharpur","lat":"22.7000","lng":"85.6300","country":"India","iso2":"IN","iso3":"IND","admin_name":"Jharkhand","capital":"","population":"197953","id":"1356082013"},{"city":"Chilpancingo","city_ascii":"Chilpancingo","lat":"17.5500","lng":"-99.5000","country":"Mexico","iso2":"MX","iso3":"MEX","admin_name":"Guerrero","capital":"admin","population":"187251","id":"1484290575"},{"city":"Cholula de Rivadabia","city_ascii":"Cholula de Rivadabia","lat":"19.0633","lng":"-98.3064","country":"Mexico","iso2":"MX","iso3":"MEX","admin_name":"Puebla","capital":"","population":"193554","id":"1484237822"},{"city":"Cap-Haïtien","city_ascii":"Cap-Haitien","lat":"19.7500","lng":"-72.2000","country":"Haiti","iso2":"HT","iso3":"HTI","admin_name":"Nord","capital":"admin","population":"190289","id":"1332333795"},{"city":"Chŏngju","city_ascii":"Chongju","lat":"39.6500","lng":"125.3333","country":"Korea, North","iso2":"KP","iso3":"PRK","admin_name":"P’yŏngbuk","capital":"","population":"189742","id":"1408650871"},{"city":"Cachoeiro de Itapemirim","city_ascii":"Cachoeiro de Itapemirim","lat":"-20.8489","lng":"-41.1128","country":"Brazil","iso2":"BR","iso3":"BRA","admin_name":"Espírito Santo","capital":"","population":"189889","id":"1076536175"},{"city":"Clarksville","city_ascii":"Clarksville","lat":"36.5695","lng":"-87.3420","country":"United States","iso2":"US","iso3":"USA","admin_name":"Tennessee","capital":"","population":"188746","id":"1840014421"},{"city":"Cedar Rapids","city_ascii":"Cedar Rapids","lat":"41.9665","lng":"-91.6782","country":"United States","iso2":"US","iso3":"USA","admin_name":"Iowa","capital":"","population":"188038","id":"1840000471"},{"city":"Chaedŏk","city_ascii":"Chaedok","lat":"40.6723","lng":"129.2027","country":"Korea, North","iso2":"KP","iso3":"PRK","admin_name":"Hambuk","capital":"","population":"187270","id":"1408001232"},{"city":"Cabo Frio","city_ascii":"Cabo Frio","lat":"-22.8789","lng":"-42.0189","country":"Brazil","iso2":"BR","iso3":"BRA","admin_name":"Rio de Janeiro","capital":"","population":"186227","id":"1076449553"},{"city":"Calbayog City","city_ascii":"Calbayog City","lat":"12.0667","lng":"124.6000","country":"Philippines","iso2":"PH","iso3":"PHL","admin_name":"Samar","capital":"","population":"183851","id":"1608088739"},{"city":"Chicoloapan","city_ascii":"Chicoloapan","lat":"19.4167","lng":"-98.9000","country":"Mexico","iso2":"MX","iso3":"MEX","admin_name":"México","capital":"minor","population":"175053","id":"1484980825"},{"city":"Ciudad Valles","city_ascii":"Ciudad Valles","lat":"21.9833","lng":"-99.0167","country":"Mexico","iso2":"MX","iso3":"MEX","admin_name":"San Luis Potosí","capital":"minor","population":"176935","id":"1484904610"},{"city":"Cuautla","city_ascii":"Cuautla","lat":"18.8167","lng":"-98.9500","country":"Mexico","iso2":"MX","iso3":"MEX","admin_name":"Morelos","capital":"minor","population":"175208","id":"1484359683"},{"city":"Ciudad del Carmen","city_ascii":"Ciudad del Carmen","lat":"18.6333","lng":"-91.8333","country":"Mexico","iso2":"MX","iso3":"MEX","admin_name":"Campeche","capital":"minor","population":"169466","id":"1484192447"},{"city":"Chandannagar","city_ascii":"Chandannagar","lat":"22.8667","lng":"88.3833","country":"India","iso2":"IN","iso3":"IND","admin_name":"West Bengal","capital":"","population":"166867","id":"1356174802"},{"city":"Cuddalore","city_ascii":"Cuddalore","lat":"11.7500","lng":"79.7500","country":"India","iso2":"IN","iso3":"IND","admin_name":"Tamil Nādu","capital":"","population":"173676","id":"1356544008"},{"city":"Comitán","city_ascii":"Comitan","lat":"16.2511","lng":"-92.1342","country":"Mexico","iso2":"MX","iso3":"MEX","admin_name":"Chiapas","capital":"minor","population":"170000","id":"1484955658"},{"city":"Carúpano","city_ascii":"Carupano","lat":"10.6722","lng":"-63.2403","country":"Venezuela","iso2":"VE","iso3":"VEN","admin_name":"Sucre","capital":"minor","population":"173877","id":"1862777685"},{"city":"Chīrāla","city_ascii":"Chirala","lat":"15.8200","lng":"80.3500","country":"India","iso2":"IN","iso3":"IND","admin_name":"Andhra Pradesh","capital":"","population":"172826","id":"1356100300"},{"city":"Castellón de la Plana","city_ascii":"Castellon de la Plana","lat":"39.9700","lng":"-0.0500","country":"Spain","iso2":"ES","iso3":"ESP","admin_name":"Valencia","capital":"minor","population":"171728","id":"1724579885"},{"city":"Comodoro Rivadavia","city_ascii":"Comodoro Rivadavia","lat":"-45.8667","lng":"-67.5000","country":"Argentina","iso2":"AR","iso3":"ARG","admin_name":"Chubut","capital":"minor","population":"173266","id":"1032042035"},{"city":"Carpina","city_ascii":"Carpina","lat":"-7.8508","lng":"-35.2547","country":"Brazil","iso2":"BR","iso3":"BRA","admin_name":"Pernambuco","capital":"","population":"165579","id":"1076005200"},{"city":"Cuauhtémoc","city_ascii":"Cuauhtemoc","lat":"28.4050","lng":"-106.8667","country":"Mexico","iso2":"MX","iso3":"MEX","admin_name":"Chihuahua","capital":"minor","population":"168482","id":"1484365643"},{"city":"Cary","city_ascii":"Cary","lat":"35.7820","lng":"-78.8191","country":"United States","iso2":"US","iso3":"USA","admin_name":"North Carolina","capital":"","population":"170282","id":"1840016196"},{"city":"Corona","city_ascii":"Corona","lat":"33.8616","lng":"-117.5649","country":"United States","iso2":"US","iso3":"USA","admin_name":"California","capital":"","population":"169868","id":"1840019305"},{"city":"Cienfuegos","city_ascii":"Cienfuegos","lat":"22.1456","lng":"-80.4364","country":"Cuba","iso2":"CU","iso3":"CUB","admin_name":"Cienfuegos","capital":"admin","population":"164924","id":"1192020054"},{"city":"Conjeeveram","city_ascii":"Conjeeveram","lat":"12.8308","lng":"79.7078","country":"India","iso2":"IN","iso3":"IND","admin_name":"Tamil Nādu","capital":"","population":"164384","id":"1356148941"},{"city":"Chillán","city_ascii":"Chillan","lat":"-36.6067","lng":"-72.1033","country":"Chile","iso2":"CL","iso3":"CHL","admin_name":"Biobío","capital":"admin","population":"164270","id":"1152082093"},{"city":"Chapecó","city_ascii":"Chapeco","lat":"-27.1000","lng":"-52.6400","country":"Brazil","iso2":"BR","iso3":"BRA","admin_name":"Santa Catarina","capital":"","population":"160157","id":"1076258255"},{"city":"Chittoor","city_ascii":"Chittoor","lat":"13.2000","lng":"79.1167","country":"India","iso2":"IN","iso3":"IND","admin_name":"Andhra Pradesh","capital":"","population":"160722","id":"1356026391"},{"city":"Chirchiq","city_ascii":"Chirchiq","lat":"41.4667","lng":"69.5833","country":"Uzbekistan","iso2":"UZ","iso3":"UZB","admin_name":"Toshkent","capital":"","population":"159400","id":"1860343195"},{"city":"Catamarca","city_ascii":"Catamarca","lat":"-28.4686","lng":"-65.7792","country":"Argentina","iso2":"AR","iso3":"ARG","admin_name":"Catamarca","capital":"admin","population":"159139","id":"1032260908"},{"city":"Champaign","city_ascii":"Champaign","lat":"40.1144","lng":"-88.2735","country":"United States","iso2":"US","iso3":"USA","admin_name":"Illinois","capital":"","population":"159443","id":"1840007239"},{"city":"Châu Đốc","city_ascii":"Chau Doc","lat":"10.7000","lng":"105.1167","country":"Vietnam","iso2":"VN","iso3":"VNM","admin_name":"An Giang","capital":"","population":"157298","id":"1704020910"},{"city":"Calama","city_ascii":"Calama","lat":"-22.4624","lng":"-68.9272","country":"Chile","iso2":"CL","iso3":"CHL","admin_name":"Antofagasta","capital":"minor","population":"157575","id":"1152168074"},{"city":"Chlef","city_ascii":"Chlef","lat":"36.1647","lng":"1.3317","country":"Algeria","iso2":"DZ","iso3":"DZA","admin_name":"Chlef","capital":"admin","population":"155134","id":"1012772239"},{"city":"Chetumal","city_ascii":"Chetumal","lat":"18.5036","lng":"-88.3053","country":"Mexico","iso2":"MX","iso3":"MEX","admin_name":"Quintana Roo","capital":"admin","population":"151243","id":"1484338031"},{"city":"Cẩm Phả","city_ascii":"Cam Pha","lat":"21.0071","lng":"107.2845","country":"Vietnam","iso2":"VN","iso3":"VNM","admin_name":"Quảng Ninh","capital":"minor","population":"156000","id":"1704985016"},{"city":"Cairns","city_ascii":"Cairns","lat":"-16.9303","lng":"145.7703","country":"Australia","iso2":"AU","iso3":"AUS","admin_name":"Queensland","capital":"","population":"152729","id":"1036016939"},{"city":"Ciudad de Melilla","city_ascii":"Ciudad de Melilla","lat":"35.2937","lng":"-2.9383","country":"Spain","iso2":"ES","iso3":"ESP","admin_name":"Melilla","capital":"","population":"141308","id":"1724144891"},{"city":"Chinandega","city_ascii":"Chinandega","lat":"12.6242","lng":"-87.1297","country":"Nicaragua","iso2":"NI","iso3":"NIC","admin_name":"Chinandega","capital":"admin","population":"151707","id":"1558172276"},{"city":"Cao Lãnh","city_ascii":"Cao Lanh","lat":"10.4603","lng":"105.6331","country":"Vietnam","iso2":"VN","iso3":"VNM","admin_name":"Đồng Tháp","capital":"admin","population":"149837","id":"1704276832"},{"city":"Copiapó","city_ascii":"Copiapo","lat":"-27.3665","lng":"-70.3323","country":"Chile","iso2":"CL","iso3":"CHL","admin_name":"Atacama","capital":"admin","population":"150804","id":"1152406965"},{"city":"Concordia","city_ascii":"Concordia","lat":"-31.3922","lng":"-58.0169","country":"Argentina","iso2":"AR","iso3":"ARG","admin_name":"Entre Ríos","capital":"minor","population":"149450","id":"1032923957"},{"city":"Chingola","city_ascii":"Chingola","lat":"-12.5447","lng":"27.8708","country":"Zambia","iso2":"ZM","iso3":"ZMB","admin_name":"Copperbelt","capital":"","population":"147448","id":"1894202007"},{"city":"Clermont-Ferrand","city_ascii":"Clermont-Ferrand","lat":"45.7831","lng":"3.0824","country":"France","iso2":"FR","iso3":"FRA","admin_name":"Auvergne-Rhône-Alpes","capital":"minor","population":"143886","id":"1250135509"},{"city":"Cam Ranh","city_ascii":"Cam Ranh","lat":"11.9020","lng":"109.2207","country":"Vietnam","iso2":"VN","iso3":"VNM","admin_name":"Khánh Hòa","capital":"","population":"146771","id":"1704104189"},{"city":"Cape Coast","city_ascii":"Cape Coast","lat":"5.1000","lng":"-1.2500","country":"Ghana","iso2":"GH","iso3":"GHA","admin_name":"Central","capital":"admin","population":"143015","id":"1288506097"},{"city":"Comayagua","city_ascii":"Comayagua","lat":"14.4600","lng":"-87.6500","country":"Honduras","iso2":"HN","iso3":"HND","admin_name":"Comayagua","capital":"admin","population":"144785","id":"1340015594"},{"city":"Coimbra","city_ascii":"Coimbra","lat":"40.2111","lng":"-8.4291","country":"Portugal","iso2":"PT","iso3":"PRT","admin_name":"Coimbra","capital":"admin","population":"143396","id":"1620166724"},{"city":"Ciego de Ávila","city_ascii":"Ciego de Avila","lat":"21.8481","lng":"-78.7631","country":"Cuba","iso2":"CU","iso3":"CUB","admin_name":"Ciego de Ávila","capital":"admin","population":"143449","id":"1192302618"},{"city":"Cizre","city_ascii":"Cizre","lat":"37.3250","lng":"42.1958","country":"Turkey","iso2":"TR","iso3":"TUR","admin_name":"Şırnak","capital":"minor","population":"143124","id":"1792431845"},{"city":"Castanhal","city_ascii":"Castanhal","lat":"-1.2939","lng":"-47.9264","country":"Brazil","iso2":"BR","iso3":"BRA","admin_name":"Pará","capital":"","population":"137406","id":"1076216938"},{"city":"Columbia","city_ascii":"Columbia","lat":"38.9478","lng":"-92.3256","country":"United States","iso2":"US","iso3":"USA","admin_name":"Missouri","capital":"","population":"141645","id":"1840007391"},{"city":"Colima","city_ascii":"Colima","lat":"19.2433","lng":"-103.7247","country":"Mexico","iso2":"MX","iso3":"MEX","admin_name":"Colima","capital":"admin","population":"137383","id":"1484585697"},{"city":"Carolina","city_ascii":"Carolina","lat":"18.4054","lng":"-65.9792","country":"Puerto Rico","iso2":"PR","iso3":"PRI","admin_name":"Puerto Rico","capital":"","population":"140072","id":"1630035637"},{"city":"Chicacole","city_ascii":"Chicacole","lat":"18.3000","lng":"83.9000","country":"India","iso2":"IN","iso3":"IND","admin_name":"Andhra Pradesh","capital":"","population":"137944","id":"1356141471"},{"city":"Coquitlam","city_ascii":"Coquitlam","lat":"49.2839","lng":"-122.7919","country":"Canada","iso2":"CA","iso3":"CAN","admin_name":"British Columbia","capital":"","population":"139284","id":"1124000500"},{"city":"Carrollton","city_ascii":"Carrollton","lat":"32.9890","lng":"-96.8999","country":"United States","iso2":"US","iso3":"USA","admin_name":"Texas","capital":"","population":"139248","id":"1840019436"},{"city":"Caxias","city_ascii":"Caxias","lat":"-4.8330","lng":"-43.3500","country":"Brazil","iso2":"BR","iso3":"BRA","admin_name":"Maranhão","capital":"","population":"134640","id":"1076325693"},{"city":"Charleston","city_ascii":"Charleston","lat":"38.3484","lng":"-81.6323","country":"United States","iso2":"US","iso3":"USA","admin_name":"West Virginia","capital":"admin","population":"138706","id":"1840006196"},{"city":"Ch’ungmu","city_ascii":"Ch'ungmu","lat":"34.8458","lng":"128.4236","country":"Korea, South","iso2":"KR","iso3":"KOR","admin_name":"Gyeongnam","capital":"","population":"137208","id":"1410257662"},{"city":"Chech’ŏn","city_ascii":"Chech'on","lat":"37.1361","lng":"128.2119","country":"Korea, South","iso2":"KR","iso3":"KOR","admin_name":"Chungbuk","capital":"","population":"136350","id":"1410470747"},{"city":"Chiang Mai","city_ascii":"Chiang Mai","lat":"18.7889","lng":"98.9833","country":"Thailand","iso2":"TH","iso3":"THA","admin_name":"Chiang Mai","capital":"admin","population":"132634","id":"1764662886"},{"city":"Cartago","city_ascii":"Cartago","lat":"4.7500","lng":"-75.9100","country":"Colombia","iso2":"CO","iso3":"COL","admin_name":"Valle del Cauca","capital":"minor","population":"134827","id":"1170225267"},{"city":"Calapan","city_ascii":"Calapan","lat":"13.3667","lng":"121.2000","country":"Philippines","iso2":"PH","iso3":"PHL","admin_name":"Oriental Mindoro","capital":"admin","population":"133893","id":"1608578259"},{"city":"Coral Springs","city_ascii":"Coral Springs","lat":"26.2702","lng":"-80.2591","country":"United States","iso2":"US","iso3":"USA","admin_name":"Florida","capital":"","population":"133759","id":"1840015134"},{"city":"Calabozo","city_ascii":"Calabozo","lat":"8.9219","lng":"-67.4283","country":"Venezuela","iso2":"VE","iso3":"VEN","admin_name":"Guárico","capital":"minor","population":"131989","id":"1862623441"},{"city":"Ciénaga","city_ascii":"Cienaga","lat":"11.0104","lng":"-74.2500","country":"Colombia","iso2":"CO","iso3":"COL","admin_name":"Magdalena","capital":"minor","population":"131171","id":"1170825751"},{"city":"Cambridge","city_ascii":"Cambridge","lat":"43.3972","lng":"-80.3114","country":"Canada","iso2":"CA","iso3":"CAN","admin_name":"Ontario","capital":"","population":"129920","id":"1124113576"},{"city":"Calabayan","city_ascii":"Calabayan","lat":"16.7667","lng":"121.7833","country":"Philippines","iso2":"PH","iso3":"PHL","admin_name":"Isabela","capital":"","population":"129523","id":"1608955576"},{"city":"Cubatão","city_ascii":"Cubatao","lat":"-23.8953","lng":"-46.4256","country":"Brazil","iso2":"BR","iso3":"BRA","admin_name":"São Paulo","capital":"","population":"127006","id":"1076384228"},{"city":"Chilapa de Álvarez","city_ascii":"Chilapa de Alvarez","lat":"17.5944","lng":"-99.1778","country":"Mexico","iso2":"MX","iso3":"MEX","admin_name":"Guerrero","capital":"minor","population":"120790","id":"1484562441"},{"city":"Cam Ranh","city_ascii":"Cam Ranh","lat":"11.9136","lng":"109.1369","country":"Vietnam","iso2":"VN","iso3":"VNM","admin_name":"Khánh Hòa","capital":"minor","population":"125311","id":"1704516746"},{"city":"Cagua","city_ascii":"Cagua","lat":"10.1831","lng":"-67.4500","country":"Venezuela","iso2":"VE","iso3":"VEN","admin_name":"Aragua","capital":"minor","population":"122571","id":"1862805374"},{"city":"Cádiz","city_ascii":"Cadiz","lat":"36.5350","lng":"-6.2975","country":"Spain","iso2":"ES","iso3":"ESP","admin_name":"Andalusia","capital":"minor","population":"116027","id":"1724502822"},{"city":"Curicó","city_ascii":"Curico","lat":"-34.9854","lng":"-71.2394","country":"Chile","iso2":"CL","iso3":"CHL","admin_name":"Maule","capital":"minor","population":"125275","id":"1152564798"},{"city":"Ciudad de Atlixco","city_ascii":"Ciudad de Atlixco","lat":"18.9000","lng":"-98.4500","country":"Mexico","iso2":"MX","iso3":"MEX","admin_name":"Puebla","capital":"minor","population":"125000","id":"1484268457"},{"city":"Cherkessk","city_ascii":"Cherkessk","lat":"44.2222","lng":"42.0575","country":"Russia","iso2":"RU","iso3":"RUS","admin_name":"Karachayevo-Cherkesiya","capital":"admin","population":"122395","id":"1643955713"},{"city":"Ciudad Hidalgo","city_ascii":"Ciudad Hidalgo","lat":"19.6923","lng":"-100.5574","country":"Mexico","iso2":"MX","iso3":"MEX","admin_name":"Michoacán de Ocampo","capital":"minor","population":"122619","id":"1484580926"},{"city":"Ciudad Ojeda","city_ascii":"Ciudad Ojeda","lat":"10.2000","lng":"-71.3000","country":"Venezuela","iso2":"VE","iso3":"VEN","admin_name":"Zulia","capital":"minor","population":"122124","id":"1862967909"},{"city":"Carcar","city_ascii":"Carcar","lat":"10.1167","lng":"123.6333","country":"Philippines","iso2":"PH","iso3":"PHL","admin_name":"Cebu","capital":"","population":"119664","id":"1608778175"},{"city":"Ciudad Choluteca","city_ascii":"Ciudad Choluteca","lat":"13.3167","lng":"-87.2167","country":"Honduras","iso2":"HN","iso3":"HND","admin_name":"Choluteca","capital":"admin","population":"120000","id":"1340256619"},{"city":"Cheltenham","city_ascii":"Cheltenham","lat":"51.9000","lng":"-2.0667","country":"United Kingdom","iso2":"GB","iso3":"GBR","admin_name":"Gloucestershire","capital":"","population":"116447","id":"1826524974"},{"city":"Cambridge","city_ascii":"Cambridge","lat":"42.3759","lng":"-71.1185","country":"United States","iso2":"US","iso3":"USA","admin_name":"Massachusetts","capital":"","population":"118927","id":"1840000429"},{"city":"Charallave","city_ascii":"Charallave","lat":"10.2431","lng":"-66.8622","country":"Venezuela","iso2":"VE","iso3":"VEN","admin_name":"Miranda","capital":"minor","population":"117707","id":"1862753487"},{"city":"Cuautitlán","city_ascii":"Cuautitlan","lat":"19.6833","lng":"-99.1833","country":"Mexico","iso2":"MX","iso3":"MEX","admin_name":"México","capital":"minor","population":"110385","id":"1484256075"},{"city":"Chico","city_ascii":"Chico","lat":"39.7575","lng":"-121.8152","country":"United States","iso2":"US","iso3":"USA","admin_name":"California","capital":"","population":"117668","id":"1840018778"},{"city":"Conselheiro Lafaiete","city_ascii":"Conselheiro Lafaiete","lat":"-20.6700","lng":"-43.7900","country":"Brazil","iso2":"BR","iso3":"BRA","admin_name":"Minas Gerais","capital":"","population":"111596","id":"1076456009"},{"city":"Clearwater","city_ascii":"Clearwater","lat":"27.9789","lng":"-82.7622","country":"United States","iso2":"US","iso3":"USA","admin_name":"Florida","capital":"","population":"116946","id":"1840015110"},{"city":"Coeur d'Alene","city_ascii":"Coeur d'Alene","lat":"47.7041","lng":"-116.7935","country":"United States","iso2":"US","iso3":"USA","admin_name":"Idaho","capital":"","population":"116834","id":"1840018402"},{"city":"Chittaurgarh","city_ascii":"Chittaurgarh","lat":"24.8894","lng":"74.6239","country":"India","iso2":"IN","iso3":"IND","admin_name":"Rājasthān","capital":"","population":"116406","id":"1356110002"},{"city":"Chelmsford","city_ascii":"Chelmsford","lat":"51.7361","lng":"0.4798","country":"United Kingdom","iso2":"GB","iso3":"GBR","admin_name":"Essex","capital":"","population":"111511","id":"1826876670"},{"city":"Carlsbad","city_ascii":"Carlsbad","lat":"33.1247","lng":"-117.2837","country":"United States","iso2":"US","iso3":"USA","admin_name":"California","capital":"","population":"115382","id":"1840019352"},{"city":"Chorzów","city_ascii":"Chorzow","lat":"50.3000","lng":"18.9500","country":"Poland","iso2":"PL","iso3":"POL","admin_name":"Śląskie","capital":"minor","population":"111536","id":"1616517871"},{"city":"Ciudad de la Costa","city_ascii":"Ciudad de la Costa","lat":"-34.8167","lng":"-55.9500","country":"Uruguay","iso2":"UY","iso3":"URY","admin_name":"Canelones","capital":"","population":"112449","id":"1858042396"},{"city":"Clovis","city_ascii":"Clovis","lat":"36.8278","lng":"-119.6831","country":"United States","iso2":"US","iso3":"USA","admin_name":"California","capital":"","population":"114584","id":"1840018944"},{"city":"Cuito","city_ascii":"Cuito","lat":"-12.3800","lng":"16.9400","country":"Angola","iso2":"AO","iso3":"AGO","admin_name":"Bié","capital":"admin","population":"114286","id":"1024939858"},{"city":"Colchester","city_ascii":"Colchester","lat":"51.8917","lng":"0.9030","country":"United Kingdom","iso2":"GB","iso3":"GBR","admin_name":"Essex","capital":"","population":"111921","id":"1826545433"},{"city":"Caraguatatuba","city_ascii":"Caraguatatuba","lat":"-23.6200","lng":"-45.4128","country":"Brazil","iso2":"BR","iso3":"BRA","admin_name":"São Paulo","capital":"","population":"113317","id":"1076107372"},{"city":"Catanduva","city_ascii":"Catanduva","lat":"-21.1400","lng":"-48.9800","country":"Brazil","iso2":"BR","iso3":"BRA","admin_name":"São Paulo","capital":"","population":"109612","id":"1076772178"},{"city":"City of Isabela","city_ascii":"City of Isabela","lat":"6.7000","lng":"121.9667","country":"Philippines","iso2":"PH","iso3":"PHL","admin_name":"Basilan","capital":"admin","population":"112788","id":"1608621038"},{"city":"Castelar","city_ascii":"Castelar","lat":"-34.6500","lng":"-58.6500","country":"Argentina","iso2":"AR","iso3":"ARG","admin_name":"Buenos Aires","capital":"","population":"107786","id":"1032123891"},{"city":"Costa Mesa","city_ascii":"Costa Mesa","lat":"33.6667","lng":"-117.9135","country":"United States","iso2":"US","iso3":"USA","admin_name":"California","capital":"","population":"113003","id":"1840019326"},{"city":"Carora","city_ascii":"Carora","lat":"10.1755","lng":"-70.0828","country":"Venezuela","iso2":"VE","iso3":"VEN","admin_name":"Lara","capital":"minor","population":"112600","id":"1862485109"},{"city":"Champdani","city_ascii":"Champdani","lat":"22.8000","lng":"88.3700","country":"India","iso2":"IN","iso3":"IND","admin_name":"West Bengal","capital":"","population":"111251","id":"1356132208"},{"city":"Cavite City","city_ascii":"Cavite City","lat":"14.4833","lng":"120.9000","country":"Philippines","iso2":"PH","iso3":"PHL","admin_name":"Cavite","capital":"","population":"102806","id":"1608639398"},{"city":"Ciudad Mante","city_ascii":"Ciudad Mante","lat":"22.7333","lng":"-98.9500","country":"Mexico","iso2":"MX","iso3":"MEX","admin_name":"Tamaulipas","capital":"minor","population":"112061","id":"1484536173"},{"city":"Centennial","city_ascii":"Centennial","lat":"39.5926","lng":"-104.8674","country":"United States","iso2":"US","iso3":"USA","admin_name":"Colorado","capital":"","population":"110937","id":"1840018792"},{"city":"Caen","city_ascii":"Caen","lat":"49.1800","lng":"-0.3700","country":"France","iso2":"FR","iso3":"FRA","admin_name":"Normandie","capital":"minor","population":"105354","id":"1250001272"},{"city":"Corumbá","city_ascii":"Corumba","lat":"-19.0089","lng":"-57.6528","country":"Brazil","iso2":"BR","iso3":"BRA","admin_name":"Mato Grosso do Sul","capital":"","population":"109294","id":"1076131775"},{"city":"Crawley","city_ascii":"Crawley","lat":"51.1092","lng":"-0.1872","country":"United Kingdom","iso2":"GB","iso3":"GBR","admin_name":"West Sussex","capital":"","population":"106597","id":"1826470693"},{"city":"Chaman","city_ascii":"Chaman","lat":"30.9210","lng":"66.4597","country":"Pakistan","iso2":"PK","iso3":"PAK","admin_name":"Balochistān","capital":"","population":"107660","id":"1586640695"},{"city":"Charsadda","city_ascii":"Charsadda","lat":"34.1453","lng":"71.7308","country":"Pakistan","iso2":"PK","iso3":"PAK","admin_name":"Khyber Pakhtunkhwa","capital":"minor","population":"105414","id":"1586928614"},{"city":"Chābahār","city_ascii":"Chabahar","lat":"25.2836","lng":"60.6236","country":"Iran","iso2":"IR","iso3":"IRN","admin_name":"Sīstān va Balūchestān","capital":"minor","population":"106739","id":"1364525124"},{"city":"Ciudad Río Bravo","city_ascii":"Ciudad Rio Bravo","lat":"25.9861","lng":"-98.0889","country":"Mexico","iso2":"MX","iso3":"MEX","admin_name":"Tamaulipas","capital":"minor","population":"101481","id":"1484549731"},{"city":"Courbevoic","city_ascii":"Courbevoic","lat":"48.8978","lng":"2.2531","country":"France","iso2":"FR","iso3":"FRA","admin_name":"Île-de-France","capital":"","population":"81719","id":"1250060303"},{"city":"Caseros","city_ascii":"Caseros","lat":"-34.6167","lng":"-58.5333","country":"Argentina","iso2":"AR","iso3":"ARG","admin_name":"Buenos Aires","capital":"minor","population":"95785","id":"1032500630"},{"city":"Catbalogan","city_ascii":"Catbalogan","lat":"11.7833","lng":"124.8833","country":"Philippines","iso2":"PH","iso3":"PHL","admin_name":"Samar","capital":"admin","population":"103879","id":"1608878798"},{"city":"Chongshan","city_ascii":"Chongshan","lat":"18.7787","lng":"109.5117","country":"China","iso2":"CN","iso3":"CHN","admin_name":"Hainan","capital":"minor","population":"104119","id":"1156147494"},{"city":"Columbia","city_ascii":"Columbia","lat":"39.2004","lng":"-76.8590","country":"United States","iso2":"US","iso3":"USA","admin_name":"Maryland","capital":"","population":"103663","id":"1840005803"},{"city":"Chilakalūrupet","city_ascii":"Chilakalurupet","lat":"16.0892","lng":"80.1672","country":"India","iso2":"IN","iso3":"IND","admin_name":"Andhra Pradesh","capital":"","population":"101398","id":"1356065865"},{"city":"Coatepec","city_ascii":"Coatepec","lat":"19.4553","lng":"-96.9586","country":"Mexico","iso2":"MX","iso3":"MEX","admin_name":"Veracruz","capital":"minor","population":"92127","id":"1484934939"},{"city":"Chatham","city_ascii":"Chatham","lat":"42.4229","lng":"-82.1324","country":"Canada","iso2":"CA","iso3":"CAN","admin_name":"Ontario","capital":"","population":"101647.00","id":"1124393373"},{"city":"Chikusei","city_ascii":"Chikusei","lat":"36.3072","lng":"139.9831","country":"Japan","iso2":"JP","iso3":"JPN","admin_name":"Ibaraki","capital":"","population":"100816","id":"1392759497"},{"city":"Carmel","city_ascii":"Carmel","lat":"39.9650","lng":"-86.1460","country":"United States","iso2":"US","iso3":"USA","admin_name":"Indiana","capital":"","population":"101068","id":"1840007260"},{"city":"Cottbus","city_ascii":"Cottbus","lat":"51.7606","lng":"14.3342","country":"Germany","iso2":"DE","iso3":"DEU","admin_name":"Brandenburg","capital":"minor","population":"100219","id":"1276436655"},{"city":"Charlottesville","city_ascii":"Charlottesville","lat":"38.0375","lng":"-78.4855","country":"United States","iso2":"US","iso3":"USA","admin_name":"Virginia","capital":"","population":"100416","id":"1840001678"},{"city":"Chipata","city_ascii":"Chipata","lat":"-13.6386","lng":"32.6453","country":"Zambia","iso2":"ZM","iso3":"ZMB","admin_name":"Eastern","capital":"admin","population":"98416","id":"1894816262"},{"city":"Ciudad General Belgrano","city_ascii":"Ciudad General Belgrano","lat":"-34.7261","lng":"-58.5289","country":"Argentina","iso2":"AR","iso3":"ARG","admin_name":"Buenos Aires","capital":"","population":"92957","id":"1032336348"},{"city":"Créteil","city_ascii":"Creteil","lat":"48.7911","lng":"2.4628","country":"France","iso2":"FR","iso3":"FRA","admin_name":"Île-de-France","capital":"minor","population":"90605","id":"1250710438"},{"city":"Colombes","city_ascii":"Colombes","lat":"48.9236","lng":"2.2522","country":"France","iso2":"FR","iso3":"FRA","admin_name":"Île-de-France","capital":"","population":"85177","id":"1250390247"},{"city":"Compton","city_ascii":"Compton","lat":"33.8930","lng":"-118.2275","country":"United States","iso2":"US","iso3":"USA","admin_name":"California","capital":"","population":"95605","id":"1840019240"},{"city":"Ciudad Lázaro Cárdenas","city_ascii":"Ciudad Lazaro Cardenas","lat":"17.9561","lng":"-102.1922","country":"Mexico","iso2":"MX","iso3":"MEX","admin_name":"Michoacán de Ocampo","capital":"","population":"79200","id":"1484804575"},{"city":"Catanzaro","city_ascii":"Catanzaro","lat":"38.9100","lng":"16.5875","country":"Italy","iso2":"IT","iso3":"ITA","admin_name":"Calabria","capital":"admin","population":"90240","id":"1380650072"},{"city":"Cadereyta Jiménez","city_ascii":"Cadereyta Jimenez","lat":"25.6000","lng":"-100.0000","country":"Mexico","iso2":"MX","iso3":"MEX","admin_name":"Nuevo León","capital":"minor","population":"86445","id":"1484839099"},{"city":"Ciudad de Ceuta","city_ascii":"Ciudad de Ceuta","lat":"35.8867","lng":"-5.3000","country":"Spain","iso2":"ES","iso3":"ESP","admin_name":"Ceuta","capital":"","population":"84777","id":"1724324416"},{"city":"Cáceres","city_ascii":"Caceres","lat":"-16.0500","lng":"-57.5100","country":"Brazil","iso2":"BR","iso3":"BRA","admin_name":"Mato Grosso","capital":"","population":"85274","id":"1076422654"},{"city":"Carrières-sur-Seine","city_ascii":"Carrieres-sur-Seine","lat":"48.9108","lng":"2.2889","country":"France","iso2":"FR","iso3":"FRA","admin_name":"Île-de-France","capital":"","population":"85191","id":"1250595706"},{"city":"Coronel Oviedo","city_ascii":"Coronel Oviedo","lat":"-25.4500","lng":"-56.4400","country":"Paraguay","iso2":"PY","iso3":"PRY","admin_name":"Caaguazú","capital":"admin","population":"88101","id":"1600075989"},{"city":"Codó","city_ascii":"Codo","lat":"-4.4796","lng":"-43.8800","country":"Brazil","iso2":"BR","iso3":"BRA","admin_name":"Maranhão","capital":"","population":"83288","id":"1076537068"},{"city":"Citrus Heights","city_ascii":"Citrus Heights","lat":"38.6948","lng":"-121.2880","country":"United States","iso2":"US","iso3":"USA","admin_name":"California","capital":"","population":"87796","id":"1840018845"},{"city":"Concepción","city_ascii":"Concepcion","lat":"-23.4025","lng":"-57.4414","country":"Paraguay","iso2":"PY","iso3":"PRY","admin_name":"Concepción","capital":"admin","population":"87215","id":"1600557615"},{"city":"Como","city_ascii":"Como","lat":"45.8103","lng":"9.0861","country":"Italy","iso2":"IT","iso3":"ITA","admin_name":"Lombardy","capital":"minor","population":"84378","id":"1380994905"},{"city":"Cárdenas","city_ascii":"Cardenas","lat":"17.9830","lng":"-93.3670","country":"Mexico","iso2":"MX","iso3":"MEX","admin_name":"Tabasco","capital":"minor","population":"79875","id":"1484824578"},{"city":"Ciudad Lerdo","city_ascii":"Ciudad Lerdo","lat":"25.5500","lng":"-103.5167","country":"Mexico","iso2":"MX","iso3":"MEX","admin_name":"Durango","capital":"minor","population":"79669","id":"1484980436"},{"city":"Clifton","city_ascii":"Clifton","lat":"40.8631","lng":"-74.1575","country":"United States","iso2":"US","iso3":"USA","admin_name":"New Jersey","capital":"","population":"85052","id":"1840003511"},{"city":"Chaguanas","city_ascii":"Chaguanas","lat":"10.5144","lng":"-61.4075","country":"Trinidad And Tobago","iso2":"TT","iso3":"TTO","admin_name":"Chaguanas","capital":"admin","population":"83489","id":"1780795054"},{"city":"Cunduacán","city_ascii":"Cunduacan","lat":"18.0667","lng":"-93.1667","country":"Mexico","iso2":"MX","iso3":"MEX","admin_name":"Tabasco","capital":"minor","population":"81392","id":"1484076708"},{"city":"Chimaltenango","city_ascii":"Chimaltenango","lat":"14.6620","lng":"-90.8200","country":"Guatemala","iso2":"GT","iso3":"GTM","admin_name":"Chimaltenango","capital":"admin","population":"82370","id":"1320147012"},{"city":"Chervonohrad","city_ascii":"Chervonohrad","lat":"50.3822","lng":"24.2275","country":"Ukraine","iso2":"UA","iso3":"UKR","admin_name":"L’vivs’ka Oblast’","capital":"","population":"82395","id":"1804958186"},{"city":"Cozumel","city_ascii":"Cozumel","lat":"20.5104","lng":"-86.9493","country":"Mexico","iso2":"MX","iso3":"MEX","admin_name":"Quintana Roo","capital":"minor","population":"77236","id":"1484935305"},{"city":"Cukai","city_ascii":"Cukai","lat":"4.2332","lng":"103.4479","country":"Malaysia","iso2":"MY","iso3":"MYS","admin_name":"Terengganu","capital":"","population":"82425","id":"1458033606"},{"city":"Champigny-sur-Marne","city_ascii":"Champigny-sur-Marne","lat":"48.8172","lng":"2.5156","country":"France","iso2":"FR","iso3":"FRA","admin_name":"Île-de-France","capital":"","population":"77630","id":"1250631569"},{"city":"Cabo San Lucas","city_ascii":"Cabo San Lucas","lat":"22.8897","lng":"-109.9156","country":"Mexico","iso2":"MX","iso3":"MEX","admin_name":"Baja California Sur","capital":"","population":"81111","id":"1484694325"},{"city":"Clichy","city_ascii":"Clichy","lat":"48.9044","lng":"2.3064","country":"France","iso2":"FR","iso3":"FRA","admin_name":"Île-de-France","capital":"","population":"61070","id":"1250104726"},{"city":"Chatham","city_ascii":"Chatham","lat":"51.3700","lng":"0.5200","country":"United Kingdom","iso2":"GB","iso3":"GBR","admin_name":"Medway","capital":"","population":"76792","id":"1826765672"},{"city":"Chalándri","city_ascii":"Chalandri","lat":"38.0167","lng":"23.8000","country":"Greece","iso2":"GR","iso3":"GRC","admin_name":"Attikí","capital":"minor","population":"74192","id":"1300443208"},{"city":"Cicero","city_ascii":"Cicero","lat":"41.8445","lng":"-87.7593","country":"United States","iso2":"US","iso3":"USA","admin_name":"Illinois","capital":"","population":"80796","id":"1840009186"},{"city":"Cheyenne","city_ascii":"Cheyenne","lat":"41.1351","lng":"-104.7900","country":"United States","iso2":"US","iso3":"USA","admin_name":"Wyoming","capital":"admin","population":"79484","id":"1840018713"},{"city":"Carlisle","city_ascii":"Carlisle","lat":"54.8910","lng":"-2.9440","country":"United Kingdom","iso2":"GB","iso3":"GBR","admin_name":"Cumbria","capital":"","population":"75306","id":"1826843688"},{"city":"Cachoeira do Sul","city_ascii":"Cachoeira do Sul","lat":"-30.0300","lng":"-52.9100","country":"Brazil","iso2":"BR","iso3":"BRA","admin_name":"Rio Grande do Sul","capital":"","population":"74694","id":"1076336795"},{"city":"Campo Mourão","city_ascii":"Campo Mourao","lat":"-24.0496","lng":"-52.4200","country":"Brazil","iso2":"BR","iso3":"BRA","admin_name":"Paraná","capital":"","population":"75401","id":"1076799533"},{"city":"Cannes","city_ascii":"Cannes","lat":"43.5513","lng":"7.0128","country":"France","iso2":"FR","iso3":"FRA","admin_name":"Provence-Alpes-Côte d’Azur","capital":"","population":"73868","id":"1250487828"},{"city":"Chiryū","city_ascii":"Chiryu","lat":"35.0000","lng":"137.1167","country":"Japan","iso2":"JP","iso3":"JPN","admin_name":"Aichi","capital":"","population":"72166","id":"1392192403"},{"city":"Calais","city_ascii":"Calais","lat":"50.9481","lng":"1.8564","country":"France","iso2":"FR","iso3":"FRA","admin_name":"Hauts-de-France","capital":"minor","population":"73911","id":"1250081128"},{"city":"Centreville","city_ascii":"Centreville","lat":"38.8391","lng":"-77.4388","country":"United States","iso2":"US","iso3":"USA","admin_name":"Virginia","capital":"","population":"75452","id":"1840006015"},{"city":"Caguas","city_ascii":"Caguas","lat":"18.2319","lng":"-66.0388","country":"Puerto Rico","iso2":"PR","iso3":"PRI","admin_name":"Puerto Rico","capital":"","population":"74980","id":"1630023540"},{"city":"Crewe","city_ascii":"Crewe","lat":"53.0990","lng":"-2.4400","country":"United Kingdom","iso2":"GB","iso3":"GBR","admin_name":"Cheshire East","capital":"","population":"71722","id":"1826086541"},{"city":"Cabadbaran","city_ascii":"Cabadbaran","lat":"9.1228","lng":"125.5346","country":"Philippines","iso2":"PH","iso3":"PHL","admin_name":"Agusan del Norte","capital":"admin","population":"73639","id":"1608889253"},{"city":"Camden","city_ascii":"Camden","lat":"39.9362","lng":"-75.1073","country":"United States","iso2":"US","iso3":"USA","admin_name":"New Jersey","capital":"","population":"73562","id":"1840001507"},{"city":"Chingford","city_ascii":"Chingford","lat":"51.6310","lng":"0.0160","country":"United Kingdom","iso2":"GB","iso3":"GBR","admin_name":"Waltham Forest","capital":"","population":"66211","id":"1826861021"},{"city":"Comonfort","city_ascii":"Comonfort","lat":"20.7167","lng":"-100.7667","country":"Mexico","iso2":"MX","iso3":"MEX","admin_name":"Guanajuato","capital":"minor","population":"67642","id":"1484359235"},{"city":"Chiang Rai","city_ascii":"Chiang Rai","lat":"19.9094","lng":"99.8275","country":"Thailand","iso2":"TH","iso3":"THA","admin_name":"Chiang Rai","capital":"admin","population":"70610","id":"1764748484"},{"city":"Colonia del Sol","city_ascii":"Colonia del Sol","lat":"22.9125","lng":"-109.9208","country":"Mexico","iso2":"MX","iso3":"MEX","admin_name":"Baja California Sur","capital":"","population":"64055","id":"1484445555"},{"city":"Courcouronnes","city_ascii":"Courcouronnes","lat":"48.6239","lng":"2.4294","country":"France","iso2":"FR","iso3":"FRA","admin_name":"Île-de-France","capital":"","population":"67967","id":"1250579473"},{"city":"Castellammare di Stabia","city_ascii":"Castellammare di Stabia","lat":"40.7000","lng":"14.4833","country":"Italy","iso2":"IT","iso3":"ITA","admin_name":"Campania","capital":"","population":"66164","id":"1380725803"},{"city":"Cergy","city_ascii":"Cergy","lat":"49.0361","lng":"2.0631","country":"France","iso2":"FR","iso3":"FRA","admin_name":"Île-de-France","capital":"minor","population":"65177","id":"1250553439"},{"city":"Caçador","city_ascii":"Cacador","lat":"-26.7753","lng":"-51.0150","country":"Brazil","iso2":"BR","iso3":"BRA","admin_name":"Santa Catarina","capital":"","population":"63726","id":"1076703793"},{"city":"Curvelo","city_ascii":"Curvelo","lat":"-18.7564","lng":"-44.4308","country":"Brazil","iso2":"BR","iso3":"BRA","admin_name":"Minas Gerais","capital":"","population":"63954","id":"1076253887"},{"city":"Caratinga","city_ascii":"Caratinga","lat":"-19.7900","lng":"-42.1400","country":"Brazil","iso2":"BR","iso3":"BRA","admin_name":"Minas Gerais","capital":"","population":"60066","id":"1076504581"},{"city":"Călăraşi","city_ascii":"Calarasi","lat":"44.2000","lng":"27.3333","country":"Romania","iso2":"RO","iso3":"ROU","admin_name":"Călăraşi","capital":"admin","population":"65181","id":"1642445982"},{"city":"Cobán","city_ascii":"Coban","lat":"15.4700","lng":"-90.3800","country":"Guatemala","iso2":"GT","iso3":"GTM","admin_name":"Alta Verapaz","capital":"admin","population":"65194","id":"1320020813"},{"city":"Cortazar","city_ascii":"Cortazar","lat":"20.4830","lng":"-100.9330","country":"Mexico","iso2":"MX","iso3":"MEX","admin_name":"Guanajuato","capital":"minor","population":"57748","id":"1484238779"},{"city":"Cayenne","city_ascii":"Cayenne","lat":"4.9330","lng":"-52.3300","country":"French Guiana","iso2":"GF","iso3":"GUF","admin_name":"","capital":"admin","population":"61550","id":"1254304969"},{"city":"Canela","city_ascii":"Canela","lat":"-29.3600","lng":"-50.8100","country":"Brazil","iso2":"BR","iso3":"BRA","admin_name":"Rio Grande do Sul","capital":"","population":"60806","id":"1076049094"},{"city":"Cherbourg","city_ascii":"Cherbourg","lat":"49.6504","lng":"-1.6500","country":"France","iso2":"FR","iso3":"FRA","admin_name":"Normandie","capital":"minor","population":"60991","id":"1250026751"},{"city":"Chornomors’k","city_ascii":"Chornomors'k","lat":"46.3017","lng":"30.6569","country":"Ukraine","iso2":"UA","iso3":"UKR","admin_name":"Odes’ka Oblast’","capital":"","population":"59800","id":"1804199117"},{"city":"Caicó","city_ascii":"Caico","lat":"-6.4596","lng":"-37.1000","country":"Brazil","iso2":"BR","iso3":"BRA","admin_name":"Rio Grande do Norte","capital":"","population":"54934","id":"1076251820"},{"city":"Chambéry","city_ascii":"Chambery","lat":"45.5700","lng":"5.9118","country":"France","iso2":"FR","iso3":"FRA","admin_name":"Auvergne-Rhône-Alpes","capital":"minor","population":"58919","id":"1250283861"},{"city":"Coconut Creek","city_ascii":"Coconut Creek","lat":"26.2803","lng":"-80.1842","country":"United States","iso2":"US","iso3":"USA","admin_name":"Florida","capital":"","population":"61248","id":"1840015132"},{"city":"Concórdia","city_ascii":"Concordia","lat":"-27.2342","lng":"-52.0278","country":"Brazil","iso2":"BR","iso3":"BRA","admin_name":"Santa Catarina","capital":"","population":"55367","id":"1076922195"},{"city":"Cupertino","city_ascii":"Cupertino","lat":"37.3168","lng":"-122.0465","country":"United States","iso2":"US","iso3":"USA","admin_name":"California","capital":"","population":"59276","id":"1840018950"},{"city":"Cerro de Pasco","city_ascii":"Cerro de Pasco","lat":"-10.6864","lng":"-76.2625","country":"Peru","iso2":"PE","iso3":"PER","admin_name":"Pasco","capital":"admin","population":"58899","id":"1604446908"},{"city":"Clamart","city_ascii":"Clamart","lat":"48.8014","lng":"2.2628","country":"France","iso2":"FR","iso3":"FRA","admin_name":"Île-de-France","capital":"","population":"52971","id":"1250130113"},{"city":"Coari","city_ascii":"Coari","lat":"-4.0850","lng":"-63.1414","country":"Brazil","iso2":"BR","iso3":"BRA","admin_name":"Amazonas","capital":"","population":"53305","id":"1076899406"},{"city":"Crateús","city_ascii":"Crateus","lat":"-5.1783","lng":"-40.6775","country":"Brazil","iso2":"BR","iso3":"BRA","admin_name":"Ceará","capital":"","population":"52933","id":"1076897989"},{"city":"Carson City","city_ascii":"Carson City","lat":"39.1512","lng":"-119.7474","country":"United States","iso2":"US","iso3":"USA","admin_name":"Nevada","capital":"admin","population":"58756","id":"1840003826"},{"city":"Chelles","city_ascii":"Chelles","lat":"48.8833","lng":"2.6000","country":"France","iso2":"FR","iso3":"FRA","admin_name":"Île-de-France","capital":"","population":"54917","id":"1250001485"},{"city":"Chaniá","city_ascii":"Chania","lat":"35.5167","lng":"24.0167","country":"Greece","iso2":"GR","iso3":"GRC","admin_name":"Kríti","capital":"minor","population":"53910","id":"1300233408"},{"city":"Crosby","city_ascii":"Crosby","lat":"53.4872","lng":"-3.0343","country":"United Kingdom","iso2":"GB","iso3":"GBR","admin_name":"Sefton","capital":"","population":"50044","id":"1826899809"},{"city":"Chinhoyi","city_ascii":"Chinhoyi","lat":"-17.3500","lng":"30.2000","country":"Zimbabwe","iso2":"ZW","iso3":"ZWE","admin_name":"Mashonaland West","capital":"admin","population":"56794","id":"1716523245"},{"city":"Castelo Branco","city_ascii":"Castelo Branco","lat":"39.8230","lng":"-7.4931","country":"Portugal","iso2":"PT","iso3":"PRT","admin_name":"Castelo Branco","capital":"admin","population":"56109","id":"1620277400"},{"city":"Chiapa de Corzo","city_ascii":"Chiapa de Corzo","lat":"16.7083","lng":"-93.0169","country":"Mexico","iso2":"MX","iso3":"MEX","admin_name":"Chiapas","capital":"minor","population":"45077","id":"1484314420"},{"city":"Corbeil-Essonnes","city_ascii":"Corbeil-Essonnes","lat":"48.6139","lng":"2.4820","country":"France","iso2":"FR","iso3":"FRA","admin_name":"Île-de-France","capital":"","population":"51292","id":"1250742467"},{"city":"Catford","city_ascii":"Catford","lat":"51.4452","lng":"-0.0207","country":"United Kingdom","iso2":"GB","iso3":"GBR","admin_name":"Lewisham","capital":"","population":"44905","id":"1826259011"},{"city":"Chārīkār","city_ascii":"Charikar","lat":"35.0183","lng":"69.1679","country":"Afghanistan","iso2":"AF","iso3":"AFG","admin_name":"Parwān","capital":"admin","population":"53676","id":"1004817775"},{"city":"Cagnes-sur-Mer","city_ascii":"Cagnes-sur-Mer","lat":"43.6644","lng":"7.1489","country":"France","iso2":"FR","iso3":"FRA","admin_name":"Provence-Alpes-Côte d’Azur","capital":"","population":"50928","id":"1250261503"},{"city":"Cumbernauld","city_ascii":"Cumbernauld","lat":"55.9450","lng":"-3.9940","country":"United Kingdom","iso2":"GB","iso3":"GBR","admin_name":"North Lanarkshire","capital":"","population":"50430","id":"1826862515"},{"city":"Choisy-le-Roi","city_ascii":"Choisy-le-Roi","lat":"48.7630","lng":"2.4090","country":"France","iso2":"FR","iso3":"FRA","admin_name":"Île-de-France","capital":"","population":"45331","id":"1250504037"},{"city":"Chake Chake","city_ascii":"Chake Chake","lat":"-5.2395","lng":"39.7700","country":"Tanzania","iso2":"TZ","iso3":"TZA","admin_name":"Pemba South","capital":"admin","population":"49959","id":"1834409018"},{"city":"Campo Belo","city_ascii":"Campo Belo","lat":"-20.8896","lng":"-45.2800","country":"Brazil","iso2":"BR","iso3":"BRA","admin_name":"Minas Gerais","capital":"","population":"47491","id":"1076477943"},{"city":"Cametá","city_ascii":"Cameta","lat":"-2.2396","lng":"-49.5100","country":"Brazil","iso2":"BR","iso3":"BRA","admin_name":"Pará","capital":"","population":"45200","id":"1076010069"},{"city":"Campobasso","city_ascii":"Campobasso","lat":"41.5630","lng":"14.6560","country":"Italy","iso2":"IT","iso3":"ITA","admin_name":"Molise","capital":"admin","population":"50762","id":"1380959273"},{"city":"Camocim","city_ascii":"Camocim","lat":"-2.9022","lng":"-40.8411","country":"Brazil","iso2":"BR","iso3":"BRA","admin_name":"Ceará","capital":"","population":"44481","id":"1076563942"},{"city":"Capanema","city_ascii":"Capanema","lat":"-1.1958","lng":"-47.1808","country":"Brazil","iso2":"BR","iso3":"BRA","admin_name":"Pará","capital":"","population":"47766","id":"1076799309"},{"city":"Cojutepeque","city_ascii":"Cojutepeque","lat":"13.7167","lng":"-88.9333","country":"El Salvador","iso2":"SV","iso3":"SLV","admin_name":"Cuscatlán","capital":"admin","population":"48411","id":"1222979186"},{"city":"Cheshunt","city_ascii":"Cheshunt","lat":"51.7020","lng":"-0.0350","country":"United Kingdom","iso2":"GB","iso3":"GBR","admin_name":"Hertfordshire","capital":"","population":"44000","id":"1826870758"},{"city":"Cerritos","city_ascii":"Cerritos","lat":"33.8677","lng":"-118.0686","country":"United States","iso2":"US","iso3":"USA","admin_name":"California","capital":"","population":"49859","id":"1840019215"},{"city":"Country Club","city_ascii":"Country Club","lat":"25.9407","lng":"-80.3102","country":"United States","iso2":"US","iso3":"USA","admin_name":"Florida","capital":"","population":"49684","id":"1840029029"},{"city":"Coyhaique","city_ascii":"Coyhaique","lat":"-45.5712","lng":"-72.0685","country":"Chile","iso2":"CL","iso3":"CHL","admin_name":"Aysén","capital":"admin","population":"49667","id":"1152541137"},{"city":"Couva","city_ascii":"Couva","lat":"10.4167","lng":"-61.4500","country":"Trinidad And Tobago","iso2":"TT","iso3":"TTO","admin_name":"Couva/Tabaquite/Talparo","capital":"admin","population":"48858","id":"1780835692"},{"city":"Canindé","city_ascii":"Caninde","lat":"-4.3589","lng":"-39.3117","country":"Brazil","iso2":"BR","iso3":"BRA","admin_name":"Ceará","capital":"","population":"42720","id":"1076519156"},{"city":"Cypress","city_ascii":"Cypress","lat":"33.8171","lng":"-118.0386","country":"United States","iso2":"US","iso3":"USA","admin_name":"California","capital":"","population":"49006","id":"1840019327"},{"city":"Châtillon","city_ascii":"Chatillon","lat":"48.8000","lng":"2.2900","country":"France","iso2":"FR","iso3":"FRA","admin_name":"Île-de-France","capital":"","population":"37355","id":"1250813874"},{"city":"Ceres","city_ascii":"Ceres","lat":"37.5953","lng":"-120.9625","country":"United States","iso2":"US","iso3":"USA","admin_name":"California","capital":"","population":"48706","id":"1840018910"},{"city":"Chalon-sur-Saône","city_ascii":"Chalon-sur-Saone","lat":"46.7806","lng":"4.8528","country":"France","iso2":"FR","iso3":"FRA","admin_name":"Bourgogne-Franche-Comté","capital":"minor","population":"45096","id":"1250630825"},{"city":"Covina","city_ascii":"Covina","lat":"34.0903","lng":"-117.8817","country":"United States","iso2":"US","iso3":"USA","admin_name":"California","capital":"","population":"47450","id":"1840019241"},{"city":"Caluire-et-Cuire","city_ascii":"Caluire-et-Cuire","lat":"45.7953","lng":"4.8472","country":"France","iso2":"FR","iso3":"FRA","admin_name":"Auvergne-Rhône-Alpes","capital":"","population":"43187","id":"1250073067"},{"city":"Charenton-le-Pont","city_ascii":"Charenton-le-Pont","lat":"48.8265","lng":"2.4050","country":"France","iso2":"FR","iso3":"FRA","admin_name":"Île-de-France","capital":"","population":"30374","id":"1250389807"},{"city":"Chitré","city_ascii":"Chitre","lat":"7.9667","lng":"-80.4333","country":"Panama","iso2":"PA","iso3":"PAN","admin_name":"Herrera","capital":"admin","population":"46191","id":"1591257375"},{"city":"Castleford","city_ascii":"Castleford","lat":"53.7160","lng":"-1.3560","country":"United Kingdom","iso2":"GB","iso3":"GBR","admin_name":"Wakefield","capital":"","population":"40210","id":"1826827675"},{"city":"Choma","city_ascii":"Choma","lat":"-16.8095","lng":"26.9700","country":"Zambia","iso2":"ZM","iso3":"ZMB","admin_name":"Southern","capital":"admin","population":"46746","id":"1894419971"},{"city":"Cobija","city_ascii":"Cobija","lat":"-11.0183","lng":"-68.7537","country":"Bolivia","iso2":"BO","iso3":"BOL","admin_name":"Pando","capital":"admin","population":"46267","id":"1068395023"},{"city":"Caerphilly","city_ascii":"Caerphilly","lat":"51.5780","lng":"-3.2180","country":"United Kingdom","iso2":"GB","iso3":"GBR","admin_name":"Caerphilly","capital":"","population":"41402","id":"1826322639"},{"city":"Caloundra","city_ascii":"Caloundra","lat":"-26.7986","lng":"153.1289","country":"Australia","iso2":"AU","iso3":"AUS","admin_name":"Queensland","capital":"","population":"41293","id":"1036266942"},{"city":"Cleveland Heights","city_ascii":"Cleveland Heights","lat":"41.5112","lng":"-81.5636","country":"United States","iso2":"US","iso3":"USA","admin_name":"Ohio","capital":"","population":"43992","id":"1840000597"},{"city":"Concord","city_ascii":"Concord","lat":"43.2305","lng":"-71.5595","country":"United States","iso2":"US","iso3":"USA","admin_name":"New Hampshire","capital":"admin","population":"43542","id":"1840002747"},{"city":"Cacém","city_ascii":"Cacem","lat":"38.7704","lng":"-9.3081","country":"Portugal","iso2":"PT","iso3":"PRT","admin_name":"Lisboa","capital":"","population":"21289","id":"1620147105"},{"city":"Cleethorpes","city_ascii":"Cleethorpes","lat":"53.5533","lng":"-0.0215","country":"United Kingdom","iso2":"GB","iso3":"GBR","admin_name":"North East Lincolnshire","capital":"","population":"38996","id":"1826584652"},{"city":"Ciudad Manuel Doblado","city_ascii":"Ciudad Manuel Doblado","lat":"20.7303","lng":"-101.9533","country":"Mexico","iso2":"MX","iso3":"MEX","admin_name":"Guanajuato","capital":"minor","population":"38309","id":"1484254805"},{"city":"Cao Bằng","city_ascii":"Cao Bang","lat":"22.6731","lng":"106.2500","country":"Vietnam","iso2":"VN","iso3":"VNM","admin_name":"Cao Bằng","capital":"admin","population":"41112","id":"1704552735"},{"city":"Chiquimula","city_ascii":"Chiquimula","lat":"14.7970","lng":"-89.5440","country":"Guatemala","iso2":"GT","iso3":"GTM","admin_name":"Chiquimula","capital":"admin","population":"41521","id":"1320041079"},{"city":"Campbell","city_ascii":"Campbell","lat":"37.2802","lng":"-121.9538","country":"United States","iso2":"US","iso3":"USA","admin_name":"California","capital":"","population":"41793","id":"1840018949"},{"city":"Coroatá","city_ascii":"Coroata","lat":"-4.1300","lng":"-44.1242","country":"Brazil","iso2":"BR","iso3":"BRA","admin_name":"Maranhão","capital":"","population":"34129","id":"1076890180"},{"city":"Cachan","city_ascii":"Cachan","lat":"48.7919","lng":"2.3319","country":"France","iso2":"FR","iso3":"FRA","admin_name":"Île-de-France","capital":"","population":"31069","id":"1250259069"},{"city":"Chartres","city_ascii":"Chartres","lat":"48.4560","lng":"1.4840","country":"France","iso2":"FR","iso3":"FRA","admin_name":"Centre-Val de Loire","capital":"minor","population":"38578","id":"1250325561"},{"city":"Camberley","city_ascii":"Camberley","lat":"51.3350","lng":"-0.7420","country":"United Kingdom","iso2":"GB","iso3":"GBR","admin_name":"Surrey","capital":"","population":"38038","id":"1826909512"},{"city":"Chachoengsao","city_ascii":"Chachoengsao","lat":"13.6903","lng":"101.0703","country":"Thailand","iso2":"TH","iso3":"THA","admin_name":"Chachoengsao","capital":"admin","population":"39570","id":"1764632382"},{"city":"Chelsea","city_ascii":"Chelsea","lat":"42.3959","lng":"-71.0325","country":"United States","iso2":"US","iso3":"USA","admin_name":"Massachusetts","capital":"","population":"39690","id":"1840000456"},{"city":"Conflans-Sainte-Honorine","city_ascii":"Conflans-Sainte-Honorine","lat":"48.9992","lng":"2.0983","country":"France","iso2":"FR","iso3":"FRA","admin_name":"Île-de-France","capital":"","population":"35846","id":"1250363572"},{"city":"Celje","city_ascii":"Celje","lat":"46.2291","lng":"15.2641","country":"Slovenia","iso2":"SI","iso3":"SVN","admin_name":"Celje","capital":"admin","population":"37875","id":"1705563326"},{"city":"Cristalina","city_ascii":"Cristalina","lat":"-16.7677","lng":"-47.6153","country":"Brazil","iso2":"BR","iso3":"BRA","admin_name":"Goiás","capital":"","population":"36531","id":"1076014539"},{"city":"Culver City","city_ascii":"Culver City","lat":"34.0058","lng":"-118.3968","country":"United States","iso2":"US","iso3":"USA","admin_name":"California","capital":"","population":"39185","id":"1840019243"},{"city":"Creil","city_ascii":"Creil","lat":"49.2583","lng":"2.4833","country":"France","iso2":"FR","iso3":"FRA","admin_name":"Hauts-de-France","capital":"","population":"35657","id":"1250367571"},{"city":"Chorley","city_ascii":"Chorley","lat":"53.6530","lng":"-2.6320","country":"United Kingdom","iso2":"GB","iso3":"GBR","admin_name":"Lancashire","capital":"","population":"34667","id":"1826477913"},{"city":"Choybalsan","city_ascii":"Choybalsan","lat":"48.0706","lng":"114.5228","country":"Mongolia","iso2":"MN","iso3":"MNG","admin_name":"Dornod","capital":"admin","population":"38150","id":"1496921469"},{"city":"Capitão Poço","city_ascii":"Capitao Poco","lat":"-1.7464","lng":"-47.0594","country":"Brazil","iso2":"BR","iso3":"BRA","admin_name":"Pará","capital":"","population":"32704","id":"1076870027"},{"city":"Châtenay-Malabry","city_ascii":"Chatenay-Malabry","lat":"48.7653","lng":"2.2781","country":"France","iso2":"FR","iso3":"FRA","admin_name":"Île-de-France","capital":"","population":"33286","id":"1250512323"},{"city":"Clichy-sous-Bois","city_ascii":"Clichy-sous-Bois","lat":"48.9102","lng":"2.5532","country":"France","iso2":"FR","iso3":"FRA","admin_name":"Île-de-France","capital":"","population":"29348","id":"1250123655"},{"city":"Chaiyaphum","city_ascii":"Chaiyaphum","lat":"15.8056","lng":"102.0311","country":"Thailand","iso2":"TH","iso3":"THA","admin_name":"Chaiyaphum","capital":"admin","population":"36923","id":"1764784757"},{"city":"Calpulalpan","city_ascii":"Calpulalpan","lat":"19.5869","lng":"-98.5683","country":"Mexico","iso2":"MX","iso3":"MEX","admin_name":"Hidalgo","capital":"minor","population":"33263","id":"1484814346"},{"city":"Czeladź","city_ascii":"Czeladz","lat":"50.3333","lng":"19.0833","country":"Poland","iso2":"PL","iso3":"POL","admin_name":"Śląskie","capital":"","population":"34402","id":"1616073267"},{"city":"Campo Maior","city_ascii":"Campo Maior","lat":"-4.8278","lng":"-42.1686","country":"Brazil","iso2":"BR","iso3":"BRA","admin_name":"Piauí","capital":"","population":"31739","id":"1076002814"},{"city":"Chur","city_ascii":"Chur","lat":"46.8521","lng":"9.5297","country":"Switzerland","iso2":"CH","iso3":"CHE","admin_name":"Graubünden","capital":"admin","population":"35038","id":"1756471395"},{"city":"Chatou","city_ascii":"Chatou","lat":"48.8897","lng":"2.1573","country":"France","iso2":"FR","iso3":"FRA","admin_name":"Île-de-France","capital":"","population":"30253","id":"1250855196"},{"city":"Chillum","city_ascii":"Chillum","lat":"38.9667","lng":"-76.9790","country":"United States","iso2":"US","iso3":"USA","admin_name":"Maryland","capital":"","population":"35798","id":"1840005948"},{"city":"Cradock","city_ascii":"Cradock","lat":"-32.1833","lng":"25.6167","country":"South Africa","iso2":"ZA","iso3":"ZAF","admin_name":"Eastern Cape","capital":"","population":"32898","id":"1710933404"},{"city":"Chuhuiv","city_ascii":"Chuhuiv","lat":"49.8353","lng":"36.6756","country":"Ukraine","iso2":"UA","iso3":"UKR","admin_name":"Kharkivs’ka Oblast’","capital":"minor","population":"33144","id":"1804354882"},{"city":"Champotón","city_ascii":"Champoton","lat":"19.3500","lng":"-90.7167","country":"Mexico","iso2":"MX","iso3":"MEX","admin_name":"Campeche","capital":"minor","population":"30881","id":"1484959684"},{"city":"Coatepec Harinas","city_ascii":"Coatepec Harinas","lat":"18.9000","lng":"-99.7167","country":"Mexico","iso2":"MX","iso3":"MEX","admin_name":"México","capital":"minor","population":"31860","id":"1484641903"},{"city":"Catemaco","city_ascii":"Catemaco","lat":"18.4167","lng":"-95.1167","country":"Mexico","iso2":"MX","iso3":"MEX","admin_name":"Veracruz","capital":"minor","population":"27615","id":"1484469922"},{"city":"Ciudad Sabinas Hidalgo","city_ascii":"Ciudad Sabinas Hidalgo","lat":"26.5000","lng":"-100.1833","country":"Mexico","iso2":"MX","iso3":"MEX","admin_name":"Nuevo León","capital":"minor","population":"32047","id":"1484159329"},{"city":"Cananea","city_ascii":"Cananea","lat":"30.9819","lng":"-110.3006","country":"Mexico","iso2":"MX","iso3":"MEX","admin_name":"Sonora","capital":"minor","population":"31560","id":"1484752107"},{"city":"Chester","city_ascii":"Chester","lat":"39.8456","lng":"-75.3718","country":"United States","iso2":"US","iso3":"USA","admin_name":"Pennsylvania","capital":"","population":"34000","id":"1840000690"},{"city":"Ciudad Sahagun","city_ascii":"Ciudad Sahagun","lat":"19.7714","lng":"-98.5803","country":"Mexico","iso2":"MX","iso3":"MEX","admin_name":"Hidalgo","capital":"","population":"28609","id":"1484112463"},{"city":"Chumphon","city_ascii":"Chumphon","lat":"10.4939","lng":"99.1800","country":"Thailand","iso2":"TH","iso3":"THA","admin_name":"Chumphon","capital":"admin","population":"33516","id":"1764012939"},{"city":"Chkalov","city_ascii":"Chkalov","lat":"40.2386","lng":"69.6967","country":"Tajikistan","iso2":"TJ","iso3":"TJK","admin_name":"Sughd","capital":"","population":"29800","id":"1762754874"},{"city":"Cramlington","city_ascii":"Cramlington","lat":"55.0820","lng":"-1.5850","country":"United Kingdom","iso2":"GB","iso3":"GBR","admin_name":"Northumberland","capital":"","population":"29405","id":"1826152039"},{"city":"Côte-Saint-Luc","city_ascii":"Cote-Saint-Luc","lat":"45.4687","lng":"-73.6673","country":"Canada","iso2":"CA","iso3":"CAN","admin_name":"Quebec","capital":"","population":"32448.00","id":"1124563603"},{"city":"Cambuslang","city_ascii":"Cambuslang","lat":"55.8190","lng":"-4.1671","country":"United Kingdom","iso2":"GB","iso3":"GBR","admin_name":"South Lanarkshire","capital":"","population":"29690","id":"1826755066"},{"city":"Chachapoyas","city_ascii":"Chachapoyas","lat":"-6.2167","lng":"-77.8500","country":"Peru","iso2":"PE","iso3":"PER","admin_name":"Amazonas","capital":"admin","population":"32026","id":"1604650674"},{"city":"College Park","city_ascii":"College Park","lat":"38.9960","lng":"-76.9337","country":"United States","iso2":"US","iso3":"USA","admin_name":"Maryland","capital":"","population":"32163","id":"1840005971"},{"city":"Cuitzeo del Porvenir","city_ascii":"Cuitzeo del Porvenir","lat":"19.9686","lng":"-101.1394","country":"Mexico","iso2":"MX","iso3":"MEX","admin_name":"Michoacán de Ocampo","capital":"minor","population":"28227","id":"1484718007"},{"city":"Clifton","city_ascii":"Clifton","lat":"52.9040","lng":"-1.1770","country":"United Kingdom","iso2":"GB","iso3":"GBR","admin_name":"Nottingham","capital":"","population":"26835","id":"1826911348"},{"city":"Chon Buri","city_ascii":"Chon Buri","lat":"13.3611","lng":"100.9850","country":"Thailand","iso2":"TH","iso3":"THA","admin_name":"Chon Buri","capital":"admin","population":"29961","id":"1764202077"},{"city":"Contla","city_ascii":"Contla","lat":"19.3333","lng":"-98.1667","country":"Mexico","iso2":"MX","iso3":"MEX","admin_name":"Tlaxcala","capital":"minor","population":"27610","id":"1484059318"},