[{"city":"Ho Chi Minh City","city_ascii":"Ho Chi Minh City","lat":"10.8167","lng":"106.6333","country":"Vietnam","iso2":"VN","iso3":"VNM","admin_name":"Hồ Chí Minh","capital":"admin","population":"13312000","id":"1704774326"},{"city":"Hyderābād","city_ascii":"Hyderabad","lat":"17.3667","lng":"78.4667","country":"India","iso2":"IN","iso3":"IND","admin_name":"Telangana","capital":"admin","population":"9746000","id":"1356871768"},{"city":"Heze","city_ascii":"Heze","lat":"35.2333","lng":"115.4333","country":"China","iso2":"CN","iso3":"CHN","admin_name":"Shandong","capital":"minor","population":"8750000","id":"1156225008"},{"city":"Handan","city_ascii":"Handan","lat":"36.6116","lng":"114.4894","country":"China","iso2":"CN","iso3":"CHN","admin_name":"Hebei","capital":"","population":"8499000","id":"1156957080"},{"city":"Hanoi","city_ascii":"Hanoi","lat":"21.0245","lng":"105.8412","country":"Vietnam","iso2":"VN","iso3":"VNM","admin_name":"Hà Nội","capital":"primary","population":"7785000","id":"1704413791"},{"city":"Hefei","city_ascii":"Hefei","lat":"31.8639","lng":"117.2808","country":"China","iso2":"CN","iso3":"CHN","admin_name":"Anhui","capital":"admin","population":"7457027","id":"1156332710"},{"city":"Hong Kong","city_ascii":"Hong Kong","lat":"22.3050","lng":"114.1850","country":"Hong Kong","iso2":"HK","iso3":"HKG","admin_name":"","capital":"","population":"7347000","id":"1344982653"},{"city":"Hengyang","city_ascii":"Hengyang","lat":"26.8968","lng":"112.5857","country":"China","iso2":"CN","iso3":"CHN","admin_name":"Hunan","capital":"","population":"7148344","id":"1156696884"},{"city":"Huanggang","city_ascii":"Huanggang","lat":"30.4500","lng":"114.8750","country":"China","iso2":"CN","iso3":"CHN","admin_name":"Hubei","capital":"minor","population":"6667000","id":"1156200037"},{"city":"Hangzhou","city_ascii":"Hangzhou","lat":"30.2500","lng":"120.1675","country":"China","iso2":"CN","iso3":"CHN","admin_name":"Zhejiang","capital":"admin","population":"6446000","id":"1156275243"},{"city":"Houston","city_ascii":"Houston","lat":"29.7863","lng":"-95.3889","country":"United States","iso2":"US","iso3":"USA","admin_name":"Texas","capital":"","population":"5464251","id":"1840020925"},{"city":"Huai’an","city_ascii":"Huai'an","lat":"33.5000","lng":"119.1331","country":"China","iso2":"CN","iso3":"CHN","admin_name":"Jiangsu","capital":"","population":"4799889","id":"1156634228"},{"city":"Huaihua","city_ascii":"Huaihua","lat":"27.5494","lng":"109.9592","country":"China","iso2":"CN","iso3":"CHN","admin_name":"Hunan","capital":"","population":"4741948","id":"1156353465"},{"city":"Huanglongsi","city_ascii":"Huanglongsi","lat":"34.7936","lng":"114.3403","country":"China","iso2":"CN","iso3":"CHN","admin_name":"Henan","capital":"","population":"4676159","id":"1156198356"},{"city":"Harbin","city_ascii":"Harbin","lat":"45.7500","lng":"126.6333","country":"China","iso2":"CN","iso3":"CHN","admin_name":"Heilongjiang","capital":"admin","population":"4458000","id":"1156241528"},{"city":"Hengshui","city_ascii":"Hengshui","lat":"37.7348","lng":"115.6860","country":"China","iso2":"CN","iso3":"CHN","admin_name":"Hebei","capital":"","population":"4150000","id":"1156803028"},{"city":"Huizhou","city_ascii":"Huizhou","lat":"23.1115","lng":"114.4152","country":"China","iso2":"CN","iso3":"CHN","admin_name":"Guangdong","capital":"minor","population":"3875000","id":"1156203268"},{"city":"Hechi","city_ascii":"Hechi","lat":"23.0965","lng":"109.6091","country":"China","iso2":"CN","iso3":"CHN","admin_name":"Guangxi","capital":"","population":"3830000","id":"1156868701"},{"city":"Hanzhong","city_ascii":"Hanzhong","lat":"33.0794","lng":"107.0260","country":"China","iso2":"CN","iso3":"CHN","admin_name":"Shaanxi","capital":"","population":"3700000","id":"1156382678"},{"city":"Hechi","city_ascii":"Hechi","lat":"24.6928","lng":"108.0850","country":"China","iso2":"CN","iso3":"CHN","admin_name":"Guangxi","capital":"","population":"3369251","id":"1156167204"},{"city":"Heyuan","city_ascii":"Heyuan","lat":"23.7503","lng":"114.6923","country":"China","iso2":"CN","iso3":"CHN","admin_name":"Guangdong","capital":"minor","population":"3093900","id":"1156665165"},{"city":"Huzhou","city_ascii":"Huzhou","lat":"30.8695","lng":"120.0958","country":"China","iso2":"CN","iso3":"CHN","admin_name":"Zhejiang","capital":"minor","population":"2893542","id":"1156335543"},{"city":"Huludao","city_ascii":"Huludao","lat":"40.7094","lng":"120.8378","country":"China","iso2":"CN","iso3":"CHN","admin_name":"Liaoning","capital":"minor","population":"2787000","id":"1156580218"},{"city":"Hohhot","city_ascii":"Hohhot","lat":"40.8151","lng":"111.6629","country":"China","iso2":"CN","iso3":"CHN","admin_name":"Inner Mongolia","capital":"admin","population":"2635000","id":"1156210167"},{"city":"Huangshi","city_ascii":"Huangshi","lat":"30.2018","lng":"115.0326","country":"China","iso2":"CN","iso3":"CHN","admin_name":"Hubei","capital":"minor","population":"2419000","id":"1156234290"},{"city":"Huainan","city_ascii":"Huainan","lat":"32.4831","lng":"117.0164","country":"China","iso2":"CN","iso3":"CHN","admin_name":"Anhui","capital":"","population":"2409000","id":"1156877299"},{"city":"Huaibei","city_ascii":"Huaibei","lat":"33.9562","lng":"116.7890","country":"China","iso2":"CN","iso3":"CHN","admin_name":"Anhui","capital":"","population":"2158000","id":"1156142626"},{"city":"Havana","city_ascii":"Havana","lat":"23.1367","lng":"-82.3589","country":"Cuba","iso2":"CU","iso3":"CUB","admin_name":"La Habana","capital":"primary","population":"2141652","id":"1192752771"},{"city":"Haiphong","city_ascii":"Haiphong","lat":"20.8000","lng":"106.6667","country":"Vietnam","iso2":"VN","iso3":"VNM","admin_name":"Hải Phòng","capital":"admin","population":"2103500","id":"1704000623"},{"city":"Haikou","city_ascii":"Haikou","lat":"20.0200","lng":"110.3200","country":"China","iso2":"CN","iso3":"CHN","admin_name":"Hainan","capital":"admin","population":"2046189","id":"1156183327"},{"city":"Hamburg","city_ascii":"Hamburg","lat":"53.5500","lng":"10.0000","country":"Germany","iso2":"DE","iso3":"DEU","admin_name":"Hamburg","capital":"admin","population":"1841179","id":"1276041799"},{"city":"Heihe","city_ascii":"Heihe","lat":"50.2458","lng":"127.4886","country":"China","iso2":"CN","iso3":"CHN","admin_name":"Heilongjiang","capital":"minor","population":"1750000","id":"1156339225"},{"city":"Harare","city_ascii":"Harare","lat":"-17.8292","lng":"31.0522","country":"Zimbabwe","iso2":"ZW","iso3":"ZWE","admin_name":"Harare","capital":"primary","population":"1606000","id":"1716196799"},{"city":"Huangshan","city_ascii":"Huangshan","lat":"29.7132","lng":"118.3151","country":"China","iso2":"CN","iso3":"CHN","admin_name":"Anhui","capital":"minor","population":"1470000","id":"1156527426"},{"city":"Huazhou","city_ascii":"Huazhou","lat":"32.6832","lng":"112.0790","country":"China","iso2":"CN","iso3":"CHN","admin_name":"Henan","capital":"minor","population":"1468061","id":"1156796734"},{"city":"Hebi","city_ascii":"Hebi","lat":"35.7497","lng":"114.2887","country":"China","iso2":"CN","iso3":"CHN","admin_name":"Henan","capital":"","population":"1419000","id":"1156114258"},{"city":"Hiroshima","city_ascii":"Hiroshima","lat":"34.3853","lng":"132.4553","country":"Japan","iso2":"JP","iso3":"JPN","admin_name":"Hiroshima","capital":"admin","population":"1306589","id":"1392373695"},{"city":"Haicheng","city_ascii":"Haicheng","lat":"40.8523","lng":"122.7474","country":"China","iso2":"CN","iso3":"CHN","admin_name":"Liaoning","capital":"minor","population":"1293877","id":"1156052713"},{"city":"Huaiyin","city_ascii":"Huaiyin","lat":"33.5800","lng":"119.0300","country":"China","iso2":"CN","iso3":"CHN","admin_name":"Jiangsu","capital":"","population":"1264000","id":"1156662372"},{"city":"Huazhou","city_ascii":"Huazhou","lat":"21.6540","lng":"110.6294","country":"China","iso2":"CN","iso3":"CHN","admin_name":"Guangdong","capital":"","population":"1178809","id":"1156282637"},{"city":"Hegang","city_ascii":"Hegang","lat":"47.3139","lng":"130.2775","country":"China","iso2":"CN","iso3":"CHN","admin_name":"Heilongjiang","capital":"minor","population":"1100000","id":"1156541759"},{"city":"Hanchuan","city_ascii":"Hanchuan","lat":"30.6520","lng":"113.8274","country":"China","iso2":"CN","iso3":"CHN","admin_name":"Hubei","capital":"","population":"1092700","id":"1156149248"},{"city":"Hāora","city_ascii":"Haora","lat":"22.5900","lng":"88.3100","country":"India","iso2":"IN","iso3":"IND","admin_name":"West Bengal","capital":"","population":"1077075","id":"1356986516"},{"city":"Helsinki","city_ascii":"Helsinki","lat":"60.1756","lng":"24.9342","country":"Finland","iso2":"FI","iso3":"FIN","admin_name":"Uusimaa","capital":"primary","population":"642045","id":"1246177997"},{"city":"Halifax","city_ascii":"Halifax","lat":"44.6475","lng":"-63.5906","country":"Canada","iso2":"CA","iso3":"CAN","admin_name":"Nova Scotia","capital":"","population":"403131","id":"1124130981"},{"city":"Honiara","city_ascii":"Honiara","lat":"-9.4333","lng":"159.9500","country":"Solomon Islands","iso2":"SB","iso3":"SLB","admin_name":"Honiara","capital":"primary","population":"84520","id":"1090737486"},{"city":"Hagåtña","city_ascii":"Hagta","lat":"13.4745","lng":"144.7504","country":"Guam","iso2":"GU","iso3":"GUM","admin_name":"","capital":"primary","population":"1051","id":"1316937540"},{"city":"Huilong","city_ascii":"Huilong","lat":"31.8131","lng":"121.6574","country":"China","iso2":"CN","iso3":"CHN","admin_name":"Jiangsu","capital":"minor","population":"972525","id":"1156485081"},{"city":"Hartford","city_ascii":"Hartford","lat":"41.7661","lng":"-72.6834","country":"United States","iso2":"US","iso3":"USA","admin_name":"Connecticut","capital":"","population":"905152","id":"1840004773"},{"city":"Homs","city_ascii":"Homs","lat":"34.7333","lng":"36.7167","country":"Syria","iso2":"SY","iso3":"SYR","admin_name":"Ḩimş","capital":"admin","population":"900492","id":"1760013934"},{"city":"Hubli","city_ascii":"Hubli","lat":"15.3600","lng":"75.1250","country":"India","iso2":"IN","iso3":"IND","admin_name":"Karnātaka","capital":"","population":"890000","id":"1356102365"},{"city":"Hai’an","city_ascii":"Hai'an","lat":"32.5320","lng":"120.4604","country":"China","iso2":"CN","iso3":"CHN","admin_name":"Jiangsu","capital":"minor","population":"866337","id":"1156332302"},{"city":"Hailun","city_ascii":"Hailun","lat":"47.4585","lng":"126.9632","country":"China","iso2":"CN","iso3":"CHN","admin_name":"Heilongjiang","capital":"minor","population":"850000","id":"1156804488"},{"city":"Honolulu","city_ascii":"Honolulu","lat":"21.3294","lng":"-157.8460","country":"United States","iso2":"US","iso3":"USA","admin_name":"Hawaii","capital":"admin","population":"820987","id":"1840013305"},{"city":"Hermosillo","city_ascii":"Hermosillo","lat":"29.0989","lng":"-110.9542","country":"Mexico","iso2":"MX","iso3":"MEX","admin_name":"Sonora","capital":"admin","population":"812229","id":"1484015319"},{"city":"Hejian","city_ascii":"Hejian","lat":"38.4451","lng":"116.0897","country":"China","iso2":"CN","iso3":"CHN","admin_name":"Hebei","capital":"","population":"810306","id":"1156405731"},{"city":"Hamamatsu","city_ascii":"Hamamatsu","lat":"34.7167","lng":"137.7333","country":"Japan","iso2":"JP","iso3":"JPN","admin_name":"Shizuoka","capital":"","population":"791770","id":"1392174500"},{"city":"Hempstead","city_ascii":"Hempstead","lat":"40.6629","lng":"-73.6089","country":"United States","iso2":"US","iso3":"USA","admin_name":"New York","capital":"","population":"768057","id":"1840005293"},{"city":"Hŭngnam","city_ascii":"Hungnam","lat":"39.8231","lng":"127.6232","country":"Korea, North","iso2":"KP","iso3":"PRK","admin_name":"Hamnam","capital":"","population":"751322","id":"1408328889"},{"city":"Hamilton","city_ascii":"Hamilton","lat":"43.2567","lng":"-79.8692","country":"Canada","iso2":"CA","iso3":"CAN","admin_name":"Ontario","capital":"","population":"693645","id":"1124567288"},{"city":"Huambo","city_ascii":"Huambo","lat":"-12.7667","lng":"15.7333","country":"Angola","iso2":"AO","iso3":"AGO","admin_name":"Huambo","capital":"admin","population":"665564","id":"1024079828"},{"city":"Hwasu-dong","city_ascii":"Hwasu-dong","lat":"37.2000","lng":"126.7667","country":"Korea, South","iso2":"KR","iso3":"KOR","admin_name":"Gyeonggi","capital":"","population":"655350","id":"1410037247"},{"city":"Honchō","city_ascii":"Honcho","lat":"35.6947","lng":"139.9825","country":"Japan","iso2":"JP","iso3":"JPN","admin_name":"Chiba","capital":"","population":"639107","id":"1392505502"},{"city":"Hamhŭng","city_ascii":"Hamhung","lat":"39.9167","lng":"127.5333","country":"Korea, North","iso2":"KP","iso3":"PRK","admin_name":"Hamnam","capital":"admin","population":"614198","id":"1408482040"},{"city":"Hachiōji","city_ascii":"Hachioji","lat":"35.6667","lng":"139.3167","country":"Japan","iso2":"JP","iso3":"JPN","admin_name":"Tōkyō","capital":"","population":"577560","id":"1392172935"},{"city":"Huanghua","city_ascii":"Huanghua","lat":"38.3710","lng":"117.3329","country":"China","iso2":"CN","iso3":"CHN","admin_name":"Hebei","capital":"","population":"548507","id":"1156131099"},{"city":"Hannover","city_ascii":"Hannover","lat":"52.3744","lng":"9.7386","country":"Germany","iso2":"DE","iso3":"DEU","admin_name":"Lower Saxony","capital":"admin","population":"538068","id":"1276457707"},{"city":"Hamadān","city_ascii":"Hamadan","lat":"34.8065","lng":"48.5162","country":"Iran","iso2":"IR","iso3":"IRN","admin_name":"Hamadān","capital":"admin","population":"528256","id":"1364126377"},{"city":"Heroica Matamoros","city_ascii":"Heroica Matamoros","lat":"25.8797","lng":"-97.5042","country":"Mexico","iso2":"MX","iso3":"MEX","admin_name":"Tamaulipas","capital":"minor","population":"520367","id":"1484614906"},{"city":"Hải Dương","city_ascii":"Hai Duong","lat":"20.9411","lng":"106.3331","country":"Vietnam","iso2":"VN","iso3":"VNM","admin_name":"Hải Dương","capital":"admin","population":"507469","id":"1704909566"},{"city":"Homyel’","city_ascii":"Homyel'","lat":"52.4417","lng":"30.9833","country":"Belarus","iso2":"BY","iso3":"BLR","admin_name":"Homyel’skaya Voblasts’","capital":"admin","population":"510300","id":"1112580227"},{"city":"Higashi-ōsaka","city_ascii":"Higashi-osaka","lat":"34.6794","lng":"135.6008","country":"Japan","iso2":"JP","iso3":"JPN","admin_name":"Ōsaka","capital":"","population":"494640","id":"1392117396"},{"city":"Hongjiang","city_ascii":"Hongjiang","lat":"27.1167","lng":"109.9500","country":"China","iso2":"CN","iso3":"CHN","admin_name":"Hunan","capital":"","population":"498100","id":"1156039152"},{"city":"Heshan","city_ascii":"Heshan","lat":"22.7697","lng":"112.9578","country":"China","iso2":"CN","iso3":"CHN","admin_name":"Guangdong","capital":"","population":"494938","id":"1156013872"},{"city":"Huế","city_ascii":"Hue","lat":"16.4667","lng":"107.5833","country":"Vietnam","iso2":"VN","iso3":"VNM","admin_name":"Thừa Thiên-Huế","capital":"admin","population":"455230","id":"1704016023"},{"city":"Huadian","city_ascii":"Huadian","lat":"42.9688","lng":"126.7388","country":"China","iso2":"CN","iso3":"CHN","admin_name":"Jilin","capital":"","population":"455339","id":"1156018839"},{"city":"Hsinchu","city_ascii":"Hsinchu","lat":"24.8047","lng":"120.9714","country":"Taiwan","iso2":"TW","iso3":"TWN","admin_name":"Hsinchu","capital":"admin","population":"445635","id":"1158276420"},{"city":"Harrisburg","city_ascii":"Harrisburg","lat":"40.2752","lng":"-76.8843","country":"United States","iso2":"US","iso3":"USA","admin_name":"Pennsylvania","capital":"admin","population":"442289","id":"1840001288"},{"city":"Herāt","city_ascii":"Herat","lat":"34.3738","lng":"62.1792","country":"Afghanistan","iso2":"AF","iso3":"AFG","admin_name":"Herāt","capital":"admin","population":"436300","id":"1004237782"},{"city":"Hpa-An","city_ascii":"Hpa-An","lat":"16.8906","lng":"97.6333","country":"Burma","iso2":"MM","iso3":"MMR","admin_name":"Kayin State","capital":"admin","population":"421525","id":"1104494124"},{"city":"Hailin","city_ascii":"Hailin","lat":"44.5735","lng":"129.3825","country":"China","iso2":"CN","iso3":"CHN","admin_name":"Heilongjiang","capital":"minor","population":"420000","id":"1156267191"},{"city":"Hejin","city_ascii":"Hejin","lat":"35.5914","lng":"110.7060","country":"China","iso2":"CN","iso3":"CHN","admin_name":"Shanxi","capital":"","population":"395527","id":"1156225234"},{"city":"Hancheng","city_ascii":"Hancheng","lat":"35.4603","lng":"110.4292","country":"China","iso2":"CN","iso3":"CHN","admin_name":"Shaanxi","capital":"","population":"391164","id":"1156265838"},{"city":"Huancayo","city_ascii":"Huancayo","lat":"-12.0667","lng":"-75.2167","country":"Peru","iso2":"PE","iso3":"PER","admin_name":"Junín","capital":"admin","population":"378203","id":"1604249985"},{"city":"Hatay","city_ascii":"Hatay","lat":"36.2000","lng":"36.1500","country":"Turkey","iso2":"TR","iso3":"TUR","admin_name":"Hatay","capital":"admin","population":"377793","id":"1792115763"},{"city":"Helixi","city_ascii":"Helixi","lat":"30.6267","lng":"118.9861","country":"China","iso2":"CN","iso3":"CHN","admin_name":"Anhui","capital":"minor","population":"376857","id":"1156734041"},{"city":"Huichang","city_ascii":"Huichang","lat":"34.9136","lng":"112.7852","country":"China","iso2":"CN","iso3":"CHN","admin_name":"Henan","capital":"minor","population":"367113","id":"1156035769"},{"city":"Hrodna","city_ascii":"Hrodna","lat":"53.6667","lng":"23.8167","country":"Belarus","iso2":"BY","iso3":"BLR","admin_name":"Hrodzyenskaya Voblasts’","capital":"admin","population":"356900","id":"1112187197"},{"city":"Hongzhai","city_ascii":"Hongzhai","lat":"35.0476","lng":"104.6394","country":"China","iso2":"CN","iso3":"CHN","admin_name":"Gansu","capital":"","population":"355037","id":"1156905289"},{"city":"Haarlem","city_ascii":"Haarlem","lat":"52.3804","lng":"4.6300","country":"Netherlands","iso2":"NL","iso3":"NLD","admin_name":"Noord-Holland","capital":"admin","population":"349957","id":"1528822178"},{"city":"Holguín","city_ascii":"Holguin","lat":"20.8883","lng":"-76.2558","country":"Cuba","iso2":"CU","iso3":"CUB","admin_name":"Holguín","capital":"admin","population":"350191","id":"1192920574"},{"city":"Hangu","city_ascii":"Hangu","lat":"39.2320","lng":"117.7770","country":"China","iso2":"CN","iso3":"CHN","admin_name":"Tianjin","capital":"","population":"332793","id":"1156202457"},{"city":"Hotan","city_ascii":"Hotan","lat":"37.1012","lng":"79.9327","country":"China","iso2":"CN","iso3":"CHN","admin_name":"Xinjiang","capital":"minor","population":"322300","id":"1156111844"},{"city":"Henderson","city_ascii":"Henderson","lat":"36.0133","lng":"-115.0380","country":"United States","iso2":"US","iso3":"USA","admin_name":"Nevada","capital":"","population":"320189","id":"1840020361"},{"city":"Huntsville","city_ascii":"Huntsville","lat":"34.6988","lng":"-86.6412","country":"United States","iso2":"US","iso3":"USA","admin_name":"Alabama","capital":"","population":"319249","id":"1840005061"},{"city":"Hisar","city_ascii":"Hisar","lat":"29.1489","lng":"75.7367","country":"India","iso2":"IN","iso3":"IND","admin_name":"Haryāna","capital":"","population":"307024","id":"1356004790"},{"city":"Hong’an","city_ascii":"Hong'an","lat":"47.2100","lng":"123.6100","country":"China","iso2":"CN","iso3":"CHN","admin_name":"Heilongjiang","capital":"minor","population":"289999","id":"1156999688"},{"city":"Hulin","city_ascii":"Hulin","lat":"45.7671","lng":"132.9646","country":"China","iso2":"CN","iso3":"CHN","admin_name":"Heilongjiang","capital":"","population":"290000","id":"1156161638"},{"city":"Hospet","city_ascii":"Hospet","lat":"15.2667","lng":"76.4000","country":"India","iso2":"IN","iso3":"IND","admin_name":"Karnātaka","capital":"","population":"286007","id":"1356241463"},{"city":"Haifa","city_ascii":"Haifa","lat":"32.8000","lng":"34.9833","country":"Israel","iso2":"IL","iso3":"ISR","admin_name":"Haifa","capital":"admin","population":"281087","id":"1376133727"},{"city":"Huozhou","city_ascii":"Huozhou","lat":"36.5726","lng":"111.7176","country":"China","iso2":"CN","iso3":"CHN","admin_name":"Shanxi","capital":"","population":"282905","id":"1156917368"},{"city":"Handwāra","city_ascii":"Handwara","lat":"34.4000","lng":"74.2800","country":"India","iso2":"IN","iso3":"IND","admin_name":"Jammu and Kashmīr","capital":"","population":"269311","id":"1356080179"},{"city":"Hiratsuka","city_ascii":"Hiratsuka","lat":"35.3231","lng":"139.3422","country":"Japan","iso2":"JP","iso3":"JPN","admin_name":"Kanagawa","capital":"","population":"257729","id":"1392311050"},{"city":"Huayin","city_ascii":"Huayin","lat":"34.5664","lng":"110.0866","country":"China","iso2":"CN","iso3":"CHN","admin_name":"Shaanxi","capital":"","population":"258113","id":"1156156462"},{"city":"Horlivka","city_ascii":"Horlivka","lat":"48.3336","lng":"38.0925","country":"Ukraine","iso2":"UA","iso3":"UKR","admin_name":"Donets’ka Oblast’","capital":"","population":"256714","id":"1804235146"},{"city":"Hakodate","city_ascii":"Hakodate","lat":"41.7733","lng":"140.7261","country":"Japan","iso2":"JP","iso3":"JPN","admin_name":"Hokkaidō","capital":"","population":"256222","id":"1392708558"},{"city":"Hāpur","city_ascii":"Hapur","lat":"28.7437","lng":"77.7628","country":"India","iso2":"IN","iso3":"IND","admin_name":"Uttar Pradesh","capital":"","population":"242920","id":"1356820012"},{"city":"Haeju","city_ascii":"Haeju","lat":"38.0333","lng":"125.7167","country":"Korea, North","iso2":"KP","iso3":"PRK","admin_name":"Hwangnam","capital":"admin","population":"241599","id":"1408348983"},{"city":"Halle","city_ascii":"Halle","lat":"51.4828","lng":"11.9697","country":"Germany","iso2":"DE","iso3":"DEU","admin_name":"Saxony-Anhalt","capital":"minor","population":"239257","id":"1276167077"},{"city":"Hobart","city_ascii":"Hobart","lat":"-42.8806","lng":"147.3250","country":"Australia","iso2":"AU","iso3":"AUS","admin_name":"Tasmania","capital":"admin","population":"240342","id":"1036679838"},{"city":"Hachimanchō","city_ascii":"Hachimancho","lat":"40.5100","lng":"141.5400","country":"Japan","iso2":"JP","iso3":"JPN","admin_name":"Aomori","capital":"","population":"239046","id":"1392220933"},{"city":"Hialeah","city_ascii":"Hialeah","lat":"25.8696","lng":"-80.3046","country":"United States","iso2":"US","iso3":"USA","admin_name":"Florida","capital":"","population":"233339","id":"1840015157"},{"city":"Huixquilucan","city_ascii":"Huixquilucan","lat":"19.3611","lng":"-99.3508","country":"Mexico","iso2":"MX","iso3":"MEX","admin_name":"México","capital":"minor","population":"224042","id":"1484187110"},{"city":"Heroica Nogales","city_ascii":"Heroica Nogales","lat":"31.3186","lng":"-110.9458","country":"Mexico","iso2":"MX","iso3":"MEX","admin_name":"Sonora","capital":"minor","population":"220292","id":"1484364591"},{"city":"Hunchun","city_ascii":"Hunchun","lat":"42.8679","lng":"130.3585","country":"China","iso2":"CN","iso3":"CHN","admin_name":"Jilin","capital":"minor","population":"225454","id":"1156644593"},{"city":"Hortolândia","city_ascii":"Hortolandia","lat":"-22.8583","lng":"-47.2200","country":"Brazil","iso2":"BR","iso3":"BRA","admin_name":"São Paulo","capital":"","population":"215819","id":"1076591779"},{"city":"Hickory","city_ascii":"Hickory","lat":"35.7425","lng":"-81.3230","country":"United States","iso2":"US","iso3":"USA","admin_name":"North Carolina","capital":"","population":"218323","id":"1840014524"},{"city":"Huangyan","city_ascii":"Huangyan","lat":"28.6500","lng":"121.2500","country":"China","iso2":"CN","iso3":"CHN","admin_name":"Zhejiang","capital":"","population":"198713","id":"1156149186"},{"city":"Huntington","city_ascii":"Huntington","lat":"40.8522","lng":"-73.3824","country":"United States","iso2":"US","iso3":"USA","admin_name":"New York","capital":"","population":"202673","id":"1840058192"},{"city":"Huacho","city_ascii":"Huacho","lat":"-11.1083","lng":"-77.6083","country":"Peru","iso2":"PE","iso3":"PER","admin_name":"Lima","capital":"admin","population":"200585","id":"1604316784"},{"city":"Haldia","city_ascii":"Haldia","lat":"22.0257","lng":"88.0583","country":"India","iso2":"IN","iso3":"IND","admin_name":"West Bengal","capital":"","population":"200762","id":"1356491171"},{"city":"Huntington Beach","city_ascii":"Huntington Beach","lat":"33.6960","lng":"-118.0025","country":"United States","iso2":"US","iso3":"USA","admin_name":"California","capital":"","population":"199223","id":"1840020578"},{"city":"H̱olon","city_ascii":"Holon","lat":"32.0167","lng":"34.7667","country":"Israel","iso2":"IL","iso3":"ISR","admin_name":"Tel Aviv","capital":"","population":"188834","id":"1376222772"},{"city":"Hedong","city_ascii":"Hedong","lat":"42.5404","lng":"129.0039","country":"China","iso2":"CN","iso3":"CHN","admin_name":"Jilin","capital":"","population":"197885","id":"1156223178"},{"city":"Huánuco","city_ascii":"Huanuco","lat":"-9.9294","lng":"-76.2397","country":"Peru","iso2":"PE","iso3":"PER","admin_name":"Huánuco","capital":"admin","population":"196627","id":"1604589102"},{"city":"Hino","city_ascii":"Hino","lat":"35.6714","lng":"139.3950","country":"Japan","iso2":"JP","iso3":"JPN","admin_name":"Tōkyō","capital":"","population":"189945","id":"1392686410"},{"city":"Higashi-Hiroshima","city_ascii":"Higashi-Hiroshima","lat":"34.4167","lng":"132.7333","country":"Japan","iso2":"JP","iso3":"JPN","admin_name":"Hiroshima","capital":"","population":"195805","id":"1392464732"},{"city":"Hugli","city_ascii":"Hugli","lat":"22.9000","lng":"88.3900","country":"India","iso2":"IN","iso3":"IND","admin_name":"West Bengal","capital":"","population":"179931","id":"1356109548"},{"city":"Hyesan","city_ascii":"Hyesan","lat":"41.4000","lng":"128.1833","country":"Korea, North","iso2":"KP","iso3":"PRK","admin_name":"Yanggang","capital":"minor","population":"192680","id":"1408642146"},{"city":"Hagen","city_ascii":"Hagen","lat":"51.3594","lng":"7.4750","country":"Germany","iso2":"DE","iso3":"DEU","admin_name":"North Rhine-Westphalia","capital":"minor","population":"188814","id":"1276389303"},{"city":"Huntington","city_ascii":"Huntington","lat":"38.4109","lng":"-82.4344","country":"United States","iso2":"US","iso3":"USA","admin_name":"West Virginia","capital":"","population":"186034","id":"1840006211"},{"city":"Hagerstown","city_ascii":"Hagerstown","lat":"39.6401","lng":"-77.7217","country":"United States","iso2":"US","iso3":"USA","admin_name":"Maryland","capital":"","population":"184755","id":"1840005613"},{"city":"Hinthada","city_ascii":"Hinthada","lat":"17.6483","lng":"95.4679","country":"Burma","iso2":"MM","iso3":"MMR","admin_name":"Ayeyawady","capital":"","population":"180728","id":"1104524588"},{"city":"High Point","city_ascii":"High Point","lat":"35.9907","lng":"-79.9938","country":"United States","iso2":"US","iso3":"USA","admin_name":"North Carolina","capital":"","population":"179913","id":"1840014479"},{"city":"Hamm","city_ascii":"Hamm","lat":"51.6667","lng":"7.8167","country":"Germany","iso2":"DE","iso3":"DEU","admin_name":"North Rhine-Westphalia","capital":"minor","population":"179111","id":"1276808737"},{"city":"Hemet","city_ascii":"Hemet","lat":"33.7341","lng":"-116.9969","country":"United States","iso2":"US","iso3":"USA","admin_name":"California","capital":"","population":"177253","id":"1840020550"},{"city":"Hitachi","city_ascii":"Hitachi","lat":"36.6000","lng":"140.6500","country":"Japan","iso2":"JP","iso3":"JPN","admin_name":"Ibaraki","capital":"","population":"176069","id":"1392145167"},{"city":"Harar","city_ascii":"Harar","lat":"9.3200","lng":"42.1500","country":"Ethiopia","iso2":"ET","iso3":"ETH","admin_name":"Hārerī Hizb","capital":"admin","population":"174994","id":"1231785978"},{"city":"Hạ Long","city_ascii":"Ha Long","lat":"20.9500","lng":"107.0833","country":"Vietnam","iso2":"VN","iso3":"VNM","admin_name":"Quảng Ninh","capital":"admin","population":"172915","id":"1704379547"},{"city":"Hamilton","city_ascii":"Hamilton","lat":"-37.7833","lng":"175.2833","country":"New Zealand","iso2":"NZ","iso3":"NZL","admin_name":"Waikato","capital":"admin","population":"169300","id":"1554873040"},{"city":"Hŭich’ŏn","city_ascii":"Huich'on","lat":"40.1711","lng":"126.2758","country":"Korea, North","iso2":"KP","iso3":"PRK","admin_name":"Chagang","capital":"","population":"168180","id":"1408445793"},{"city":"Hà Tĩnh","city_ascii":"Ha Tinh","lat":"18.3428","lng":"105.9058","country":"Vietnam","iso2":"VN","iso3":"VNM","admin_name":"Hà Tĩnh","capital":"admin","population":"165396","id":"1704544061"},{"city":"Huddersfield","city_ascii":"Huddersfield","lat":"53.6450","lng":"-1.7798","country":"United Kingdom","iso2":"GB","iso3":"GBR","admin_name":"Kirklees","capital":"","population":"162949","id":"1826672445"},{"city":"Heidelberg","city_ascii":"Heidelberg","lat":"49.4122","lng":"8.7100","country":"Germany","iso2":"DE","iso3":"DEU","admin_name":"Baden-Württemberg","capital":"minor","population":"160355","id":"1276519742"},{"city":"Huaycan","city_ascii":"Huaycan","lat":"-12.0139","lng":"-76.8250","country":"Peru","iso2":"PE","iso3":"PER","admin_name":"Lima","capital":"","population":"160000","id":"1604578883"},{"city":"Hat Yai","city_ascii":"Hat Yai","lat":"7.0167","lng":"100.4667","country":"Thailand","iso2":"TH","iso3":"THA","admin_name":"Songkhla","capital":"minor","population":"159130","id":"1764161022"},{"city":"Herne","city_ascii":"Herne","lat":"51.5426","lng":"7.2190","country":"Germany","iso2":"DE","iso3":"DEU","admin_name":"North Rhine-Westphalia","capital":"minor","population":"156374","id":"1276656117"},{"city":"Hayward","city_ascii":"Hayward","lat":"37.6328","lng":"-122.0772","country":"United States","iso2":"US","iso3":"USA","admin_name":"California","capital":"","population":"159203","id":"1840020293"},{"city":"Higashi-murayama","city_ascii":"Higashi-murayama","lat":"35.7547","lng":"139.4686","country":"Japan","iso2":"JP","iso3":"JPN","admin_name":"Tōkyō","capital":"","population":"150186","id":"1392034645"},{"city":"Harīpur","city_ascii":"Haripur","lat":"31.5200","lng":"75.9800","country":"India","iso2":"IN","iso3":"IND","admin_name":"Punjab","capital":"","population":"158142","id":"1356141115"},{"city":"Hitachi-Naka","city_ascii":"Hitachi-Naka","lat":"36.3964","lng":"140.5344","country":"Japan","iso2":"JP","iso3":"JPN","admin_name":"Ibaraki","capital":"","population":"155680","id":"1392134860"},{"city":"Hanam","city_ascii":"Hanam","lat":"37.5392","lng":"127.2147","country":"Korea, South","iso2":"KR","iso3":"KOR","admin_name":"Gyeonggi","capital":"","population":"154838","id":"1410241338"},{"city":"Horad Barysaw","city_ascii":"Horad Barysaw","lat":"54.2260","lng":"28.4922","country":"Belarus","iso2":"BY","iso3":"BLR","admin_name":"Minskaya Voblasts’","capital":"minor","population":"155389","id":"1112659163"},{"city":"Hollywood","city_ascii":"Hollywood","lat":"26.0294","lng":"-80.1679","country":"United States","iso2":"US","iso3":"USA","admin_name":"Florida","capital":"","population":"154817","id":"1840015144"},{"city":"Harrow","city_ascii":"Harrow","lat":"51.5836","lng":"-0.3464","country":"United Kingdom","iso2":"GB","iso3":"GBR","admin_name":"Harrow","capital":"","population":"149246","id":"1826648099"},{"city":"Hoeryŏng","city_ascii":"Hoeryong","lat":"42.4333","lng":"129.7500","country":"Korea, North","iso2":"KP","iso3":"PRK","admin_name":"Hambuk","capital":"minor","population":"153532","id":"1408656165"},{"city":"Hindupur","city_ascii":"Hindupur","lat":"13.8300","lng":"77.4900","country":"India","iso2":"IN","iso3":"IND","admin_name":"Andhra Pradesh","capital":"","population":"151677","id":"1356805611"},{"city":"Hābra","city_ascii":"Habra","lat":"22.8300","lng":"88.6300","country":"India","iso2":"IN","iso3":"IND","admin_name":"West Bengal","capital":"","population":"147221","id":"1356091822"},{"city":"Huelva","city_ascii":"Huelva","lat":"37.2500","lng":"-6.9500","country":"Spain","iso2":"ES","iso3":"ESP","admin_name":"Andalusia","capital":"minor","population":"143663","id":"1724420824"},{"city":"Houma","city_ascii":"Houma","lat":"29.5799","lng":"-90.7058","country":"United States","iso2":"US","iso3":"USA","admin_name":"Louisiana","capital":"","population":"140469","id":"1840015063"},{"city":"Harlingen","city_ascii":"Harlingen","lat":"26.1917","lng":"-97.6976","country":"United States","iso2":"US","iso3":"USA","admin_name":"Texas","capital":"","population":"136037","id":"1840021036"},{"city":"Hampton","city_ascii":"Hampton","lat":"37.0551","lng":"-76.3630","country":"United States","iso2":"US","iso3":"USA","admin_name":"Virginia","capital":"","population":"134510","id":"1840003866"},{"city":"Heroica Guaymas","city_ascii":"Heroica Guaymas","lat":"27.9183","lng":"-110.8989","country":"Mexico","iso2":"MX","iso3":"MEX","admin_name":"Sonora","capital":"minor","population":"134153","id":"1484689704"},{"city":"Hassan","city_ascii":"Hassan","lat":"13.0050","lng":"76.1028","country":"India","iso2":"IN","iso3":"IND","admin_name":"Karnātaka","capital":"","population":"133436","id":"1356007455"},{"city":"High Wycombe","city_ascii":"High Wycombe","lat":"51.6287","lng":"-0.7482","country":"United Kingdom","iso2":"GB","iso3":"GBR","admin_name":"Buckinghamshire","capital":"","population":"125257","id":"1826609342"},{"city":"Hāthras","city_ascii":"Hathras","lat":"27.6000","lng":"78.0500","country":"India","iso2":"IN","iso3":"IND","admin_name":"Uttar Pradesh","capital":"","population":"126882","id":"1356072147"},{"city":"Heilbronn","city_ascii":"Heilbronn","lat":"49.1404","lng":"9.2180","country":"Germany","iso2":"DE","iso3":"DEU","admin_name":"Baden-Württemberg","capital":"minor","population":"125960","id":"1276377359"},{"city":"Hālīsahar","city_ascii":"Halisahar","lat":"22.9500","lng":"88.4200","country":"India","iso2":"IN","iso3":"IND","admin_name":"West Bengal","capital":"","population":"124939","id":"1356242644"},{"city":"Honchō","city_ascii":"Honcho","lat":"35.7581","lng":"139.5297","country":"Japan","iso2":"JP","iso3":"JPN","admin_name":"Tōkyō","capital":"","population":"116482","id":"1392994259"},{"city":"Hosan","city_ascii":"Hosan","lat":"36.2039","lng":"127.0847","country":"Korea, South","iso2":"KR","iso3":"KOR","admin_name":"Chungnam","capital":"","population":"124246","id":"1410009966"},{"city":"Higüey","city_ascii":"Higuey","lat":"18.6160","lng":"-68.7080","country":"Dominican Republic","iso2":"DO","iso3":"DOM","admin_name":"Yuma","capital":"minor","population":"123787","id":"1214313712"},{"city":"Honmachi","city_ascii":"Honmachi","lat":"32.5178","lng":"130.6181","country":"Japan","iso2":"JP","iso3":"JPN","admin_name":"Kumamoto","capital":"","population":"123758","id":"1392126782"},{"city":"Hội An","city_ascii":"Hoi An","lat":"15.8733","lng":"108.3327","country":"Vietnam","iso2":"VN","iso3":"VNM","admin_name":"Quảng Nam","capital":"","population":"121716","id":"1704897050"},{"city":"Hòa Bình","city_ascii":"Hoa Binh","lat":"20.8172","lng":"105.3375","country":"Vietnam","iso2":"VN","iso3":"VNM","admin_name":"Hòa Bình","capital":"admin","population":"121309","id":"1704237072"},{"city":"Handa","city_ascii":"Handa","lat":"34.8992","lng":"136.9267","country":"Japan","iso2":"JP","iso3":"JPN","admin_name":"Aichi","capital":"","population":"118145","id":"1392363594"},{"city":"Huaraz","city_ascii":"Huaraz","lat":"-9.5333","lng":"-77.5333","country":"Peru","iso2":"PE","iso3":"PER","admin_name":"Ancash","capital":"admin","population":"118836","id":"1604026500"},{"city":"Huejutla de Reyes","city_ascii":"Huejutla de Reyes","lat":"21.1333","lng":"-98.4167","country":"Mexico","iso2":"MX","iso3":"MEX","admin_name":"Hidalgo","capital":"","population":"115786","id":"1484746079"},{"city":"Helsingborg","city_ascii":"Helsingborg","lat":"56.0424","lng":"12.7210","country":"Sweden","iso2":"SE","iso3":"SWE","admin_name":"Skåne","capital":"minor","population":"112496","id":"1752789933"},{"city":"Hatsukaichi","city_ascii":"Hatsukaichi","lat":"34.3486","lng":"132.3317","country":"Japan","iso2":"JP","iso3":"JPN","admin_name":"Hiroshima","capital":"","population":"114975","id":"1392723053"},{"city":"Hōfu","city_ascii":"Hofu","lat":"34.0500","lng":"131.5667","country":"Japan","iso2":"JP","iso3":"JPN","admin_name":"Yamaguchi","capital":"","population":"114256","id":"1392985430"},{"city":"Hikone","city_ascii":"Hikone","lat":"35.2744","lng":"136.2597","country":"Japan","iso2":"JP","iso3":"JPN","admin_name":"Shiga","capital":"","population":"113818","id":"1392717059"},{"city":"Habikino","city_ascii":"Habikino","lat":"34.5578","lng":"135.6061","country":"Japan","iso2":"JP","iso3":"JPN","admin_name":"Ōsaka","capital":"","population":"109553","id":"1392918777"},{"city":"Higashiōmi","city_ascii":"Higashiomi","lat":"35.1128","lng":"136.2078","country":"Japan","iso2":"JP","iso3":"JPN","admin_name":"Shiga","capital":"","population":"113165","id":"1392117204"},{"city":"Hualien","city_ascii":"Hualien","lat":"23.9769","lng":"121.6044","country":"Taiwan","iso2":"TW","iso3":"TWN","admin_name":"Hualien","capital":"admin","population":"109251","id":"1158174293"},{"city":"Hounslow","city_ascii":"Hounslow","lat":"51.4668","lng":"-0.3750","country":"United Kingdom","iso2":"GB","iso3":"GBR","admin_name":"Hounslow","capital":"","population":"103337","id":"1826943293"},{"city":"Hillsboro","city_ascii":"Hillsboro","lat":"45.5272","lng":"-122.9361","country":"United States","iso2":"US","iso3":"USA","admin_name":"Oregon","capital":"","population":"109128","id":"1840019932"},{"city":"Huauchinango","city_ascii":"Huauchinango","lat":"20.1767","lng":"-98.0528","country":"Mexico","iso2":"MX","iso3":"MEX","admin_name":"Puebla","capital":"minor","population":"97753","id":"1484856743"},{"city":"Himamaylan","city_ascii":"Himamaylan","lat":"10.1000","lng":"122.8667","country":"Philippines","iso2":"PH","iso3":"PHL","admin_name":"Negros Occidental","capital":"","population":"106880","id":"1608765297"},{"city":"Highlands Ranch","city_ascii":"Highlands Ranch","lat":"39.5419","lng":"-104.9708","country":"United States","iso2":"US","iso3":"USA","admin_name":"Colorado","capital":"","population":"105147","id":"1840028579"},{"city":"Houzhuang","city_ascii":"Houzhuang","lat":"35.6200","lng":"111.2100","country":"China","iso2":"CN","iso3":"CHN","admin_name":"Shanxi","capital":"","population":"102400","id":"1156080869"},{"city":"Hildesheim","city_ascii":"Hildesheim","lat":"52.1500","lng":"9.9500","country":"Germany","iso2":"DE","iso3":"DEU","admin_name":"Lower Saxony","capital":"minor","population":"101990","id":"1276244190"},{"city":"Hove","city_ascii":"Hove","lat":"50.8352","lng":"-0.1758","country":"United Kingdom","iso2":"GB","iso3":"GBR","admin_name":"Brighton and Hove","capital":"","population":"91900","id":"1826419818"},{"city":"Hemel Hempstead","city_ascii":"Hemel Hempstead","lat":"51.7526","lng":"-0.4692","country":"United Kingdom","iso2":"GB","iso3":"GBR","admin_name":"Hertfordshire","capital":"","population":"97500","id":"1826374836"},{"city":"Holland","city_ascii":"Holland","lat":"42.7677","lng":"-86.0985","country":"United States","iso2":"US","iso3":"USA","admin_name":"Michigan","capital":"","population":"100432","id":"1840002996"},{"city":"Herẕliyya","city_ascii":"Herzliyya","lat":"32.1556","lng":"34.8422","country":"Israel","iso2":"IL","iso3":"ISR","admin_name":"Tel Aviv","capital":"","population":"93989","id":"1376303805"},{"city":"Half Way Tree","city_ascii":"Half Way Tree","lat":"18.0106","lng":"-76.7975","country":"Jamaica","iso2":"JM","iso3":"JAM","admin_name":"Saint Andrew","capital":"admin","population":"96494","id":"1388715163"},{"city":"Hartlepool","city_ascii":"Hartlepool","lat":"54.6900","lng":"-1.2100","country":"United Kingdom","iso2":"GB","iso3":"GBR","admin_name":"Hartlepool","capital":"","population":"92000","id":"1826069842"},{"city":"Haskovo","city_ascii":"Haskovo","lat":"41.9311","lng":"25.5575","country":"Bulgaria","iso2":"BG","iso3":"BGR","admin_name":"Haskovo","capital":"admin","population":"93821","id":"1100186247"},{"city":"Hradec Králové","city_ascii":"Hradec Kralove","lat":"50.2092","lng":"15.8319","country":"Czechia","iso2":"CZ","iso3":"CZE","admin_name":"Královéhradecký Kraj","capital":"admin","population":"92939","id":"1203430618"},{"city":"Hayes","city_ascii":"Hayes","lat":"51.5127","lng":"-0.4211","country":"United Kingdom","iso2":"GB","iso3":"GBR","admin_name":"Hillingdon","capital":"","population":"83564","id":"1826539158"},{"city":"Higashiyamato","city_ascii":"Higashiyamato","lat":"35.7456","lng":"139.4267","country":"Japan","iso2":"JP","iso3":"JPN","admin_name":"Tōkyō","capital":"","population":"84223","id":"1392233405"},{"city":"Hawthorne","city_ascii":"Hawthorne","lat":"33.9146","lng":"-118.3476","country":"United States","iso2":"US","iso3":"USA","admin_name":"California","capital":"","population":"86068","id":"1840020486"},{"city":"Heṭauḍā","city_ascii":"Hetauda","lat":"27.4167","lng":"85.0333","country":"Nepal","iso2":"NP","iso3":"NPL","admin_name":"Nārāyanī","capital":"admin","population":"84671","id":"1524551914"},{"city":"Ho","city_ascii":"Ho","lat":"6.6114","lng":"0.4703","country":"Ghana","iso2":"GH","iso3":"GHA","admin_name":"Volta","capital":"admin","population":"83715","id":"1288938914"},{"city":"Hakkari","city_ascii":"Hakkari","lat":"37.5744","lng":"43.7408","country":"Turkey","iso2":"TR","iso3":"TUR","admin_name":"Hakkâri","capital":"admin","population":"81424","id":"1792629133"},{"city":"Harrogate","city_ascii":"Harrogate","lat":"53.9919","lng":"-1.5378","country":"United Kingdom","iso2":"GB","iso3":"GBR","admin_name":"North Yorkshire","capital":"","population":"75070","id":"1826765513"},{"city":"Hekinan","city_ascii":"Hekinan","lat":"34.8833","lng":"137.0000","country":"Japan","iso2":"JP","iso3":"JPN","admin_name":"Aichi","capital":"","population":"72875","id":"1392819275"},{"city":"Havířov","city_ascii":"Havirov","lat":"49.7778","lng":"18.4228","country":"Czechia","iso2":"CZ","iso3":"CZE","admin_name":"Moravskoslezský Kraj","capital":"","population":"71200","id":"1203173875"},{"city":"Hämeenlinna","city_ascii":"Hameenlinna","lat":"61.0000","lng":"24.4414","country":"Finland","iso2":"FI","iso3":"FIN","admin_name":"Kanta-Häme","capital":"admin","population":"68011","id":"1246026891"},{"city":"Hasuda","city_ascii":"Hasuda","lat":"35.9942","lng":"139.6622","country":"Japan","iso2":"JP","iso3":"JPN","admin_name":"Saitama","capital":"","population":"61507","id":"1392294890"},{"city":"Halesowen","city_ascii":"Halesowen","lat":"52.4502","lng":"-2.0509","country":"United Kingdom","iso2":"GB","iso3":"GBR","admin_name":"Dudley","capital":"","population":"58135","id":"1826152884"},{"city":"Hamura","city_ascii":"Hamura","lat":"35.7672","lng":"139.3111","country":"Japan","iso2":"JP","iso3":"JPN","admin_name":"Tōkyō","capital":"","population":"54874","id":"1392153436"},{"city":"Hereford","city_ascii":"Hereford","lat":"52.0565","lng":"-2.7160","country":"United Kingdom","iso2":"GB","iso3":"GBR","admin_name":"Herefordshire","capital":"","population":"55955","id":"1826996583"},{"city":"Hod HaSharon","city_ascii":"Hod HaSharon","lat":"32.1500","lng":"34.8833","country":"Israel","iso2":"IL","iso3":"ISR","admin_name":"Central","capital":"","population":"56659","id":"1376159880"},{"city":"Huamantla","city_ascii":"Huamantla","lat":"19.3133","lng":"-97.9228","country":"Mexico","iso2":"MX","iso3":"MEX","admin_name":"Tlaxcala","capital":"minor","population":"51996","id":"1484180362"},{"city":"Huehuetenango","city_ascii":"Huehuetenango","lat":"15.3147","lng":"-91.4761","country":"Guatemala","iso2":"GT","iso3":"GTM","admin_name":"Huehuetenango","capital":"admin","population":"58000","id":"1320742269"},{"city":"Hendon","city_ascii":"Hendon","lat":"51.5837","lng":"-0.2252","country":"United Kingdom","iso2":"GB","iso3":"GBR","admin_name":"Barnet","capital":"","population":"52972","id":"1826052476"},{"city":"Hilden","city_ascii":"Hilden","lat":"51.1714","lng":"6.9394","country":"Germany","iso2":"DE","iso3":"DEU","admin_name":"North Rhine-Westphalia","capital":"","population":"55764","id":"1276577152"},{"city":"Hamilton","city_ascii":"Hamilton","lat":"55.7770","lng":"-4.0390","country":"United Kingdom","iso2":"GB","iso3":"GBR","admin_name":"South Lanarkshire","capital":"","population":"54230","id":"1826692620"},{"city":"Huntington Park","city_ascii":"Huntington Park","lat":"33.9800","lng":"-118.2167","country":"United States","iso2":"US","iso3":"USA","admin_name":"California","capital":"","population":"57509","id":"1840019235"},{"city":"Halmstad","city_ascii":"Halmstad","lat":"56.6718","lng":"12.8556","country":"Sweden","iso2":"SE","iso3":"SWE","admin_name":"Halland","capital":"admin","population":"55657","id":"1752392511"},{"city":"Helena","city_ascii":"Helena","lat":"46.5965","lng":"-112.0202","country":"United States","iso2":"US","iso3":"USA","admin_name":"Montana","capital":"admin","population":"52936","id":"1840019820"},{"city":"Hoboken","city_ascii":"Hoboken","lat":"40.7453","lng":"-74.0279","country":"United States","iso2":"US","iso3":"USA","admin_name":"New Jersey","capital":"","population":"52677","id":"1840003599"},{"city":"Hāgere Hiywet","city_ascii":"Hagere Hiywet","lat":"8.9833","lng":"37.8500","country":"Ethiopia","iso2":"ET","iso3":"ETH","admin_name":"Oromīya","capital":"","population":"43920","id":"1231809487"},{"city":"Huancavelica","city_ascii":"Huancavelica","lat":"-12.7850","lng":"-74.9714","country":"Peru","iso2":"PE","iso3":"PER","admin_name":"Huancavelica","capital":"admin","population":"49570","id":"1604876709"},{"city":"Hollister","city_ascii":"Hollister","lat":"36.8563","lng":"-121.3981","country":"United States","iso2":"US","iso3":"USA","admin_name":"California","capital":"","population":"48992","id":"1840020354"},{"city":"Havant","city_ascii":"Havant","lat":"50.8500","lng":"-0.9800","country":"United Kingdom","iso2":"GB","iso3":"GBR","admin_name":"Hampshire","capital":"","population":"45826","id":"1826912407"},{"city":"Hinckley","city_ascii":"Hinckley","lat":"52.5413","lng":"-1.3725","country":"United Kingdom","iso2":"GB","iso3":"GBR","admin_name":"Leicestershire","capital":"","population":"45249","id":"1826014873"},{"city":"Hackensack","city_ascii":"Hackensack","lat":"40.8890","lng":"-74.0461","country":"United States","iso2":"US","iso3":"USA","admin_name":"New Jersey","capital":"","population":"44188","id":"1840003556"},{"city":"Haedo","city_ascii":"Haedo","lat":"-34.6500","lng":"-58.6000","country":"Argentina","iso2":"AR","iso3":"ARG","admin_name":"Buenos Aires","capital":"","population":"37745","id":"1032803323"},{"city":"Hódmezővásárhely","city_ascii":"Hodmezovasarhely","lat":"46.4303","lng":"20.3189","country":"Hungary","iso2":"HU","iso3":"HUN","admin_name":"Hódmezővásárhely","capital":"admin","population":"43311","id":"1348676241"},{"city":"Hicksville","city_ascii":"Hicksville","lat":"40.7637","lng":"-73.5245","country":"United States","iso2":"US","iso3":"USA","admin_name":"New York","capital":"","population":"42649","id":"1840005266"},{"city":"Herne Bay","city_ascii":"Herne Bay","lat":"51.3700","lng":"1.1300","country":"United Kingdom","iso2":"GB","iso3":"GBR","admin_name":"Kent","capital":"","population":"38563","id":"1826454069"},{"city":"Hyde","city_ascii":"Hyde","lat":"53.4474","lng":"-2.0820","country":"United Kingdom","iso2":"GB","iso3":"GBR","admin_name":"Tameside","capital":"","population":"34003","id":"1826480324"},{"city":"Hallandale Beach","city_ascii":"Hallandale Beach","lat":"25.9854","lng":"-80.1423","country":"United States","iso2":"US","iso3":"USA","admin_name":"Florida","capital":"","population":"39847","id":"1840014237"},{"city":"Houilles","city_ascii":"Houilles","lat":"48.9261","lng":"2.1892","country":"France","iso2":"FR","iso3":"FRA","admin_name":"Île-de-France","capital":"","population":"32151","id":"1250321161"},{"city":"Hà Giang","city_ascii":"Ha Giang","lat":"22.8233","lng":"104.9836","country":"Vietnam","iso2":"VN","iso3":"VNM","admin_name":"Hà Giang","capital":"admin","population":"38362","id":"1704495953"},{"city":"Highbury","city_ascii":"Highbury","lat":"51.5520","lng":"-0.0970","country":"United Kingdom","iso2":"GB","iso3":"GBR","admin_name":"Islington","capital":"","population":"26664","id":"1826640859"},{"city":"Hanwell","city_ascii":"Hanwell","lat":"51.5189","lng":"-0.3376","country":"United Kingdom","iso2":"GB","iso3":"GBR","admin_name":"Ealing","capital":"","population":"28768","id":"1826742619"},{"city":"Hanover Park","city_ascii":"Hanover Park","lat":"41.9819","lng":"-88.1447","country":"United States","iso2":"US","iso3":"USA","admin_name":"Illinois","capital":"","population":"37426","id":"1840011251"},{"city":"Hitchin","city_ascii":"Hitchin","lat":"51.9470","lng":"-0.2830","country":"United Kingdom","iso2":"GB","iso3":"GBR","admin_name":"Hertfordshire","capital":"","population":"33352","id":"1826093917"},{"city":"Huyton","city_ascii":"Huyton","lat":"53.4100","lng":"-2.8430","country":"United Kingdom","iso2":"GB","iso3":"GBR","admin_name":"Knowsley","capital":"","population":"33193","id":"1826682901"},{"city":"Huatabampo","city_ascii":"Huatabampo","lat":"26.8304","lng":"-109.6300","country":"Mexico","iso2":"MX","iso3":"MEX","admin_name":"Sonora","capital":"minor","population":"30426","id":"1484335657"},{"city":"Homa Bay","city_ascii":"Homa Bay","lat":"-0.5167","lng":"34.4500","country":"Kenya","iso2":"KE","iso3":"KEN","admin_name":"Homa Bay","capital":"admin","population":"32174","id":"1404321159"},{"city":"Huntington Station","city_ascii":"Huntington Station","lat":"40.8446","lng":"-73.4050","country":"United States","iso2":"US","iso3":"USA","admin_name":"New York","capital":"","population":"33259","id":"1840005081"},{"city":"Harper","city_ascii":"Harper","lat":"4.3754","lng":"-7.7170","country":"Liberia","iso2":"LR","iso3":"LBR","admin_name":"Maryland","capital":"admin","population":"32661","id":"1430540258"},{"city":"Hertford","city_ascii":"Hertford","lat":"51.7950","lng":"-0.0780","country":"United Kingdom","iso2":"GB","iso3":"GBR","admin_name":"Hertfordshire","capital":"","population":"26783","id":"1826912872"},{"city":"Heredia","city_ascii":"Heredia","lat":"9.9985","lng":"-84.1169","country":"Costa Rica","iso2":"CR","iso3":"CRI","admin_name":"Heredia","capital":"admin","population":"22700","id":"1188210837"},{"city":"Hindley","city_ascii":"Hindley","lat":"53.5355","lng":"-2.5658","country":"United Kingdom","iso2":"GB","iso3":"GBR","admin_name":"Wigan","capital":"","population":"25001","id":"1826824753"},{"city":"Haverhill","city_ascii":"Haverhill","lat":"52.0800","lng":"0.4400","country":"United Kingdom","iso2":"GB","iso3":"GBR","admin_name":"Suffolk","capital":"","population":"27041","id":"1826015750"},{"city":"Hillerød","city_ascii":"Hillerod","lat":"55.9333","lng":"12.3167","country":"Denmark","iso2":"DK","iso3":"DNK","admin_name":"Hovedstaden","capital":"admin","population":"28313","id":"1208278269"},{"city":"Hunucmá","city_ascii":"Hunucma","lat":"21.0153","lng":"-89.8744","country":"Mexico","iso2":"MX","iso3":"MEX","admin_name":"Yucatán","capital":"minor","population":"24910","id":"1484800428"},{"city":"Harborne","city_ascii":"Harborne","lat":"52.4600","lng":"-1.9500","country":"United Kingdom","iso2":"GB","iso3":"GBR","admin_name":"Birmingham","capital":"","population":"23001","id":"1826937093"},{"city":"Highgate","city_ascii":"Highgate","lat":"51.5716","lng":"-0.1448","country":"United Kingdom","iso2":"GB","iso3":"GBR","admin_name":"Camden","capital":"","population":"10955","id":"1826674604"},{"city":"Hamar","city_ascii":"Hamar","lat":"60.7945","lng":"11.0680","country":"Norway","iso2":"NO","iso3":"NOR","admin_name":"Hedmark","capital":"admin","population":"27947","id":"1578111692"},{"city":"Hackney","city_ascii":"Hackney","lat":"51.5414","lng":"-0.0266","country":"United Kingdom","iso2":"GB","iso3":"GBR","admin_name":"Hackney","capital":"","population":"11734","id":"1826413202"},{"city":"Heroica Ciudad de Tlaxiaco","city_ascii":"Heroica Ciudad de Tlaxiaco","lat":"17.2704","lng":"-97.6800","country":"Mexico","iso2":"MX","iso3":"MEX","admin_name":"Oaxaca","capital":"minor","population":"21391","id":"1484201826"},{"city":"Hovd","city_ascii":"Hovd","lat":"48.0167","lng":"91.5667","country":"Mongolia","iso2":"MN","iso3":"MNG","admin_name":"Hovd","capital":"admin","population":"26023","id":"1496382421"},{"city":"Holborn","city_ascii":"Holborn","lat":"51.5172","lng":"-0.1182","country":"United Kingdom","iso2":"GB","iso3":"GBR","admin_name":"Camden","capital":"","population":"13023","id":"1826657058"},{"city":"Hacı Zeynalabdin","city_ascii":"Haci Zeynalabdin","lat":"40.6242","lng":"49.5575","country":"Azerbaijan","iso2":"AZ","iso3":"AZE","admin_name":"Sumqayıt","capital":"","population":"22000","id":"1031256738"},{"city":"Hornsey","city_ascii":"Hornsey","lat":"51.5870","lng":"-0.1180","country":"United Kingdom","iso2":"GB","iso3":"GBR","admin_name":"Haringey","capital":"","population":"12659","id":"1826443938"},{"city":"Herndon","city_ascii":"Herndon","lat":"38.9699","lng":"-77.3867","country":"United States","iso2":"US","iso3":"USA","admin_name":"Virginia","capital":"","population":"24601","id":"1840006037"},{"city":"Huskvarna","city_ascii":"Huskvarna","lat":"57.7919","lng":"14.2756","country":"Sweden","iso2":"SE","iso3":"SWE","admin_name":"Jönköping","capital":"","population":"22000","id":"1752552539"},{"city":"Horwich","city_ascii":"Horwich","lat":"53.5920","lng":"-2.5400","country":"United Kingdom","iso2":"GB","iso3":"GBR","admin_name":"Bolton","capital":"","population":"20067","id":"1826931583"},{"city":"Hialeah Gardens","city_ascii":"Hialeah Gardens","lat":"25.8878","lng":"-80.3569","country":"United States","iso2":"US","iso3":"USA","admin_name":"Florida","capital":"","population":"23474","id":"1840015158"},{"city":"Hidalgotitlán","city_ascii":"Hidalgotitlan","lat":"17.7833","lng":"-94.6333","country":"Mexico","iso2":"MX","iso3":"MEX","admin_name":"Veracruz","capital":"minor","population":"19587","id":"1484749313"},{"city":"Huanímaro","city_ascii":"Huanimaro","lat":"20.3675","lng":"-101.4969","country":"Mexico","iso2":"MX","iso3":"MEX","admin_name":"Guanajuato","capital":"minor","population":"19693","id":"1484325445"},{"city":"Hayesville","city_ascii":"Hayesville","lat":"44.9794","lng":"-122.9739","country":"United States","iso2":"US","iso3":"USA","admin_name":"Oregon","capital":"","population":"22272","id":"1840034726"},{"city":"Hillside","city_ascii":"Hillside","lat":"40.6961","lng":"-74.2286","country":"United States","iso2":"US","iso3":"USA","admin_name":"New Jersey","capital":"","population":"21895","id":"1840081741"},{"city":"Hadleigh","city_ascii":"Hadleigh","lat":"51.5535","lng":"0.6095","country":"United Kingdom","iso2":"GB","iso3":"GBR","admin_name":"Essex","capital":"","population":"18300","id":"1826599485"},{"city":"Hamtramck","city_ascii":"Hamtramck","lat":"42.3954","lng":"-83.0560","country":"United States","iso2":"US","iso3":"USA","admin_name":"Michigan","capital":"","population":"21599","id":"1840003980"},{"city":"Hampton","city_ascii":"Hampton","lat":"51.4220","lng":"-0.3670","country":"United Kingdom","iso2":"GB","iso3":"GBR","admin_name":"Richmond upon Thames","capital":"","population":"19372","id":"1826380138"},{"city":"Hacıqabul","city_ascii":"Haciqabul","lat":"40.0375","lng":"48.9350","country":"Azerbaijan","iso2":"AZ","iso3":"AZE","admin_name":"Hacıqabul","capital":"admin","population":"21504","id":"1031015845"},{"city":"Hebburn","city_ascii":"Hebburn","lat":"54.9718","lng":"-1.5128","country":"United Kingdom","iso2":"GB","iso3":"GBR","admin_name":"South Tyneside","capital":"","population":"16492","id":"1826146139"},{"city":"Horsforth","city_ascii":"Horsforth","lat":"53.8341","lng":"-1.6429","country":"United Kingdom","iso2":"GB","iso3":"GBR","admin_name":"Leeds","capital":"","population":"18895","id":"1826006259"},{"city":"Hednesford","city_ascii":"Hednesford","lat":"52.7115","lng":"-2.0006","country":"United Kingdom","iso2":"GB","iso3":"GBR","admin_name":"Staffordshire","capital":"","population":"17343","id":"1826749949"},{"city":"Haslingden","city_ascii":"Haslingden","lat":"53.7050","lng":"-2.3280","country":"United Kingdom","iso2":"GB","iso3":"GBR","admin_name":"Lancashire","capital":"","population":"16849","id":"1826295809"},{"city":"Harwich","city_ascii":"Harwich","lat":"51.9340","lng":"1.2660","country":"United Kingdom","iso2":"GB","iso3":"GBR","admin_name":"Essex","capital":"","population":"17684","id":"1826285169"},{"city":"Harrison","city_ascii":"Harrison","lat":"40.7431","lng":"-74.1531","country":"United States","iso2":"US","iso3":"USA","admin_name":"New Jersey","capital":"","population":"20061","id":"1840003598"},{"city":"Hilsea","city_ascii":"Hilsea","lat":"50.8300","lng":"-1.0700","country":"United Kingdom","iso2":"GB","iso3":"GBR","admin_name":"Portsmouth","capital":"","population":"13552","id":"1826746556"},{"city":"Hakha","city_ascii":"Hakha","lat":"22.6500","lng":"93.6167","country":"Burma","iso2":"MM","iso3":"MMR","admin_name":"Chin State","capital":"admin","population":"20000","id":"1104739581"},{"city":"Hermosa Beach","city_ascii":"Hermosa Beach","lat":"33.8654","lng":"-118.3966","country":"United States","iso2":"US","iso3":"USA","admin_name":"California","capital":"","population":"19320","id":"1840020487"},{"city":"Harrow Weald","city_ascii":"Harrow Weald","lat":"51.6040","lng":"-0.3390","country":"United Kingdom","iso2":"GB","iso3":"GBR","admin_name":"Harrow","capital":"","population":"11376","id":"1826880341"},{"city":"Härnösand","city_ascii":"Harnosand","lat":"62.6323","lng":"17.9379","country":"Sweden","iso2":"SE","iso3":"SWE","admin_name":"Västernorrland","capital":"admin","population":"18624","id":"1752644953"},{"city":"Hazel Grove","city_ascii":"Hazel Grove","lat":"53.3750","lng":"-2.1110","country":"United Kingdom","iso2":"GB","iso3":"GBR","admin_name":"Stockport","capital":"","population":"15265","id":"1826167274"},{"city":"Hinche","city_ascii":"Hinche","lat":"19.1430","lng":"-72.0040","country":"Haiti","iso2":"HT","iso3":"HTI","admin_name":"Centre","capital":"admin","population":"18590","id":"1332748356"},{"city":"Hūn","city_ascii":"Hun","lat":"29.1167","lng":"15.9333","country":"Libya","iso2":"LY","iso3":"LBY","admin_name":"Al Jufrah","capital":"admin","population":"18878","id":"1434396501"},{"city":"Hawthorne","city_ascii":"Hawthorne","lat":"40.9579","lng":"-74.1581","country":"United States","iso2":"US","iso3":"USA","admin_name":"New Jersey","capital":"","population":"18753","id":"1840003513"},{"city":"Hythe","city_ascii":"Hythe","lat":"51.0716","lng":"1.0840","country":"United Kingdom","iso2":"GB","iso3":"GBR","admin_name":"Kent","capital":"","population":"14516","id":"1826972409"},{"city":"Hendaye","city_ascii":"Hendaye","lat":"43.3586","lng":"-1.7744","country":"France","iso2":"FR","iso3":"FRA","admin_name":"Nouvelle-Aquitaine","capital":"","population":"16484","id":"1250942695"},{"city":"Hyattsville","city_ascii":"Hyattsville","lat":"38.9612","lng":"-76.9548","country":"United States","iso2":"US","iso3":"USA","admin_name":"Maryland","capital":"","population":"18230","id":"1840005975"},{"city":"Hessle","city_ascii":"Hessle","lat":"53.7239","lng":"-0.4319","country":"United Kingdom","iso2":"GB","iso3":"GBR","admin_name":"East Riding of Yorkshire","capital":"","population":"15000","id":"1826433714"},{"city":"Hetton le Hole","city_ascii":"Hetton le Hole","lat":"54.8208","lng":"-1.4488","country":"United Kingdom","iso2":"GB","iso3":"GBR","admin_name":"Sunderland","capital":"","population":"14402","id":"1826816233"},{"city":"Hawick","city_ascii":"Hawick","lat":"55.4220","lng":"-2.7870","country":"United Kingdom","iso2":"GB","iso3":"GBR","admin_name":"Scottish Borders, The","capital":"","population":"14294","id":"1826156666"},{"city":"Hollinwood","city_ascii":"Hollinwood","lat":"53.5183","lng":"-2.1440","country":"United Kingdom","iso2":"GB","iso3":"GBR","admin_name":"Oldham","capital":"","population":"10920","id":"1826177835"},{"city":"Herceg Novi","city_ascii":"Herceg Novi","lat":"42.4531","lng":"18.5375","country":"Montenegro","iso2":"ME","iso3":"MNE","admin_name":"Herceg Novi","capital":"admin","population":"16493","id":"1499673791"},{"city":"Hall in Tirol","city_ascii":"Hall in Tirol","lat":"47.2833","lng":"11.5000","country":"Austria","iso2":"AT","iso3":"AUT","admin_name":"Tirol","capital":"","population":"13897","id":"1040200365"},{"city":"Hazel Park","city_ascii":"Hazel Park","lat":"42.4619","lng":"-83.0977","country":"United States","iso2":"US","iso3":"USA","admin_name":"Michigan","capital":"","population":"16347","id":"1840002444"},{"city":"Hybla Valley","city_ascii":"Hybla Valley","lat":"38.7485","lng":"-77.0822","country":"United States","iso2":"US","iso3":"USA","admin_name":"Virginia","capital":"","population":"16325","id":"1840006031"},{"city":"Hillcrest Heights","city_ascii":"Hillcrest Heights","lat":"38.8373","lng":"-76.9641","country":"United States","iso2":"US","iso3":"USA","admin_name":"Maryland","capital":"","population":"16185","id":"1840005957"},{"city":"Hamworthy","city_ascii":"Hamworthy","lat":"50.7207","lng":"-2.0109","country":"United Kingdom","iso2":"GB","iso3":"GBR","admin_name":"Poole","capital":"","population":"13141","id":"1826152071"},{"city":"Huntington","city_ascii":"Huntington","lat":"53.9926","lng":"-1.0430","country":"United Kingdom","iso2":"GB","iso3":"GBR","admin_name":"York","capital":"","population":"12108","id":"1826116194"},{"city":"Hwlffordd","city_ascii":"Hwlffordd","lat":"51.8000","lng":"-4.9700","country":"United Kingdom","iso2":"GB","iso3":"GBR","admin_name":"Pembrokeshire","capital":"","population":"12042","id":"1826514766"},{"city":"Hoyland Nether","city_ascii":"Hoyland Nether","lat":"53.4985","lng":"-1.4406","country":"United Kingdom","iso2":"GB","iso3":"GBR","admin_name":"Barnsley","capital":"","population":"11852","id":"1826976360"},{"city":"Halawa","city_ascii":"Halawa","lat":"21.3753","lng":"-157.9185","country":"United States","iso2":"US","iso3":"USA","admin_name":"Hawaii","capital":"","population":"14640","id":"1840029579"},{"city":"Haddon","city_ascii":"Haddon","lat":"39.9063","lng":"-75.0625","country":"United States","iso2":"US","iso3":"USA","admin_name":"New Jersey","capital":"","population":"14521","id":"1840081686"},{"city":"Hambantota","city_ascii":"Hambantota","lat":"6.1241","lng":"81.1185","country":"Sri Lanka","iso2":"LK","iso3":"LKA","admin_name":"Southern","capital":"","population":"11213","id":"1144358863"},{"city":"Haydock","city_ascii":"Haydock","lat":"53.4678","lng":"-2.6609","country":"United Kingdom","iso2":"GB","iso3":"GBR","admin_name":"St. Helens","capital":"","population":"11416","id":"1826418141"},{"city":"Halstead","city_ascii":"Halstead","lat":"51.9451","lng":"0.6411","country":"United Kingdom","iso2":"GB","iso3":"GBR","admin_name":"Essex","capital":"","population":"11906","id":"1826328876"},{"city":"Hawaiian Gardens","city_ascii":"Hawaiian Gardens","lat":"33.8303","lng":"-118.0728","country":"United States","iso2":"US","iso3":"USA","admin_name":"California","capital":"","population":"14159","id":"1840020485"},{"city":"Hatch End","city_ascii":"Hatch End","lat":"51.6010","lng":"-0.3743","country":"United Kingdom","iso2":"GB","iso3":"GBR","admin_name":"Harrow","capital":"","population":"10693","id":"1826801668"},{"city":"Helston","city_ascii":"Helston","lat":"50.1000","lng":"-5.2700","country":"United Kingdom","iso2":"GB","iso3":"GBR","admin_name":"Cornwall","capital":"","population":"11178","id":"1826301318"},{"city":"Harper Woods","city_ascii":"Harper Woods","lat":"42.4390","lng":"-82.9292","country":"United States","iso2":"US","iso3":"USA","admin_name":"Michigan","capital":"","population":"13746","id":"1840003981"},{"city":"Highland Park","city_ascii":"Highland Park","lat":"40.5006","lng":"-74.4283","country":"United States","iso2":"US","iso3":"USA","admin_name":"New Jersey","capital":"","population":"13711","id":"1840003636"},{"city":"Henley on Thames","city_ascii":"Henley on Thames","lat":"51.5360","lng":"-0.8980","country":"United Kingdom","iso2":"GB","iso3":"GBR","admin_name":"Oxfordshire","capital":"","population":"11619","id":"1826580742"},{"city":"Hirnyk","city_ascii":"Hirnyk","lat":"48.0500","lng":"37.3667","country":"Ukraine","iso2":"UA","iso3":"UKR","admin_name":"Donets’ka Oblast’","capital":"","population":"11378","id":"1804281966"},{"city":"Horsell","city_ascii":"Horsell","lat":"51.3286","lng":"-0.5617","country":"United Kingdom","iso2":"GB","iso3":"GBR","admin_name":"Surrey","capital":"","population":"9384","id":"1826085922"},{"city":"Huntington","city_ascii":"Huntington","lat":"38.7916","lng":"-77.0740","country":"United States","iso2":"US","iso3":"USA","admin_name":"Virginia","capital":"","population":"13135","id":"1840006030"},{"city":"Handsworth","city_ascii":"Handsworth","lat":"53.3700","lng":"-1.4000","country":"United Kingdom","iso2":"GB","iso3":"GBR","admin_name":"Sheffield","capital":"","population":"9957","id":"1826233814"},{"city":"Hellesdon","city_ascii":"Hellesdon","lat":"52.6485","lng":"1.2509","country":"United Kingdom","iso2":"GB","iso3":"GBR","admin_name":"Norfolk","capital":"","population":"10957","id":"1826464470"},{"city":"Hînceşti","city_ascii":"Hincesti","lat":"46.8258","lng":"28.5936","country":"Moldova","iso2":"MD","iso3":"MDA","admin_name":"Hînceşti","capital":"admin","population":"12491","id":"1498402212"},{"city":"Heybridge","city_ascii":"Heybridge","lat":"51.7417","lng":"0.6897","country":"United Kingdom","iso2":"GB","iso3":"GBR","admin_name":"Essex","capital":"","population":"8175","id":"1826355161"},{"city":"Hasbrouck Heights","city_ascii":"Hasbrouck Heights","lat":"40.8618","lng":"-74.0741","country":"United States","iso2":"US","iso3":"USA","admin_name":"New Jersey","capital":"","population":"11992","id":"1840003558"},{"city":"Higuera de Zaragoza","city_ascii":"Higuera de Zaragoza","lat":"25.9500","lng":"-109.2833","country":"Mexico","iso2":"MX","iso3":"MEX","admin_name":"Sinaloa","capital":"","population":"8976","id":"1484471294"},{"city":"Home Gardens","city_ascii":"Home Gardens","lat":"33.8784","lng":"-117.5116","country":"United States","iso2":"US","iso3":"USA","admin_name":"California","capital":"","population":"11442","id":"1840017987"},{"city":"Halachó","city_ascii":"Halacho","lat":"20.4764","lng":"-90.0819","country":"Mexico","iso2":"MX","iso3":"MEX","admin_name":"Yucatán","capital":"minor","population":"9412","id":"1484161200"},{"city":"Harworth","city_ascii":"Harworth","lat":"53.4170","lng":"-1.0750","country":"United Kingdom","iso2":"GB","iso3":"GBR","admin_name":"Nottinghamshire","capital":"","population":"7948","id":"1826992188"},{"city":"Haapsalu","city_ascii":"Haapsalu","lat":"58.9469","lng":"23.5369","country":"Estonia","iso2":"EE","iso3":"EST","admin_name":"Läänemaa","capital":"admin","population":"9675","id":"1233967642"},{"city":"Hucknall under Huthwaite","city_ascii":"Hucknall under Huthwaite","lat":"53.1250","lng":"-1.3010","country":"United Kingdom","iso2":"GB","iso3":"GBR","admin_name":"Nottinghamshire","capital":"","population":"7500","id":"1826158793"},{"city":"Hopelchén","city_ascii":"Hopelchen","lat":"19.7444","lng":"-89.8453","country":"Mexico","iso2":"MX","iso3":"MEX","admin_name":"Campeche","capital":"minor","population":"7295","id":"1484431471"},{"city":"Huningue","city_ascii":"Huningue","lat":"47.5914","lng":"7.5831","country":"France","iso2":"FR","iso3":"FRA","admin_name":"Grand Est","capital":"","population":"7238","id":"1250393244"},{"city":"Highbridge","city_ascii":"Highbridge","lat":"51.2189","lng":"-2.9730","country":"United Kingdom","iso2":"GB","iso3":"GBR","admin_name":"Somerset","capital":"","population":"5986","id":"1826801598"},{"city":"Hani i Elezit","city_ascii":"Hani i Elezit","lat":"42.1475","lng":"21.2992","country":"Kosovo","iso2":"XK","iso3":"XKS","admin_name":"Hani i Elezit","capital":"admin","population":"9403","id":"1901964789"},{"city":"Harlescott","city_ascii":"Harlescott","lat":"52.7365","lng":"-2.7226","country":"United Kingdom","iso2":"GB","iso3":"GBR","admin_name":"Shropshire","capital":"","population":"5060","id":"1826238045"},{"city":"Heage","city_ascii":"Heage","lat":"53.0500","lng":"-1.4470","country":"United Kingdom","iso2":"GB","iso3":"GBR","admin_name":"Derbyshire","capital":"","population":"5013","id":"1826178379"},{"city":"Handforth","city_ascii":"Handforth","lat":"53.3500","lng":"-2.2160","country":"United Kingdom","iso2":"GB","iso3":"GBR","admin_name":"Cheshire East","capital":"","population":"6266","id":"1826308689"},{"city":"Harleston","city_ascii":"Harleston","lat":"52.4024","lng":"1.2996","country":"United Kingdom","iso2":"GB","iso3":"GBR","admin_name":"Norfolk","capital":"","population":"5067","id":"1826624574"},{"city":"Hoylake","city_ascii":"Hoylake","lat":"53.3900","lng":"-3.1800","country":"United Kingdom","iso2":"GB","iso3":"GBR","admin_name":"Wirral","capital":"","population":"5710","id":"1826110529"},{"city":"Harwood Heights","city_ascii":"Harwood Heights","lat":"41.9663","lng":"-87.8057","country":"United States","iso2":"US","iso3":"USA","admin_name":"Illinois","capital":"","population":"8333","id":"1840011252"},{"city":"Haledon","city_ascii":"Haledon","lat":"40.9363","lng":"-74.1887","country":"United States","iso2":"US","iso3":"USA","admin_name":"New Jersey","capital":"","population":"8293","id":"1840003512"},{"city":"Hengoed","city_ascii":"Hengoed","lat":"51.6500","lng":"-3.2300","country":"United Kingdom","iso2":"GB","iso3":"GBR","admin_name":"Caerphilly","capital":"","population":"5548","id":"1826000038"},{"city":"Holtville","city_ascii":"Holtville","lat":"32.8130","lng":"-115.3780","country":"United States","iso2":"US","iso3":"USA","admin_name":"California","capital":"","population":"7664","id":"1840020631"},{"city":"Hatboro","city_ascii":"Hatboro","lat":"40.1775","lng":"-75.1054","country":"United States","iso2":"US","iso3":"USA","admin_name":"Pennsylvania","capital":"","population":"7501","id":"1840003700"},{"city":"Hillcrest","city_ascii":"Hillcrest","lat":"41.1298","lng":"-74.0350","country":"United States","iso2":"US","iso3":"USA","admin_name":"New York","capital":"","population":"7418","id":"1840004967"},{"city":"Hola","city_ascii":"Hola","lat":"-1.5000","lng":"40.0300","country":"Kenya","iso2":"KE","iso3":"KEN","admin_name":"Tana River","capital":"admin","population":"6931","id":"1404396632"},{"city":"Hampstead","city_ascii":"Hampstead","lat":"45.4833","lng":"-73.6333","country":"Canada","iso2":"CA","iso3":"CAN","admin_name":"Quebec","capital":"","population":"7153","id":"1124000763"},{"city":"Hewlett","city_ascii":"Hewlett","lat":"40.6422","lng":"-73.6942","country":"United States","iso2":"US","iso3":"USA","admin_name":"New York","capital":"","population":"6484","id":"1840005265"},{"city":"Hrastnik","city_ascii":"Hrastnik","lat":"46.1461","lng":"15.0814","country":"Slovenia","iso2":"SI","iso3":"SVN","admin_name":"Hrastnik","capital":"admin","population":"4995","id":"1705818009"},{"city":"Highwood","city_ascii":"Highwood","lat":"42.2060","lng":"-87.8128","country":"United States","iso2":"US","iso3":"USA","admin_name":"Illinois","capital":"","population":"5224","id":"1840006974"},{"city":"Hưng Yên","city_ascii":"Hung Yen","lat":"20.6464","lng":"106.0511","country":"Vietnam","iso2":"VN","iso3":"VNM","admin_name":"Hưng Yên","capital":"admin","population":"","id":"1704000203"},{"city":"Hartford","city_ascii":"Hartford","lat":"43.6210","lng":"-96.9424","country":"United States","iso2":"US","iso3":"USA","admin_name":"South Dakota","capital":"admin","population":"3354","id":"1840002653"},{"city":"Hoima","city_ascii":"Hoima","lat":"1.4356","lng":"31.3436","country":"Uganda","iso2":"UG","iso3":"UGA","admin_name":"Hoima","capital":"admin","population":"","id":"1800806239"},{"city":"Hithadhoo","city_ascii":"Hithadhoo","lat":"-0.6000","lng":"73.0833","country":"Maldives","iso2":"MV","iso3":"MDV","admin_name":"Addu Atholhu","capital":"admin","population":"","id":"1462406280"},{"city":"Halba","city_ascii":"Halba","lat":"34.5428","lng":"36.0797","country":"Lebanon","iso2":"LB","iso3":"LBN","admin_name":"Aakkâr","capital":"admin","population":"","id":"1422962727"},{"city":"Hunedoara","city_ascii":"Hunedoara","lat":"45.7500","lng":"22.9000","country":"Romania","iso2":"RO","iso3":"ROU","admin_name":"Hunedoara","capital":"admin","population":"","id":"1642078107"},{"city":"Horjul","city_ascii":"Horjul","lat":"46.0236","lng":"14.2992","country":"Slovenia","iso2":"SI","iso3":"SVN","admin_name":"Horjul","capital":"admin","population":"","id":"1705243858"},{"city":"Heydərabad","city_ascii":"Heydarabad","lat":"39.7229","lng":"44.8485","country":"Azerbaijan","iso2":"AZ","iso3":"AZE","admin_name":"Sədərək","capital":"admin","population":"","id":"1031540160"},{"city":"Hongseong","city_ascii":"Hongseong","lat":"36.6009","lng":"126.6650","country":"Korea, South","iso2":"KR","iso3":"KOR","admin_name":"Chungnam","capital":"admin","population":"","id":"1410822139"},{"city":"Hrazdan","city_ascii":"Hrazdan","lat":"40.5000","lng":"44.7667","country":"Armenia","iso2":"AM","iso3":"ARM","admin_name":"Kotayk’","capital":"admin","population":"","id":"1051566733"},{"city":"Haa","city_ascii":"Haa","lat":"27.3685","lng":"89.2918","country":"Bhutan","iso2":"BT","iso3":"BTN","admin_name":"Haa","capital":"admin","population":"","id":"1064717667"},{"city":"Hargeysa","city_ascii":"Hargeysa","lat":"9.5600","lng":"44.0650","country":"Somalia","iso2":"SO","iso3":"SOM","admin_name":"Woqooyi Galbeed","capital":"admin","population":"","id":"1706832021"},{"city":"Hrib-Loški Potok","city_ascii":"Hrib-Loski Potok","lat":"45.7011","lng":"14.5911","country":"Slovenia","iso2":"SI","iso3":"SVN","admin_name":"Loški Potok","capital":"admin","population":"","id":"1705118688"},{"city":"Hvannasund","city_ascii":"Hvannasund","lat":"62.2962","lng":"-6.5204","country":"Faroe Islands","iso2":"FO","iso3":"FRO","admin_name":"","capital":"admin","population":"","id":"1234436400"},{"city":"Hvalba","city_ascii":"Hvalba","lat":"61.6024","lng":"-6.9606","country":"Faroe Islands","iso2":"FO","iso3":"FRO","admin_name":"","capital":"admin","population":"","id":"1234381324"},{"city":"Hodoš","city_ascii":"Hodos","lat":"46.8233","lng":"16.3342","country":"Slovenia","iso2":"SI","iso3":"SVN","admin_name":"Hodoš","capital":"admin","population":"","id":"1705217643"},{"city":"Hov","city_ascii":"Hov","lat":"61.5068","lng":"-6.7599","country":"Faroe Islands","iso2":"FO","iso3":"FRO","admin_name":"","capital":"admin","population":"","id":"1234279154"},{"city":"Húsavík","city_ascii":"Husavik","lat":"61.8099","lng":"-6.6813","country":"Faroe Islands","iso2":"FO","iso3":"FRO","admin_name":"","capital":"admin","population":"","id":"1234224518"},{"city":"Haymā’","city_ascii":"Hayma'","lat":"19.9333","lng":"56.3167","country":"Oman","iso2":"OM","iso3":"OMN","admin_name":"Al Wusţá","capital":"admin","population":"","id":"1512927824"},{"city":"Hasilpur","city_ascii":"Hasilpur","lat":"29.6967","lng":"72.5542","country":"Pakistan","iso2":"PK","iso3":"PAK","admin_name":"Punjab","capital":"","population":"99171","id":"1586677874"},{"city":"Hanau","city_ascii":"Hanau","lat":"50.1328","lng":"8.9169","country":"Germany","iso2":"DE","iso3":"DEU","admin_name":"Hesse","capital":"minor","population":"96023","id":"1276550409"},{"city":"Hesperia","city_ascii":"Hesperia","lat":"34.3975","lng":"-117.3147","country":"United States","iso2":"US","iso3":"USA","admin_name":"California","capital":"","population":"95750","id":"1840020404"},{"city":"Hanamaki Onsen","city_ascii":"Hanamaki Onsen","lat":"39.3886","lng":"141.1167","country":"Japan","iso2":"JP","iso3":"JPN","admin_name":"Iwate","capital":"","population":"94007","id":"1392087821"},{"city":"Hanford","city_ascii":"Hanford","lat":"36.3274","lng":"-119.6549","country":"United States","iso2":"US","iso3":"USA","admin_name":"California","capital":"","population":"94028","id":"1840020382"},{"city":"Higashi-Matsuyama","city_ascii":"Higashi-Matsuyama","lat":"36.0422","lng":"139.4000","country":"Japan","iso2":"JP","iso3":"JPN","admin_name":"Saitama","capital":"","population":"92302","id":"1392365792"},{"city":"H̱adera","city_ascii":"Hadera","lat":"32.4500","lng":"34.9167","country":"Israel","iso2":"IL","iso3":"ISR","admin_name":"Haifa","capital":"","population":"91707","id":"1376761209"},{"city":"Hastings","city_ascii":"Hastings","lat":"50.8500","lng":"0.5700","country":"United Kingdom","iso2":"GB","iso3":"GBR","admin_name":"East Sussex","capital":"","population":"92855","id":"1826499763"},{"city":"Hezuo","city_ascii":"Hezuo","lat":"34.9984","lng":"102.9100","country":"China","iso2":"CN","iso3":"CHN","admin_name":"Gansu","capital":"minor","population":"90290","id":"1156739933"},{"city":"Hosa’ina","city_ascii":"Hosa'ina","lat":"7.5504","lng":"37.8500","country":"Ethiopia","iso2":"ET","iso3":"ETH","admin_name":"YeDebub Bihēroch Bihēreseboch na Hizboch","capital":"","population":"89300","id":"1231400775"},{"city":"Halifax","city_ascii":"Halifax","lat":"53.7250","lng":"-1.8630","country":"United Kingdom","iso2":"GB","iso3":"GBR","admin_name":"Calderdale","capital":"","population":"88134","id":"1826413776"},{"city":"Hamilton","city_ascii":"Hamilton","lat":"40.2046","lng":"-74.6765","country":"United States","iso2":"US","iso3":"USA","admin_name":"New Jersey","capital":"","population":"87799","id":"1840056346"},{"city":"Hoover","city_ascii":"Hoover","lat":"33.3754","lng":"-86.8064","country":"United States","iso2":"US","iso3":"USA","admin_name":"Alabama","capital":"","population":"85768","id":"1840014795"},{"city":"Hannō","city_ascii":"Hanno","lat":"35.8558","lng":"139.3278","country":"Japan","iso2":"JP","iso3":"JPN","admin_name":"Saitama","capital":"","population":"79891","id":"1392681016"},{"city":"Hattiesburg","city_ascii":"Hattiesburg","lat":"31.3074","lng":"-89.3170","country":"United States","iso2":"US","iso3":"USA","admin_name":"Mississippi","capital":"","population":"80138","id":"1840013878"},{"city":"Huaral","city_ascii":"Huaral","lat":"-11.5000","lng":"-77.2167","country":"Peru","iso2":"PE","iso3":"PER","admin_name":"Lima","capital":"","population":"79011","id":"1604962520"},{"city":"Honjō","city_ascii":"Honjo","lat":"36.2439","lng":"139.1903","country":"Japan","iso2":"JP","iso3":"JPN","admin_name":"Saitama","capital":"","population":"77045","id":"1392850139"},{"city":"Harunabad","city_ascii":"Harunabad","lat":"29.6100","lng":"73.1361","country":"Pakistan","iso2":"PK","iso3":"PAK","admin_name":"Punjab","capital":"","population":"77206","id":"1586810051"},{"city":"Hammond","city_ascii":"Hammond","lat":"41.6169","lng":"-87.4910","country":"United States","iso2":"US","iso3":"USA","admin_name":"Indiana","capital":"","population":"75522","id":"1840007092"},{"city":"Hilton Head Island","city_ascii":"Hilton Head Island","lat":"32.1896","lng":"-80.7499","country":"United States","iso2":"US","iso3":"USA","admin_name":"South Carolina","capital":"","population":"74139","id":"1840016974"},{"city":"Hammond","city_ascii":"Hammond","lat":"30.5061","lng":"-90.4563","country":"United States","iso2":"US","iso3":"USA","admin_name":"Louisiana","capital":"","population":"72413","id":"1840013908"},{"city":"Harrisonburg","city_ascii":"Harrisonburg","lat":"38.4361","lng":"-78.8735","country":"United States","iso2":"US","iso3":"USA","admin_name":"Virginia","capital":"","population":"72386","id":"1840003844"},{"city":"Hujra Shah Muqim","city_ascii":"Hujra Shah Muqim","lat":"30.7333","lng":"73.8167","country":"Pakistan","iso2":"PK","iso3":"PAK","admin_name":"Punjab","capital":"","population":"70204","id":"1586402344"},{"city":"Hasselt","city_ascii":"Hasselt","lat":"50.9304","lng":"5.3383","country":"Belgium","iso2":"BE","iso3":"BEL","admin_name":"Flanders","capital":"minor","population":"69222","id":"1056617022"},{"city":"Homestead","city_ascii":"Homestead","lat":"25.4665","lng":"-80.4472","country":"United States","iso2":"US","iso3":"USA","admin_name":"Florida","capital":"","population":"69523","id":"1840015159"},{"city":"Hihyā","city_ascii":"Hihya","lat":"30.6687","lng":"31.5904","country":"Egypt","iso2":"EG","iso3":"EGY","admin_name":"Ash Sharqīyah","capital":"","population":"66702","id":"1818905246"},{"city":"Hanover","city_ascii":"Hanover","lat":"39.8117","lng":"-76.9835","country":"United States","iso2":"US","iso3":"USA","admin_name":"Pennsylvania","capital":"","population":"68165","id":"1840001450"},{"city":"Hashima","city_ascii":"Hashima","lat":"35.3167","lng":"136.7000","country":"Japan","iso2":"JP","iso3":"JPN","admin_name":"Gifu","capital":"","population":"66573","id":"1392769362"},{"city":"Herford","city_ascii":"Herford","lat":"52.1146","lng":"8.6734","country":"Germany","iso2":"DE","iso3":"DEU","admin_name":"North Rhine-Westphalia","capital":"minor","population":"66608","id":"1276588147"},{"city":"Huinan","city_ascii":"Huinan","lat":"42.6229","lng":"126.2614","country":"China","iso2":"CN","iso3":"CHN","admin_name":"Jilin","capital":"","population":"66315","id":"1156136342"},{"city":"Hornchurch","city_ascii":"Hornchurch","lat":"51.5565","lng":"0.2128","country":"United Kingdom","iso2":"GB","iso3":"GBR","admin_name":"Havering","capital":"","population":"63583","id":"1826813082"},{"city":"Haverhill","city_ascii":"Haverhill","lat":"42.7838","lng":"-71.0871","country":"United States","iso2":"US","iso3":"USA","admin_name":"Massachusetts","capital":"","population":"64014","id":"1840002450"},{"city":"Herten","city_ascii":"Herten","lat":"51.6000","lng":"7.1333","country":"Germany","iso2":"DE","iso3":"DEU","admin_name":"North Rhine-Westphalia","capital":"","population":"61791","id":"1276440470"},{"city":"Hamilton","city_ascii":"Hamilton","lat":"39.3938","lng":"-84.5653","country":"United States","iso2":"US","iso3":"USA","admin_name":"Ohio","capital":"","population":"62082","id":"1840003803"},{"city":"Heroica Caborca","city_ascii":"Heroica Caborca","lat":"30.7167","lng":"-112.1500","country":"Mexico","iso2":"MX","iso3":"MEX","admin_name":"Sonora","capital":"minor","population":"59922","id":"1484993432"},{"city":"Hürth","city_ascii":"Hurth","lat":"50.8775","lng":"6.8761","country":"Germany","iso2":"DE","iso3":"DEU","admin_name":"North Rhine-Westphalia","capital":"","population":"60189","id":"1276025332"},{"city":"Hashimoto","city_ascii":"Hashimoto","lat":"34.3167","lng":"135.6000","country":"Japan","iso2":"JP","iso3":"JPN","admin_name":"Wakayama","capital":"","population":"60885","id":"1392655829"},{"city":"Hamden","city_ascii":"Hamden","lat":"41.3961","lng":"-72.9215","country":"United States","iso2":"US","iso3":"USA","admin_name":"Connecticut","capital":"","population":"61206","id":"1840034823"},{"city":"Halton Hills","city_ascii":"Halton Hills","lat":"43.6300","lng":"-79.9500","country":"Canada","iso2":"CA","iso3":"CAN","admin_name":"Ontario","capital":"","population":"61161","id":"1124000788"},{"city":"Hot Springs","city_ascii":"Hot Springs","lat":"34.4892","lng":"-93.0501","country":"United States","iso2":"US","iso3":"USA","admin_name":"Arkansas","capital":"","population":"60767","id":"1840014670"},{"city":"Huehuetoca","city_ascii":"Huehuetoca","lat":"19.8342","lng":"-99.2033","country":"Mexico","iso2":"MX","iso3":"MEX","admin_name":"México","capital":"minor","population":"59721","id":"1484000089"},{"city":"Hua Hin","city_ascii":"Hua Hin","lat":"12.5686","lng":"99.9578","country":"Thailand","iso2":"TH","iso3":"THA","admin_name":"Prachuap Khiri Khan","capital":"minor","population":"59369","id":"1764352388"},{"city":"Hendersonville","city_ascii":"Hendersonville","lat":"36.3063","lng":"-86.5998","country":"United States","iso2":"US","iso3":"USA","admin_name":"Tennessee","capital":"","population":"58113","id":"1840014419"},{"city":"Hamburg","city_ascii":"Hamburg","lat":"42.7394","lng":"-78.8581","country":"United States","iso2":"US","iso3":"USA","admin_name":"New York","capital":"","population":"58105","id":"1840004385"},{"city":"Huntersville","city_ascii":"Huntersville","lat":"35.4058","lng":"-80.8727","country":"United States","iso2":"US","iso3":"USA","admin_name":"North Carolina","capital":"","population":"58098","id":"1840016349"},{"city":"Hameln","city_ascii":"Hameln","lat":"52.1031","lng":"9.3600","country":"Germany","iso2":"DE","iso3":"DEU","admin_name":"Lower Saxony","capital":"minor","population":"57510","id":"1276101153"},{"city":"Hassa","city_ascii":"Hassa","lat":"36.8000","lng":"36.5300","country":"Turkey","iso2":"TR","iso3":"TUR","admin_name":"Hatay","capital":"minor","population":"56409","id":"1792468657"},{"city":"Hohoe","city_ascii":"Hohoe","lat":"7.1490","lng":"0.4746","country":"Ghana","iso2":"GH","iso3":"GHA","admin_name":"Volta","capital":"","population":"56202","id":"1288897773"},{"city":"Hidaka","city_ascii":"Hidaka","lat":"35.9078","lng":"139.3392","country":"Japan","iso2":"JP","iso3":"JPN","admin_name":"Saitama","capital":"","population":"55241","id":"1392984149"},{"city":"Hyères","city_ascii":"Hyeres","lat":"43.1199","lng":"6.1316","country":"France","iso2":"FR","iso3":"FRA","admin_name":"Provence-Alpes-Côte d’Azur","capital":"","population":"55588","id":"1250566198"},{"city":"Hazleton","city_ascii":"Hazleton","lat":"40.9504","lng":"-75.9724","country":"United States","iso2":"US","iso3":"USA","admin_name":"Pennsylvania","capital":"","population":"55604","id":"1840000753"},{"city":"Highland","city_ascii":"Highland","lat":"34.1113","lng":"-117.1654","country":"United States","iso2":"US","iso3":"USA","admin_name":"California","capital":"","population":"55417","id":"1840020405"},{"city":"Hattingen","city_ascii":"Hattingen","lat":"51.3992","lng":"7.1858","country":"Germany","iso2":"DE","iso3":"DEU","admin_name":"North Rhine-Westphalia","capital":"","population":"54562","id":"1276698647"},{"city":"Hervey Bay","city_ascii":"Hervey Bay","lat":"-25.2853","lng":"152.8728","country":"Australia","iso2":"AU","iso3":"AUS","admin_name":"Queensland","capital":"","population":"54674","id":"1036833938"},{"city":"Hacienda Heights","city_ascii":"Hacienda Heights","lat":"33.9970","lng":"-117.9728","country":"United States","iso2":"US","iso3":"USA","admin_name":"California","capital":"","population":"54970","id":"1840017921"},{"city":"Hanyū","city_ascii":"Hanyu","lat":"36.1728","lng":"139.5486","country":"Japan","iso2":"JP","iso3":"JPN","admin_name":"Saitama","capital":"","population":"53870","id":"1392690560"},{"city":"Hashtpar","city_ascii":"Hashtpar","lat":"37.7992","lng":"48.9053","country":"Iran","iso2":"IR","iso3":"IRN","admin_name":"Gīlān","capital":"minor","population":"54178","id":"1364496739"},{"city":"Hamilton","city_ascii":"Hamilton","lat":"32.2942","lng":"-64.7839","country":"Bermuda","iso2":"BM","iso3":"BMU","admin_name":"Hamilton","capital":"","population":"52320","id":"1060000000"},{"city":"Horishni Plavni","city_ascii":"Horishni Plavni","lat":"49.0107","lng":"33.6562","country":"Ukraine","iso2":"UA","iso3":"UKR","admin_name":"Poltavs’ka Oblast’","capital":"","population":"52167","id":"1804671151"},{"city":"Howell","city_ascii":"Howell","lat":"40.1819","lng":"-74.1977","country":"United States","iso2":"US","iso3":"USA","admin_name":"New Jersey","capital":"","population":"51958","id":"1840081644"},{"city":"Herriman","city_ascii":"Herriman","lat":"40.4899","lng":"-112.0171","country":"United States","iso2":"US","iso3":"USA","admin_name":"Utah","capital":"","population":"51348","id":"1840020155"},{"city":"Hinesville","city_ascii":"Hinesville","lat":"31.8247","lng":"-81.6135","country":"United States","iso2":"US","iso3":"USA","admin_name":"Georgia","capital":"","population":"51206","id":"1840014931"},{"city":"Hassan Abdal","city_ascii":"Hassan Abdal","lat":"33.8195","lng":"72.6890","country":"Pakistan","iso2":"PK","iso3":"PAK","admin_name":"Punjab","capital":"","population":"50044","id":"1586993764"},{"city":"Horsham","city_ascii":"Horsham","lat":"51.0620","lng":"-0.3250","country":"United Kingdom","iso2":"GB","iso3":"GBR","admin_name":"West Sussex","capital":"","population":"50934","id":"1826018789"},{"city":"Hoffman Estates","city_ascii":"Hoffman Estates","lat":"42.0639","lng":"-88.1468","country":"United States","iso2":"US","iso3":"USA","admin_name":"Illinois","capital":"","population":"50932","id":"1840011263"},{"city":"Hikari","city_ascii":"Hikari","lat":"33.9617","lng":"131.9422","country":"Japan","iso2":"JP","iso3":"JPN","admin_name":"Yamaguchi","capital":"","population":"49686","id":"1392832835"},{"city":"Heidenheim","city_ascii":"Heidenheim","lat":"48.6761","lng":"10.1544","country":"Germany","iso2":"DE","iso3":"DEU","admin_name":"Baden-Württemberg","capital":"minor","population":"49526","id":"1276168895"},{"city":"Haverford","city_ascii":"Haverford","lat":"39.9868","lng":"-75.3164","country":"United States","iso2":"US","iso3":"USA","admin_name":"Pennsylvania","capital":"","population":"49162","id":"1840152844"},{"city":"Huaquillas","city_ascii":"Huaquillas","lat":"-3.4803","lng":"-80.2317","country":"Ecuador","iso2":"EC","iso3":"ECU","admin_name":"El Oro","capital":"","population":"47706","id":"1218443042"},{"city":"Hitachi-ota","city_ascii":"Hitachi-ota","lat":"36.5383","lng":"140.5311","country":"Japan","iso2":"JP","iso3":"JPN","admin_name":"Ibaraki","capital":"","population":"48758","id":"1392794380"},{"city":"Higashine","city_ascii":"Higashine","lat":"38.4314","lng":"140.3911","country":"Japan","iso2":"JP","iso3":"JPN","admin_name":"Yamagata","capital":"","population":"47920","id":"1392717466"},{"city":"Herzogenrath","city_ascii":"Herzogenrath","lat":"50.8667","lng":"6.1000","country":"Germany","iso2":"DE","iso3":"DEU","admin_name":"North Rhine-Westphalia","capital":"","population":"46402","id":"1276873875"},{"city":"Huatan","city_ascii":"Huatan","lat":"24.0316","lng":"120.5580","country":"Taiwan","iso2":"TW","iso3":"TWN","admin_name":"Changhua","capital":"","population":"45907","id":"1158596327"},{"city":"Hof","city_ascii":"Hof","lat":"50.3167","lng":"11.9167","country":"Germany","iso2":"DE","iso3":"DEU","admin_name":"Bavaria","capital":"minor","population":"45930","id":"1276561363"},{"city":"Hokota","city_ascii":"Hokota","lat":"36.1586","lng":"140.5164","country":"Japan","iso2":"JP","iso3":"JPN","admin_name":"Ibaraki","capital":"","population":"46415","id":"1392374973"},{"city":"Hyvinkää","city_ascii":"Hyvinkaa","lat":"60.6306","lng":"24.8597","country":"Finland","iso2":"FI","iso3":"FIN","admin_name":"Uusimaa","capital":"minor","population":"46463","id":"1246789945"},{"city":"Hilo","city_ascii":"Hilo","lat":"19.6886","lng":"-155.0864","country":"United States","iso2":"US","iso3":"USA","admin_name":"Hawaii","capital":"","population":"46284","id":"1840023193"},{"city":"Hokuto","city_ascii":"Hokuto","lat":"41.8242","lng":"140.6531","country":"Japan","iso2":"JP","iso3":"JPN","admin_name":"Hokkaidō","capital":"","population":"46054","id":"1392000277"},{"city":"Haymana","city_ascii":"Haymana","lat":"39.4311","lng":"32.4956","country":"Turkey","iso2":"TR","iso3":"TUR","admin_name":"Ankara","capital":"minor","population":"45931","id":"1792299517"},{"city":"Hagi","city_ascii":"Hagi","lat":"34.4078","lng":"131.3989","country":"Japan","iso2":"JP","iso3":"JPN","admin_name":"Yamaguchi","capital":"","population":"45435","id":"1392685567"},{"city":"Haugesund","city_ascii":"Haugesund","lat":"59.4164","lng":"5.2700","country":"Norway","iso2":"NO","iso3":"NOR","admin_name":"Rogaland","capital":"minor","population":"45040","id":"1578805813"},{"city":"Himi","city_ascii":"Himi","lat":"36.8500","lng":"136.9833","country":"Japan","iso2":"JP","iso3":"JPN","admin_name":"Toyama","capital":"","population":"44874","id":"1392258347"},{"city":"Haltom City","city_ascii":"Haltom City","lat":"32.8176","lng":"-97.2707","country":"United States","iso2":"US","iso3":"USA","admin_name":"Texas","capital":"","population":"43874","id":"1840020698"},{"city":"Henrietta","city_ascii":"Henrietta","lat":"43.0555","lng":"-77.6413","country":"United States","iso2":"US","iso3":"USA","admin_name":"New York","capital":"","population":"43327","id":"1840058179"},{"city":"Hwange","city_ascii":"Hwange","lat":"-18.3647","lng":"26.5000","country":"Zimbabwe","iso2":"ZW","iso3":"ZWE","admin_name":"Matabeleland North","capital":"","population":"42581","id":"1716416748"},{"city":"Hutchinson","city_ascii":"Hutchinson","lat":"38.0671","lng":"-97.9081","country":"United States","iso2":"US","iso3":"USA","admin_name":"Kansas","capital":"","population":"42531","id":"1840001673"},{"city":"Heinsberg","city_ascii":"Heinsberg","lat":"51.0631","lng":"6.0964","country":"Germany","iso2":"DE","iso3":"DEU","admin_name":"North Rhine-Westphalia","capital":"minor","population":"41946","id":"1276000099"},{"city":"Homburg","city_ascii":"Homburg","lat":"49.3167","lng":"7.3333","country":"Germany","iso2":"DE","iso3":"DEU","admin_name":"Saarland","capital":"minor","population":"41811","id":"1276520056"},{"city":"Hobbs","city_ascii":"Hobbs","lat":"32.7282","lng":"-103.1600","country":"United States","iso2":"US","iso3":"USA","admin_name":"New Mexico","capital":"","population":"42095","id":"1840020616"},{"city":"Hempfield","city_ascii":"Hempfield","lat":"40.2847","lng":"-79.5841","country":"United States","iso2":"US","iso3":"USA","admin_name":"Pennsylvania","capital":"","population":"41154","id":"1840151151"},{"city":"Hückelhoven","city_ascii":"Huckelhoven","lat":"51.0608","lng":"6.2197","country":"Germany","iso2":"DE","iso3":"DEU","admin_name":"North Rhine-Westphalia","capital":"","population":"39931","id":"1276391695"},{"city":"Huaura","city_ascii":"Huaura","lat":"-11.1000","lng":"-77.6000","country":"Peru","iso2":"PE","iso3":"PER","admin_name":"Lima","capital":"","population":"40400","id":"1604503366"},{"city":"Halberstadt","city_ascii":"Halberstadt","lat":"51.8958","lng":"11.0467","country":"Germany","iso2":"DE","iso3":"DEU","admin_name":"Saxony-Anhalt","capital":"minor","population":"40256","id":"1276900818"},{"city":"Huntsville","city_ascii":"Huntsville","lat":"30.7050","lng":"-95.5544","country":"United States","iso2":"US","iso3":"USA","admin_name":"Texas","capital":"","population":"40466","id":"1840019565"},{"city":"Hofheim","city_ascii":"Hofheim","lat":"50.0876","lng":"8.4447","country":"Germany","iso2":"DE","iso3":"DEU","admin_name":"Hesse","capital":"minor","population":"39766","id":"1276364825"},{"city":"Hangu","city_ascii":"Hangu","lat":"33.5281","lng":"71.0572","country":"Pakistan","iso2":"PK","iso3":"PAK","admin_name":"Khyber Pakhtunkhwa","capital":"minor","population":"39766","id":"1586769539"},{"city":"Holyoke","city_ascii":"Holyoke","lat":"42.2125","lng":"-72.6411","country":"United States","iso2":"US","iso3":"USA","admin_name":"Massachusetts","capital":"","population":"40117","id":"1840000465"},{"city":"Hitachiomiya","city_ascii":"Hitachiomiya","lat":"36.5517","lng":"140.4119","country":"Japan","iso2":"JP","iso3":"JPN","admin_name":"Ibaraki","capital":"","population":"39904","id":"1392000308"},{"city":"Halle","city_ascii":"Halle","lat":"50.7361","lng":"4.2372","country":"Belgium","iso2":"BE","iso3":"BEL","admin_name":"Flanders","capital":"","population":"39096","id":"1056061836"},{"city":"Higashimatsushima","city_ascii":"Higashimatsushima","lat":"38.4264","lng":"141.2106","country":"Japan","iso2":"JP","iso3":"JPN","admin_name":"Miyagi","capital":"","population":"39138","id":"1392705600"},{"city":"Hillsborough","city_ascii":"Hillsborough","lat":"40.4985","lng":"-74.6740","country":"United States","iso2":"US","iso3":"USA","admin_name":"New Jersey","capital":"","population":"39397","id":"1840081699"},{"city":"Hatfield","city_ascii":"Hatfield","lat":"51.7620","lng":"-0.2280","country":"United Kingdom","iso2":"GB","iso3":"GBR","admin_name":"Hertfordshire","capital":"","population":"39201","id":"1826844690"},{"city":"Hurst","city_ascii":"Hurst","lat":"32.8353","lng":"-97.1808","country":"United States","iso2":"US","iso3":"USA","admin_name":"Texas","capital":"","population":"38655","id":"1840019427"},{"city":"Hanumānnagar","city_ascii":"Hanumannagar","lat":"26.5394","lng":"86.7483","country":"Nepal","iso2":"NP","iso3":"NPL","admin_name":"Sagarmāthā","capital":"","population":"37738","id":"1524363655"},{"city":"Houghton le Spring","city_ascii":"Houghton le Spring","lat":"54.8410","lng":"-1.4680","country":"United Kingdom","iso2":"GB","iso3":"GBR","admin_name":"Sunderland","capital":"","population":"36746","id":"1826945189"},{"city":"Huber Heights","city_ascii":"Huber Heights","lat":"39.8595","lng":"-84.1130","country":"United States","iso2":"US","iso3":"USA","admin_name":"Ohio","capital":"","population":"38154","id":"1840003782"},{"city":"Holly Springs","city_ascii":"Holly Springs","lat":"35.6530","lng":"-78.8397","country":"United States","iso2":"US","iso3":"USA","admin_name":"North Carolina","capital":"","population":"37812","id":"1840016193"},{"city":"Holubivske","city_ascii":"Holubivske","lat":"48.6375","lng":"38.6433","country":"Ukraine","iso2":"UA","iso3":"UKR","admin_name":"Luhans’ka Oblast’","capital":"","population":"36388","id":"1804938302"},{"city":"Haverstraw","city_ascii":"Haverstraw","lat":"41.2055","lng":"-74.0384","country":"United States","iso2":"US","iso3":"USA","admin_name":"New York","capital":"","population":"37165","id":"1840004975"},{"city":"Hilliard","city_ascii":"Hilliard","lat":"40.0353","lng":"-83.1578","country":"United States","iso2":"US","iso3":"USA","admin_name":"Ohio","capital":"","population":"36534","id":"1840007265"},{"city":"Hato Mayor","city_ascii":"Hato Mayor","lat":"18.7640","lng":"-69.2570","country":"Dominican Republic","iso2":"DO","iso3":"DOM","admin_name":"Higuamo","capital":"minor","population":"35999","id":"1214232592"},{"city":"Honda","city_ascii":"Honda","lat":"5.1903","lng":"-74.7500","country":"Colombia","iso2":"CO","iso3":"COL","admin_name":"Tolima","capital":"minor","population":"35469","id":"1170848069"},{"city":"Haguenau","city_ascii":"Haguenau","lat":"48.8200","lng":"7.7900","country":"France","iso2":"FR","iso3":"FRA","admin_name":"Grand Est","capital":"minor","population":"34504","id":"1250576545"},{"city":"Hemer","city_ascii":"Hemer","lat":"51.3833","lng":"7.7667","country":"Germany","iso2":"DE","iso3":"DEU","admin_name":"North Rhine-Westphalia","capital":"","population":"34080","id":"1276327126"},{"city":"Hlukhiv","city_ascii":"Hlukhiv","lat":"51.6765","lng":"33.9078","country":"Ukraine","iso2":"UA","iso3":"UKR","admin_name":"Sums’ka Oblast’","capital":"minor","population":"33478","id":"1804181345"},{"city":"Horizon West","city_ascii":"Horizon West","lat":"28.4417","lng":"-81.6145","country":"United States","iso2":"US","iso3":"USA","admin_name":"Florida","capital":"","population":"32530","id":"1840038926"},{"city":"Hoyerswerda","city_ascii":"Hoyerswerda","lat":"51.4331","lng":"14.2500","country":"Germany","iso2":"DE","iso3":"DEU","admin_name":"Saxony","capital":"","population":"32123","id":"1276992982"},{"city":"Harker Heights","city_ascii":"Harker Heights","lat":"31.0572","lng":"-97.6445","country":"United States","iso2":"US","iso3":"USA","admin_name":"Texas","capital":"","population":"32421","id":"1840020851"},{"city":"Herrenberg","city_ascii":"Herrenberg","lat":"48.5967","lng":"8.8708","country":"Germany","iso2":"DE","iso3":"DEU","admin_name":"Baden-Württemberg","capital":"","population":"31545","id":"1276549799"},{"city":"Haan","city_ascii":"Haan","lat":"51.1931","lng":"7.0131","country":"Germany","iso2":"DE","iso3":"DEU","admin_name":"North Rhine-Westphalia","capital":"","population":"30484","id":"1276168837"},{"city":"Hopkinsville","city_ascii":"Hopkinsville","lat":"36.8386","lng":"-87.4776","country":"United States","iso2":"US","iso3":"USA","admin_name":"Kentucky","capital":"","population":"31569","id":"1840014399"},{"city":"Harpenden","city_ascii":"Harpenden","lat":"51.8175","lng":"-0.3524","country":"United Kingdom","iso2":"GB","iso3":"GBR","admin_name":"Hertfordshire","capital":"","population":"30240","id":"1826679950"},{"city":"Huamachuco","city_ascii":"Huamachuco","lat":"-7.8121","lng":"-78.0487","country":"Peru","iso2":"PE","iso3":"PER","admin_name":"La Libertad","capital":"","population":"30835","id":"1604864093"},