[{"city":"Paris","city_ascii":"Paris","lat":"48.8566","lng":"2.3522","country":"France","iso2":"FR","iso3":"FRA","admin_name":"Île-de-France","capital":"primary","population":"11020000","id":"1250015082"},{"city":"Pune","city_ascii":"Pune","lat":"18.5196","lng":"73.8553","country":"India","iso2":"IN","iso3":"IND","admin_name":"Mahārāshtra","capital":"","population":"7764000","id":"1356081074"},{"city":"Philadelphia","city_ascii":"Philadelphia","lat":"40.0077","lng":"-75.1339","country":"United States","iso2":"US","iso3":"USA","admin_name":"Pennsylvania","capital":"","population":"5649300","id":"1840000673"},{"city":"Pudong","city_ascii":"Pudong","lat":"31.2231","lng":"121.5397","country":"China","iso2":"CN","iso3":"CHN","admin_name":"Shanghai","capital":"minor","population":"5187200","id":"1156644508"},{"city":"Pingdingshan","city_ascii":"Pingdingshan","lat":"33.7350","lng":"113.2999","country":"China","iso2":"CN","iso3":"CHN","admin_name":"Henan","capital":"","population":"4838000","id":"1156735124"},{"city":"Phoenix","city_ascii":"Phoenix","lat":"33.5722","lng":"-112.0891","country":"United States","iso2":"US","iso3":"USA","admin_name":"Arizona","capital":"admin","population":"4219697","id":"1840020568"},{"city":"Puyang","city_ascii":"Puyang","lat":"35.7639","lng":"115.0300","country":"China","iso2":"CN","iso3":"CHN","admin_name":"Henan","capital":"minor","population":"3580000","id":"1156431924"},{"city":"Putian","city_ascii":"Putian","lat":"25.4394","lng":"119.0103","country":"China","iso2":"CN","iso3":"CHN","admin_name":"Fujian","capital":"minor","population":"2900000","id":"1156811601"},{"city":"Pyongyang","city_ascii":"Pyongyang","lat":"39.0300","lng":"125.7300","country":"Korea, North","iso2":"KP","iso3":"PRK","admin_name":"P’yŏngyang","capital":"primary","population":"2863000","id":"1408738594"},{"city":"Pingliang","city_ascii":"Pingliang","lat":"35.5412","lng":"106.6819","country":"China","iso2":"CN","iso3":"CHN","admin_name":"Gansu","capital":"minor","population":"2190000","id":"1156216904"},{"city":"Phnom Penh","city_ascii":"Phnom Penh","lat":"11.5696","lng":"104.9210","country":"Cambodia","iso2":"KH","iso3":"KHM","admin_name":"Phnom Penh","capital":"primary","population":"2129371","id":"1116260534"},{"city":"Portland","city_ascii":"Portland","lat":"45.5372","lng":"-122.6500","country":"United States","iso2":"US","iso3":"USA","admin_name":"Oregon","capital":"","population":"2074775","id":"1840019941"},{"city":"Perth","city_ascii":"Perth","lat":"-31.9522","lng":"115.8589","country":"Australia","iso2":"AU","iso3":"AUS","admin_name":"Western Australia","capital":"admin","population":"2059484","id":"1036178956"},{"city":"Puning","city_ascii":"Puning","lat":"23.2993","lng":"116.1586","country":"China","iso2":"CN","iso3":"CHN","admin_name":"Guangdong","capital":"","population":"2055552","id":"1156756494"},{"city":"Pingxiang","city_ascii":"Pingxiang","lat":"27.6333","lng":"113.8500","country":"China","iso2":"CN","iso3":"CHN","admin_name":"Jiangxi","capital":"minor","population":"2001027","id":"1156066465"},{"city":"Peshawar","city_ascii":"Peshawar","lat":"34.0000","lng":"71.5000","country":"Pakistan","iso2":"PK","iso3":"PAK","admin_name":"Khyber Pakhtunkhwa","capital":"admin","population":"1970042","id":"1586851102"},{"city":"Pittsburgh","city_ascii":"Pittsburgh","lat":"40.4396","lng":"-79.9762","country":"United States","iso2":"US","iso3":"USA","admin_name":"Pennsylvania","capital":"","population":"1703266","id":"1840001254"},{"city":"Patna","city_ascii":"Patna","lat":"25.6100","lng":"85.1414","country":"India","iso2":"IN","iso3":"IND","admin_name":"Bihār","capital":"admin","population":"1684222","id":"1356821429"},{"city":"Puebla","city_ascii":"Puebla","lat":"19.0333","lng":"-98.1833","country":"Mexico","iso2":"MX","iso3":"MEX","admin_name":"Puebla","capital":"admin","population":"1576259","id":"1484416394"},{"city":"Porto Alegre","city_ascii":"Porto Alegre","lat":"-30.0328","lng":"-51.2300","country":"Brazil","iso2":"BR","iso3":"BRA","admin_name":"Rio Grande do Sul","capital":"admin","population":"1484941","id":"1076658221"},{"city":"Pizhou","city_ascii":"Pizhou","lat":"34.3422","lng":"118.0097","country":"China","iso2":"CN","iso3":"CHN","admin_name":"Jiangsu","capital":"","population":"1458038","id":"1156114238"},{"city":"Palembang","city_ascii":"Palembang","lat":"-2.9833","lng":"104.7644","country":"Indonesia","iso2":"ID","iso3":"IDN","admin_name":"Sumatera Selatan","capital":"admin","population":"1452456","id":"1360902897"},{"city":"Pingdu","city_ascii":"Pingdu","lat":"36.7833","lng":"119.9556","country":"China","iso2":"CN","iso3":"CHN","admin_name":"Shandong","capital":"","population":"1378900","id":"1156157078"},{"city":"Prague","city_ascii":"Prague","lat":"50.0833","lng":"14.4167","country":"Czechia","iso2":"CZ","iso3":"CZE","admin_name":"Praha, Hlavní Město","capital":"primary","population":"1324277","id":"1203744823"},{"city":"Providence","city_ascii":"Providence","lat":"41.8230","lng":"-71.4187","country":"United States","iso2":"US","iso3":"USA","admin_name":"Rhode Island","capital":"admin","population":"1203230","id":"1840003289"},{"city":"Patam","city_ascii":"Patam","lat":"1.0678","lng":"104.0167","country":"Indonesia","iso2":"ID","iso3":"IDN","admin_name":"Kepulauan Riau","capital":"","population":"1029808","id":"1360893799"},{"city":"Port-au-Prince","city_ascii":"Port-au-Prince","lat":"18.5425","lng":"-72.3386","country":"Haiti","iso2":"HT","iso3":"HTI","admin_name":"Ouest","capital":"primary","population":"987310","id":"1332401940"},{"city":"Port Harcourt","city_ascii":"Port Harcourt","lat":"4.7500","lng":"7.0000","country":"Nigeria","iso2":"NG","iso3":"NGA","admin_name":"Rivers","capital":"admin","population":"1005904","id":"1566070649"},{"city":"Panama City","city_ascii":"Panama City","lat":"9.0000","lng":"-79.5000","country":"Panama","iso2":"PA","iso3":"PAN","admin_name":"Panamá","capital":"primary","population":"880691","id":"1591672475"},{"city":"Pretoria","city_ascii":"Pretoria","lat":"-25.7464","lng":"28.1881","country":"South Africa","iso2":"ZA","iso3":"ZAF","admin_name":"Gauteng","capital":"primary","population":"741651","id":"1710176249"},{"city":"Port Moresby","city_ascii":"Port Moresby","lat":"-9.4789","lng":"147.1494","country":"Papua New Guinea","iso2":"PG","iso3":"PNG","admin_name":"National Capital","capital":"primary","population":"364125","id":"1598685395"},{"city":"Porto-Novo","city_ascii":"Porto-Novo","lat":"6.4833","lng":"2.6167","country":"Benin","iso2":"BJ","iso3":"BEN","admin_name":"Ouémé","capital":"primary","population":"300000","id":"1204172060"},{"city":"Paramaribo","city_ascii":"Paramaribo","lat":"5.8667","lng":"-55.1667","country":"Suriname","iso2":"SR","iso3":"SUR","admin_name":"Paramaribo","capital":"primary","population":"223757","id":"1740518660"},{"city":"Pristina","city_ascii":"Pristina","lat":"42.6667","lng":"21.1667","country":"Kosovo","iso2":"XK","iso3":"XKS","admin_name":"Prishtinë","capital":"primary","population":"204725","id":"1901760068"},{"city":"Podgorica","city_ascii":"Podgorica","lat":"42.4397","lng":"19.2661","country":"Montenegro","iso2":"ME","iso3":"MNE","admin_name":"Podgorica","capital":"primary","population":"174515","id":"1499454516"},{"city":"Port Louis","city_ascii":"Port Louis","lat":"-20.1667","lng":"57.5000","country":"Mauritius","iso2":"MU","iso3":"MUS","admin_name":"Port Louis","capital":"primary","population":"149194","id":"1480131261"},{"city":"Praia","city_ascii":"Praia","lat":"14.9177","lng":"-23.5092","country":"Cabo Verde","iso2":"CV","iso3":"CPV","admin_name":"Praia","capital":"primary","population":"127832","id":"1132398770"},{"city":"Port-Vila","city_ascii":"Port-Vila","lat":"-17.7500","lng":"168.3000","country":"Vanuatu","iso2":"VU","iso3":"VUT","admin_name":"Shefa","capital":"primary","population":"51437","id":"1548805075"},{"city":"Port of Spain","city_ascii":"Port of Spain","lat":"10.6667","lng":"-61.5167","country":"Trinidad And Tobago","iso2":"TT","iso3":"TTO","admin_name":"Port of Spain","capital":"primary","population":"37074","id":"1780670676"},{"city":"Pago Pago","city_ascii":"Pago Pago","lat":"-14.2740","lng":"-170.7046","country":"American Samoa","iso2":"AS","iso3":"ASM","admin_name":"","capital":"primary","population":"12576","id":"1016976740"},{"city":"Palikir","city_ascii":"Palikir","lat":"6.9178","lng":"158.1850","country":"Micronesia, Federated States Of","iso2":"FM","iso3":"FSM","admin_name":"Pohnpei","capital":"primary","population":"6227","id":"1583008885"},{"city":"Padang","city_ascii":"Padang","lat":"-0.9556","lng":"100.3606","country":"Indonesia","iso2":"ID","iso3":"IDN","admin_name":"Sumatera Barat","capital":"admin","population":"914970","id":"1360900986"},{"city":"Pekanbaru","city_ascii":"Pekanbaru","lat":"0.5333","lng":"101.4500","country":"Indonesia","iso2":"ID","iso3":"IDN","admin_name":"Riau","capital":"admin","population":"855221","id":"1360422679"},{"city":"Portsmouth","city_ascii":"Portsmouth","lat":"50.8058","lng":"-1.0872","country":"United Kingdom","iso2":"GB","iso3":"GBR","admin_name":"Portsmouth","capital":"","population":"855679","id":"1826964096"},{"city":"Pointe-Noire","city_ascii":"Pointe-Noire","lat":"-4.7889","lng":"11.8653","country":"Congo (Brazzaville)","iso2":"CG","iso3":"COG","admin_name":"Pointe-Noire","capital":"admin","population":"829134","id":"1178411563"},{"city":"Puxi","city_ascii":"Puxi","lat":"35.2125","lng":"114.7350","country":"China","iso2":"CN","iso3":"CHN","admin_name":"Henan","capital":"minor","population":"809535","id":"1156046618"},{"city":"Pasig City","city_ascii":"Pasig City","lat":"14.5750","lng":"121.0833","country":"Philippines","iso2":"PH","iso3":"PHL","admin_name":"Pasig","capital":"admin","population":"755300","id":"1608278212"},{"city":"Pietermaritzburg","city_ascii":"Pietermaritzburg","lat":"-29.5833","lng":"30.4167","country":"South Africa","iso2":"ZA","iso3":"ZAF","admin_name":"KwaZulu-Natal","capital":"admin","population":"750845","id":"1710690280"},{"city":"Palermo","city_ascii":"Palermo","lat":"38.1157","lng":"13.3613","country":"Italy","iso2":"IT","iso3":"ITA","admin_name":"Sicilia","capital":"admin","population":"674435","id":"1380428434"},{"city":"Pinghu","city_ascii":"Pinghu","lat":"30.7005","lng":"121.0104","country":"China","iso2":"CN","iso3":"CHN","admin_name":"Zhejiang","capital":"","population":"671834","id":"1156720536"},{"city":"Puyang Chengguanzhen","city_ascii":"Puyang Chengguanzhen","lat":"35.7004","lng":"114.9800","country":"China","iso2":"CN","iso3":"CHN","admin_name":"Henan","capital":"minor","population":"666322","id":"1156103317"},{"city":"Petaling Jaya","city_ascii":"Petaling Jaya","lat":"3.1073","lng":"101.6067","country":"Malaysia","iso2":"MY","iso3":"MYS","admin_name":"Selangor","capital":"","population":"638516","id":"1458989343"},{"city":"Pontianak","city_ascii":"Pontianak","lat":"-0.0206","lng":"109.3414","country":"Indonesia","iso2":"ID","iso3":"IDN","admin_name":"Kalimantan Barat","capital":"admin","population":"618388","id":"1360992394"},{"city":"Pereira","city_ascii":"Pereira","lat":"4.8104","lng":"-75.6800","country":"Colombia","iso2":"CO","iso3":"COL","admin_name":"Risaralda","capital":"admin","population":"568750","id":"1170386718"},{"city":"Poznań","city_ascii":"Poznan","lat":"52.4000","lng":"16.9167","country":"Poland","iso2":"PL","iso3":"POL","admin_name":"Wielkopolskie","capital":"admin","population":"538633","id":"1616725607"},{"city":"Panshi","city_ascii":"Panshi","lat":"42.9392","lng":"126.0561","country":"China","iso2":"CN","iso3":"CHN","admin_name":"Jilin","capital":"","population":"539804","id":"1156659612"},{"city":"Penza","city_ascii":"Penza","lat":"53.2000","lng":"45.0000","country":"Russia","iso2":"RU","iso3":"RUS","admin_name":"Penzenskaya Oblast’","capital":"admin","population":"523726","id":"1643492830"},{"city":"Port Said","city_ascii":"Port Said","lat":"31.2500","lng":"32.2833","country":"Egypt","iso2":"EG","iso3":"EGY","admin_name":"Būr Sa‘īd","capital":"admin","population":"524433","id":"1818628574"},{"city":"Pohang","city_ascii":"Pohang","lat":"36.0322","lng":"129.3650","country":"Korea, South","iso2":"KR","iso3":"KOR","admin_name":"Gyeongbuk","capital":"minor","population":"520305","id":"1410983252"},{"city":"Palm Bay","city_ascii":"Palm Bay","lat":"27.9550","lng":"-80.6627","country":"United States","iso2":"US","iso3":"USA","admin_name":"Florida","capital":"","population":"507002","id":"1840015094"},{"city":"Pingtung","city_ascii":"Pingtung","lat":"22.6761","lng":"120.4942","country":"Taiwan","iso2":"TW","iso3":"TWN","admin_name":"Pingtung","capital":"admin","population":"503530","id":"1158209038"},{"city":"Provo","city_ascii":"Provo","lat":"40.2457","lng":"-111.6457","country":"United States","iso2":"US","iso3":"USA","admin_name":"Utah","capital":"","population":"500617","id":"1840020174"},{"city":"Port Sudan","city_ascii":"Port Sudan","lat":"19.6158","lng":"37.2164","country":"Sudan","iso2":"SD","iso3":"SDN","admin_name":"Red Sea","capital":"admin","population":"489275","id":"1729710259"},{"city":"Piraeus","city_ascii":"Piraeus","lat":"37.9500","lng":"23.7000","country":"Greece","iso2":"GR","iso3":"GRC","admin_name":"Attikí","capital":"minor","population":"466065","id":"1300458367"},{"city":"Piura","city_ascii":"Piura","lat":"-5.2008","lng":"-80.6253","country":"Peru","iso2":"PE","iso3":"PER","admin_name":"Piura","capital":"admin","population":"473025","id":"1604331641"},{"city":"Port St. Lucie","city_ascii":"Port St. Lucie","lat":"27.2796","lng":"-80.3883","country":"United States","iso2":"US","iso3":"USA","admin_name":"Florida","capital":"","population":"461152","id":"1840015119"},{"city":"Pyeongtaek","city_ascii":"Pyeongtaek","lat":"36.9947","lng":"127.0889","country":"Korea, South","iso2":"KR","iso3":"KOR","admin_name":"Gyeonggi","capital":"","population":"457873","id":"1410641095"},{"city":"Pasay City","city_ascii":"Pasay City","lat":"14.5500","lng":"121.0000","country":"Philippines","iso2":"PH","iso3":"PHL","admin_name":"Pasay","capital":"admin","population":"416522","id":"1608448280"},{"city":"Pingquan","city_ascii":"Pingquan","lat":"41.0042","lng":"118.6848","country":"China","iso2":"CN","iso3":"CHN","admin_name":"Hebei","capital":"minor","population":"446939","id":"1156442510"},{"city":"Pencheng","city_ascii":"Pencheng","lat":"29.6792","lng":"115.6611","country":"China","iso2":"CN","iso3":"CHN","admin_name":"Jiangxi","capital":"","population":"419047","id":"1156147187"},{"city":"Palma","city_ascii":"Palma","lat":"39.5667","lng":"2.6497","country":"Spain","iso2":"ES","iso3":"ESP","admin_name":"Balearic Islands","capital":"admin","population":"416065","id":"1724728111"},{"city":"Palm Coast","city_ascii":"Palm Coast","lat":"29.5392","lng":"-81.2460","country":"United States","iso2":"US","iso3":"USA","admin_name":"Florida","capital":"","population":"417007","id":"1840015064"},{"city":"Paju","city_ascii":"Paju","lat":"37.8328","lng":"126.8169","country":"Korea, South","iso2":"KR","iso3":"KOR","admin_name":"Gyeonggi","capital":"minor","population":"415345","id":"1410365324"},{"city":"Poughkeepsie","city_ascii":"Poughkeepsie","lat":"41.6949","lng":"-73.9210","country":"United States","iso2":"US","iso3":"USA","admin_name":"New York","capital":"","population":"394760","id":"1840000500"},{"city":"Plovdiv","city_ascii":"Plovdiv","lat":"42.1433","lng":"24.7489","country":"Bulgaria","iso2":"BG","iso3":"BGR","admin_name":"Plovdiv","capital":"admin","population":"384088","id":"1100436706"},{"city":"Pasto","city_ascii":"Pasto","lat":"1.2136","lng":"-77.2811","country":"Colombia","iso2":"CO","iso3":"COL","admin_name":"Nariño","capital":"admin","population":"382236","id":"1170320545"},{"city":"Pānihāti","city_ascii":"Panihati","lat":"22.6900","lng":"88.3700","country":"India","iso2":"IN","iso3":"IND","admin_name":"West Bengal","capital":"","population":"377347","id":"1356118632"},{"city":"Parbhani","city_ascii":"Parbhani","lat":"19.2704","lng":"76.7600","country":"India","iso2":"IN","iso3":"IND","admin_name":"Mahārāshtra","capital":"","population":"378326","id":"1356632842"},{"city":"Pétion-Ville","city_ascii":"Petion-Ville","lat":"18.5098","lng":"-72.2856","country":"Haiti","iso2":"HT","iso3":"HTI","admin_name":"Ouest","capital":"","population":"359615","id":"1332051873"},{"city":"Palu","city_ascii":"Palu","lat":"-0.8950","lng":"119.8594","country":"Indonesia","iso2":"ID","iso3":"IDN","admin_name":"Sulawesi Tengah","capital":"admin","population":"359350","id":"1360518272"},{"city":"Pokhara","city_ascii":"Pokhara","lat":"28.2097","lng":"83.9853","country":"Nepal","iso2":"NP","iso3":"NPL","admin_name":"Gandakī","capital":"admin","population":"353841","id":"1524416084"},{"city":"Pavlodar","city_ascii":"Pavlodar","lat":"52.3156","lng":"76.9564","country":"Kazakhstan","iso2":"KZ","iso3":"KAZ","admin_name":"Pavlodar","capital":"admin","population":"353930","id":"1398790087"},{"city":"Piracicaba","city_ascii":"Piracicaba","lat":"-22.7250","lng":"-47.6489","country":"Brazil","iso2":"BR","iso3":"BRA","admin_name":"São Paulo","capital":"","population":"342209","id":"1076166252"},{"city":"Pensacola","city_ascii":"Pensacola","lat":"30.4427","lng":"-87.1886","country":"United States","iso2":"US","iso3":"USA","admin_name":"Florida","capital":"","population":"346921","id":"1840015005"},{"city":"Pelotas","city_ascii":"Pelotas","lat":"-31.7500","lng":"-52.3300","country":"Brazil","iso2":"BR","iso3":"BRA","admin_name":"Rio Grande do Sul","capital":"","population":"320674","id":"1076815692"},{"city":"Patiāla","city_ascii":"Patiala","lat":"30.3204","lng":"76.3850","country":"India","iso2":"IN","iso3":"IND","admin_name":"Punjab","capital":"","population":"329224","id":"1356458416"},{"city":"Pucallpa","city_ascii":"Pucallpa","lat":"-8.3833","lng":"-74.5500","country":"Peru","iso2":"PE","iso3":"PER","admin_name":"Ucayali","capital":"admin","population":"326040","id":"1604478712"},{"city":"Poltava","city_ascii":"Poltava","lat":"49.5744","lng":"34.5686","country":"Ukraine","iso2":"UA","iso3":"UKR","admin_name":"Poltavs’ka Oblast’","capital":"admin","population":"317847","id":"1804547489"},{"city":"Purnea","city_ascii":"Purnea","lat":"25.7800","lng":"87.4700","country":"India","iso2":"IN","iso3":"IND","admin_name":"Bihār","capital":"","population":"310817","id":"1356486511"},{"city":"Port Elizabeth","city_ascii":"Port Elizabeth","lat":"-33.9581","lng":"25.6000","country":"South Africa","iso2":"ZA","iso3":"ZAF","admin_name":"Eastern Cape","capital":"","population":"312392","id":"1710918997"},{"city":"Porto Velho","city_ascii":"Porto Velho","lat":"-8.7619","lng":"-63.9039","country":"Brazil","iso2":"BR","iso3":"BRA","admin_name":"Rondônia","capital":"admin","population":"306180","id":"1076045591"},{"city":"Puerto La Cruz","city_ascii":"Puerto La Cruz","lat":"10.2167","lng":"-64.6167","country":"Venezuela","iso2":"VE","iso3":"VEN","admin_name":"Anzoátegui","capital":"minor","population":"306261","id":"1862856141"},{"city":"Podol’sk","city_ascii":"Podol'sk","lat":"55.4297","lng":"37.5444","country":"Russia","iso2":"RU","iso3":"RUS","admin_name":"Moskovskaya Oblast’","capital":"","population":"299660","id":"1643693800"},{"city":"Pekalongan","city_ascii":"Pekalongan","lat":"-6.8883","lng":"109.6753","country":"Indonesia","iso2":"ID","iso3":"IDN","admin_name":"Jawa Tengah","capital":"","population":"298386","id":"1360039434"},{"city":"Popayán","city_ascii":"Popayan","lat":"2.4411","lng":"-76.6061","country":"Colombia","iso2":"CO","iso3":"COL","admin_name":"Cauca","capital":"admin","population":"300837","id":"1170764265"},{"city":"Praia Grande","city_ascii":"Praia Grande","lat":"-24.0058","lng":"-46.4028","country":"Brazil","iso2":"BR","iso3":"BRA","admin_name":"São Paulo","capital":"","population":"299261","id":"1076548222"},{"city":"Petrópolis","city_ascii":"Petropolis","lat":"-22.5050","lng":"-43.1789","country":"Brazil","iso2":"BR","iso3":"BRA","admin_name":"Rio de Janeiro","capital":"","population":"298142","id":"1076352504"},{"city":"Ponta Grossa","city_ascii":"Ponta Grossa","lat":"-25.0900","lng":"-50.1600","country":"Brazil","iso2":"BR","iso3":"BRA","admin_name":"Paraná","capital":"","population":"292177","id":"1076716439"},{"city":"Pānīpat","city_ascii":"Panipat","lat":"29.4004","lng":"76.9700","country":"India","iso2":"IN","iso3":"IND","admin_name":"Haryāna","capital":"","population":"292808","id":"1356526780"},{"city":"Punto Fijo","city_ascii":"Punto Fijo","lat":"11.7167","lng":"-70.1833","country":"Venezuela","iso2":"VE","iso3":"VEN","admin_name":"Falcón","capital":"minor","population":"287558","id":"1862535644"},{"city":"Plano","city_ascii":"Plano","lat":"33.0502","lng":"-96.7487","country":"United States","iso2":"US","iso3":"USA","admin_name":"Texas","capital":"","population":"287677","id":"1840020662"},{"city":"Pematangsiantar","city_ascii":"Pematangsiantar","lat":"2.9600","lng":"99.0600","country":"Indonesia","iso2":"ID","iso3":"IDN","admin_name":"Sumatera Utara","capital":"","population":"278055","id":"1360769496"},{"city":"Petrozavodsk","city_ascii":"Petrozavodsk","lat":"61.7833","lng":"34.3500","country":"Russia","iso2":"RU","iso3":"RUS","admin_name":"Kareliya","capital":"admin","population":"278551","id":"1643319966"},{"city":"Pachuca","city_ascii":"Pachuca","lat":"20.1000","lng":"-98.7500","country":"Mexico","iso2":"MX","iso3":"MEX","admin_name":"Hidalgo","capital":"admin","population":"277375","id":"1484575026"},{"city":"Posadas","city_ascii":"Posadas","lat":"-27.3667","lng":"-55.8969","country":"Argentina","iso2":"AR","iso3":"ARG","admin_name":"Misiones","capital":"admin","population":"275988","id":"1032970696"},{"city":"Palmas","city_ascii":"Palmas","lat":"-10.2128","lng":"-48.3603","country":"Brazil","iso2":"BR","iso3":"BRA","admin_name":"Tocantins","capital":"admin","population":"272726","id":"1076052802"},{"city":"Plymouth","city_ascii":"Plymouth","lat":"50.3714","lng":"-4.1422","country":"United Kingdom","iso2":"GB","iso3":"GBR","admin_name":"Plymouth","capital":"","population":"267918","id":"1826947183"},{"city":"Petrolina","city_ascii":"Petrolina","lat":"-9.3800","lng":"-40.5100","country":"Brazil","iso2":"BR","iso3":"BRA","admin_name":"Pernambuco","capital":"","population":"260985","id":"1076843988"},{"city":"Playa del Carmen","city_ascii":"Playa del Carmen","lat":"20.6275","lng":"-87.0811","country":"Mexico","iso2":"MX","iso3":"MEX","admin_name":"Quintana Roo","capital":"minor","population":"252087","id":"1484559458"},{"city":"Peoria","city_ascii":"Peoria","lat":"40.7520","lng":"-89.6153","country":"United States","iso2":"US","iso3":"USA","admin_name":"Illinois","capital":"","population":"256286","id":"1840009373"},{"city":"Puerto Princesa","city_ascii":"Puerto Princesa","lat":"9.7500","lng":"118.7500","country":"Philippines","iso2":"PH","iso3":"PHL","admin_name":"Puerto Princesa","capital":"admin","population":"255116","id":"1608455700"},{"city":"Palangkaraya","city_ascii":"Palangkaraya","lat":"-2.2100","lng":"113.9200","country":"Indonesia","iso2":"ID","iso3":"IDN","admin_name":"Kalimantan Tengah","capital":"admin","population":"249434","id":"1360268553"},{"city":"Paraná","city_ascii":"Parana","lat":"-31.7444","lng":"-60.5175","country":"Argentina","iso2":"AR","iso3":"ARG","admin_name":"Entre Ríos","capital":"admin","population":"247863","id":"1032266693"},{"city":"Puerto Montt","city_ascii":"Puerto Montt","lat":"-41.4718","lng":"-72.9396","country":"Chile","iso2":"CL","iso3":"CHL","admin_name":"Los Lagos","capital":"admin","population":"245902","id":"1152443957"},{"city":"Porto","city_ascii":"Porto","lat":"41.1495","lng":"-8.6108","country":"Portugal","iso2":"PT","iso3":"PRT","admin_name":"Porto","capital":"admin","population":"237591","id":"1620356810"},{"city":"Petaẖ Tiqwa","city_ascii":"Petah Tiqwa","lat":"32.0833","lng":"34.8833","country":"Israel","iso2":"IL","iso3":"ISR","admin_name":"Central","capital":"","population":"236169","id":"1376362310"},{"city":"P’yŏng-dong","city_ascii":"P'yong-dong","lat":"39.2500","lng":"125.8500","country":"Korea, North","iso2":"KP","iso3":"PRK","admin_name":"P’yŏngyang","capital":"","population":"236583","id":"1408184982"},{"city":"Pathein","city_ascii":"Pathein","lat":"16.7667","lng":"94.7333","country":"Burma","iso2":"MM","iso3":"MMR","admin_name":"Ayeyawady","capital":"admin","population":"237089","id":"1104832430"},{"city":"Pākdasht","city_ascii":"Pakdasht","lat":"35.4817","lng":"51.6803","country":"Iran","iso2":"IR","iso3":"IRN","admin_name":"Tehrān","capital":"minor","population":"236319","id":"1364370088"},{"city":"Porbandar","city_ascii":"Porbandar","lat":"21.6425","lng":"69.6047","country":"India","iso2":"IN","iso3":"IND","admin_name":"Gujarāt","capital":"","population":"234684","id":"1356634492"},{"city":"Puducherry","city_ascii":"Puducherry","lat":"11.9300","lng":"79.8300","country":"India","iso2":"IN","iso3":"IND","admin_name":"Puducherry","capital":"admin","population":"227411","id":"1356368903"},{"city":"Paradise","city_ascii":"Paradise","lat":"36.0807","lng":"-115.1369","country":"United States","iso2":"US","iso3":"USA","admin_name":"Nevada","capital":"","population":"233689","id":"1840033743"},{"city":"Pāli","city_ascii":"Pali","lat":"25.7725","lng":"73.3233","country":"India","iso2":"IN","iso3":"IND","admin_name":"Rājasthān","capital":"","population":"229956","id":"1356212172"},{"city":"Puerto Vallarta","city_ascii":"Puerto Vallarta","lat":"20.6667","lng":"-105.2667","country":"Mexico","iso2":"MX","iso3":"MEX","admin_name":"Jalisco","capital":"minor","population":"221200","id":"1484408906"},{"city":"Probolinggo","city_ascii":"Probolinggo","lat":"-7.7500","lng":"113.2167","country":"Indonesia","iso2":"ID","iso3":"IDN","admin_name":"Jawa Timur","capital":"","population":"223159","id":"1360138476"},{"city":"Padangsidempuan","city_ascii":"Padangsidempuan","lat":"1.3667","lng":"99.2667","country":"Indonesia","iso2":"ID","iso3":"IDN","admin_name":"Sumatera Utara","capital":"","population":"225544","id":"1360506609"},{"city":"Puri","city_ascii":"Puri","lat":"19.8000","lng":"85.8167","country":"India","iso2":"IN","iso3":"IND","admin_name":"Odisha","capital":"","population":"201026","id":"1356558409"},{"city":"Presidente Prudente","city_ascii":"Presidente Prudente","lat":"-22.1258","lng":"-51.3889","country":"Brazil","iso2":"BR","iso3":"BRA","admin_name":"São Paulo","capital":"","population":"222192","id":"1076239965"},{"city":"Polokwane","city_ascii":"Polokwane","lat":"-23.9000","lng":"29.4500","country":"South Africa","iso2":"ZA","iso3":"ZAF","admin_name":"Limpopo","capital":"admin","population":"220045","id":"1710908010"},{"city":"Petropavl","city_ascii":"Petropavl","lat":"54.8622","lng":"69.1408","country":"Kazakhstan","iso2":"KZ","iso3":"KAZ","admin_name":"Soltüstik Qazaqstan","capital":"admin","population":"216406","id":"1398252858"},{"city":"Padova","city_ascii":"Padova","lat":"45.4064","lng":"11.8778","country":"Italy","iso2":"IT","iso3":"ITA","admin_name":"Veneto","capital":"minor","population":"211560","id":"1380964615"},{"city":"Ploieşti","city_ascii":"Ploiesti","lat":"44.9386","lng":"26.0225","country":"Romania","iso2":"RO","iso3":"ROU","admin_name":"Prahova","capital":"admin","population":"209945","id":"1642169731"},{"city":"Pskov","city_ascii":"Pskov","lat":"57.8167","lng":"28.3333","country":"Russia","iso2":"RU","iso3":"RUS","admin_name":"Pskovskaya Oblast’","capital":"admin","population":"209840","id":"1643877414"},{"city":"Pamplona","city_ascii":"Pamplona","lat":"42.8167","lng":"-1.6500","country":"Spain","iso2":"ES","iso3":"ESP","admin_name":"Navarre","capital":"admin","population":"201653","id":"1724483329"},{"city":"Puerto Cabello","city_ascii":"Puerto Cabello","lat":"10.4667","lng":"-68.0167","country":"Venezuela","iso2":"VE","iso3":"VEN","admin_name":"Carabobo","capital":"minor","population":"209080","id":"1862031193"},{"city":"Portoviejo","city_ascii":"Portoviejo","lat":"-1.0544","lng":"-80.4544","country":"Ecuador","iso2":"EC","iso3":"ECU","admin_name":"Manabí","capital":"admin","population":"206682","id":"1218169586"},{"city":"Pingzhen","city_ascii":"Pingzhen","lat":"24.9439","lng":"121.2161","country":"Taiwan","iso2":"TW","iso3":"TWN","admin_name":"Taoyuan","capital":"","population":"201632","id":"1158047789"},{"city":"Phan Thiết","city_ascii":"Phan Thiet","lat":"10.9375","lng":"108.1583","country":"Vietnam","iso2":"VN","iso3":"VNM","admin_name":"Bình Thuận","capital":"admin","population":"205333","id":"1704221456"},{"city":"Puqi","city_ascii":"Puqi","lat":"29.7204","lng":"113.8800","country":"China","iso2":"CN","iso3":"CHN","admin_name":"Hubei","capital":"","population":"205164","id":"1156189796"},{"city":"Portland","city_ascii":"Portland","lat":"43.6773","lng":"-70.2715","country":"United States","iso2":"US","iso3":"USA","admin_name":"Maine","capital":"","population":"203969","id":"1840000327"},{"city":"Poza Rica de Hidalgo","city_ascii":"Poza Rica de Hidalgo","lat":"20.5333","lng":"-97.4500","country":"Mexico","iso2":"MX","iso3":"MEX","admin_name":"Veracruz","capital":"minor","population":"200119","id":"1484808798"},{"city":"Puerto Cortés","city_ascii":"Puerto Cortes","lat":"15.8833","lng":"-87.9500","country":"Honduras","iso2":"HN","iso3":"HND","admin_name":"Cortés","capital":"","population":"200000","id":"1340000062"},{"city":"Pagadian","city_ascii":"Pagadian","lat":"7.8333","lng":"123.4333","country":"Philippines","iso2":"PH","iso3":"PHL","admin_name":"Zamboanga del Sur","capital":"admin","population":"199060","id":"1608329397"},{"city":"Prokop’yevsk","city_ascii":"Prokop'yevsk","lat":"53.8833","lng":"86.7167","country":"Russia","iso2":"RU","iso3":"RUS","admin_name":"Kemerovskaya Oblast’","capital":"","population":"196406","id":"1643653477"},{"city":"Parma","city_ascii":"Parma","lat":"44.8015","lng":"10.3280","country":"Italy","iso2":"IT","iso3":"ITA","admin_name":"Emilia-Romagna","capital":"minor","population":"194417","id":"1380655938"},{"city":"Prato","city_ascii":"Prato","lat":"43.8808","lng":"11.0966","country":"Italy","iso2":"IT","iso3":"ITA","admin_name":"Tuscany","capital":"minor","population":"191749","id":"1380751753"},{"city":"Pasuruan","city_ascii":"Pasuruan","lat":"-7.6406","lng":"112.9065","country":"Indonesia","iso2":"ID","iso3":"IDN","admin_name":"Jawa Timur","capital":"","population":"186262","id":"1360084806"},{"city":"Potosí","city_ascii":"Potosi","lat":"-19.5833","lng":"-65.7500","country":"Bolivia","iso2":"BO","iso3":"BOL","admin_name":"Potosí","capital":"admin","population":"189652","id":"1068933987"},{"city":"Pak Kret","city_ascii":"Pak Kret","lat":"13.9125","lng":"100.4978","country":"Thailand","iso2":"TH","iso3":"THA","admin_name":"Nonthaburi","capital":"minor","population":"184501","id":"1764165203"},{"city":"Parakou","city_ascii":"Parakou","lat":"9.3400","lng":"2.6200","country":"Benin","iso2":"BJ","iso3":"BEN","admin_name":"Borgou","capital":"admin","population":"188853","id":"1204807468"},{"city":"Pinar del Río","city_ascii":"Pinar del Rio","lat":"22.4122","lng":"-83.6719","country":"Cuba","iso2":"CU","iso3":"CUB","admin_name":"Pinar del Río","capital":"admin","population":"188614","id":"1192216820"},{"city":"Prabumulih","city_ascii":"Prabumulih","lat":"-3.4328","lng":"104.2356","country":"Indonesia","iso2":"ID","iso3":"IDN","admin_name":"Sumatera Selatan","capital":"minor","population":"188082","id":"1360148993"},{"city":"Prizren","city_ascii":"Prizren","lat":"42.2167","lng":"20.7333","country":"Kosovo","iso2":"XK","iso3":"XKS","admin_name":"Prizren","capital":"admin","population":"186986","id":"1901360309"},{"city":"Panabo","city_ascii":"Panabo","lat":"7.3000","lng":"125.6833","country":"Philippines","iso2":"PH","iso3":"PHL","admin_name":"Davao del Norte","capital":"","population":"184599","id":"1608577408"},{"city":"Passo Fundo","city_ascii":"Passo Fundo","lat":"-28.2500","lng":"-52.4200","country":"Brazil","iso2":"BR","iso3":"BRA","admin_name":"Rio Grande do Sul","capital":"","population":"179529","id":"1076763340"},{"city":"Pinrang","city_ascii":"Pinrang","lat":"-3.7857","lng":"119.6522","country":"Indonesia","iso2":"ID","iso3":"IDN","admin_name":"Sulawesi Selatan","capital":"minor","population":"182731","id":"1360941841"},{"city":"Petropavlovsk-Kamchatskiy","city_ascii":"Petropavlovsk-Kamchatskiy","lat":"53.0167","lng":"158.6500","country":"Russia","iso2":"RU","iso3":"RUS","admin_name":"Kamchatskiy Kray","capital":"admin","population":"181216","id":"1643129247"},{"city":"Phan Rang-Tháp Chàm","city_ascii":"Phan Rang-Thap Cham","lat":"11.5643","lng":"108.9886","country":"Vietnam","iso2":"VN","iso3":"VNM","admin_name":"Ninh Thuận","capital":"admin","population":"179773","id":"1704094609"},{"city":"Palopo","city_ascii":"Palopo","lat":"-3.0000","lng":"120.2000","country":"Indonesia","iso2":"ID","iso3":"IDN","admin_name":"Sulawesi Selatan","capital":"","population":"180130","id":"1360740288"},{"city":"Paita","city_ascii":"Paita","lat":"-5.0667","lng":"-81.1000","country":"Peru","iso2":"PE","iso3":"PER","admin_name":"Piura","capital":"","population":"179346","id":"1604588759"},{"city":"Potsdam","city_ascii":"Potsdam","lat":"52.4000","lng":"13.0667","country":"Germany","iso2":"DE","iso3":"DEU","admin_name":"Brandenburg","capital":"admin","population":"178089","id":"1276395100"},{"city":"Plzeň","city_ascii":"Plzen","lat":"49.7414","lng":"13.3825","country":"Czechia","iso2":"CZ","iso3":"CZE","admin_name":"Plzeňský Kraj","capital":"admin","population":"174842","id":"1203402469"},{"city":"Peoria","city_ascii":"Peoria","lat":"33.7844","lng":"-112.2989","country":"United States","iso2":"US","iso3":"USA","admin_name":"Arizona","capital":"","population":"175961","id":"1840020567"},{"city":"Pembroke Pines","city_ascii":"Pembroke Pines","lat":"26.0128","lng":"-80.3382","country":"United States","iso2":"US","iso3":"USA","admin_name":"Florida","capital":"","population":"173591","id":"1840015141"},{"city":"Portmore","city_ascii":"Portmore","lat":"17.9667","lng":"-76.8667","country":"Jamaica","iso2":"JM","iso3":"JAM","admin_name":"Saint Catherine","capital":"","population":"170000","id":"1388926551"},{"city":"Pátra","city_ascii":"Patra","lat":"38.2500","lng":"21.7333","country":"Greece","iso2":"GR","iso3":"GRC","admin_name":"Dytikí Elláda","capital":"admin","population":"167446","id":"1300201099"},{"city":"Perugia","city_ascii":"Perugia","lat":"43.1121","lng":"12.3888","country":"Italy","iso2":"IT","iso3":"ITA","admin_name":"Umbria","capital":"admin","population":"165683","id":"1380939013"},{"city":"Proddatūr","city_ascii":"Proddatur","lat":"14.7300","lng":"78.5500","country":"India","iso2":"IN","iso3":"IND","admin_name":"Andhra Pradesh","capital":"","population":"163970","id":"1356025913"},{"city":"Piedras Negras","city_ascii":"Piedras Negras","lat":"28.7000","lng":"-100.5231","country":"Mexico","iso2":"MX","iso3":"MEX","admin_name":"Coahuila de Zaragoza","capital":"minor","population":"163595","id":"1484000400"},{"city":"Pocheon","city_ascii":"Pocheon","lat":"37.8944","lng":"127.1992","country":"Korea, South","iso2":"KR","iso3":"KOR","admin_name":"Gyeonggi","capital":"minor","population":"163388","id":"1410780187"},{"city":"Pindamonhangaba","city_ascii":"Pindamonhangaba","lat":"-22.9239","lng":"-45.4617","country":"Brazil","iso2":"BR","iso3":"BRA","admin_name":"São Paulo","capital":"","population":"160614","id":"1076937468"},{"city":"Punta del Este","city_ascii":"Punta del Este","lat":"-34.9700","lng":"-54.9500","country":"Uruguay","iso2":"UY","iso3":"URY","admin_name":"Maldonado","capital":"","population":"159000","id":"1858267433"},{"city":"Pathānkot","city_ascii":"Pathankot","lat":"32.2689","lng":"75.6497","country":"India","iso2":"IN","iso3":"IND","admin_name":"Punjab","capital":"","population":"155909","id":"1356878237"},{"city":"Piteşti","city_ascii":"Pitesti","lat":"44.8667","lng":"24.8833","country":"Romania","iso2":"RO","iso3":"ROU","admin_name":"Argeş","capital":"admin","population":"155383","id":"1642781938"},{"city":"Palmdale","city_ascii":"Palmdale","lat":"34.5944","lng":"-118.1057","country":"United States","iso2":"US","iso3":"USA","admin_name":"California","capital":"","population":"155079","id":"1840020502"},{"city":"Port Arthur","city_ascii":"Port Arthur","lat":"29.8554","lng":"-93.9264","country":"United States","iso2":"US","iso3":"USA","admin_name":"Texas","capital":"","population":"154468","id":"1840020919"},{"city":"Palo Negro","city_ascii":"Palo Negro","lat":"10.1600","lng":"-67.5582","country":"Venezuela","iso2":"VE","iso3":"VEN","admin_name":"Aragua","capital":"minor","population":"153706","id":"1862061949"},{"city":"Poole","city_ascii":"Poole","lat":"50.7167","lng":"-1.9833","country":"United Kingdom","iso2":"GB","iso3":"GBR","admin_name":"Poole","capital":"","population":"151500","id":"1826379738"},{"city":"Papantla de Olarte","city_ascii":"Papantla de Olarte","lat":"20.4478","lng":"-97.3200","country":"Mexico","iso2":"MX","iso3":"MEX","admin_name":"Veracruz","capital":"minor","population":"152863","id":"1484844355"},{"city":"Peristéri","city_ascii":"Peristeri","lat":"38.0167","lng":"23.6833","country":"Greece","iso2":"GR","iso3":"GRC","admin_name":"Attikí","capital":"minor","population":"139981","id":"1300302779"},{"city":"Poços de Caldas","city_ascii":"Pocos de Caldas","lat":"-21.7800","lng":"-46.5700","country":"Brazil","iso2":"BR","iso3":"BRA","admin_name":"Minas Gerais","capital":"","population":"146588","id":"1076336113"},{"city":"Pomona","city_ascii":"Pomona","lat":"34.0585","lng":"-117.7626","country":"United States","iso2":"US","iso3":"USA","admin_name":"California","capital":"","population":"151691","id":"1840020507"},{"city":"Paderborn","city_ascii":"Paderborn","lat":"51.7167","lng":"8.7667","country":"Germany","iso2":"DE","iso3":"DEU","admin_name":"North Rhine-Westphalia","capital":"minor","population":"150580","id":"1276339087"},{"city":"Pasadena","city_ascii":"Pasadena","lat":"29.6583","lng":"-95.1499","country":"United States","iso2":"US","iso3":"USA","admin_name":"Texas","capital":"","population":"151227","id":"1840020930"},{"city":"Patos de Minas","city_ascii":"Patos de Minas","lat":"-18.5871","lng":"-46.5149","country":"Brazil","iso2":"BR","iso3":"BRA","admin_name":"Minas Gerais","capital":"","population":"150833","id":"1076100026"},{"city":"Pointe-à-Pitre","city_ascii":"Pointe-a-Pitre","lat":"16.2415","lng":"-61.5330","country":"Guadeloupe","iso2":"GP","iso3":"GLP","admin_name":"","capital":"","population":"145511","id":"1312460524"},{"city":"Potchefstroom","city_ascii":"Potchefstroom","lat":"-26.7150","lng":"27.1033","country":"South Africa","iso2":"ZA","iso3":"ZAF","admin_name":"North West","capital":"","population":"148804","id":"1710838885"},{"city":"Pyatigorsk","city_ascii":"Pyatigorsk","lat":"44.0333","lng":"43.0500","country":"Russia","iso2":"RU","iso3":"RUS","admin_name":"Stavropol’skiy Kray","capital":"","population":"145836","id":"1643815630"},{"city":"Paranaguá","city_ascii":"Paranagua","lat":"-25.5279","lng":"-48.5345","country":"Brazil","iso2":"BR","iso3":"BRA","admin_name":"Paraná","capital":"","population":"141013","id":"1076265266"},{"city":"Paterson","city_ascii":"Paterson","lat":"40.9147","lng":"-74.1624","country":"United States","iso2":"US","iso3":"USA","admin_name":"New Jersey","capital":"","population":"145233","id":"1840000838"},{"city":"Parnaíba","city_ascii":"Parnaiba","lat":"-2.9100","lng":"-41.7700","country":"Brazil","iso2":"BR","iso3":"BRA","admin_name":"Piauí","capital":"","population":"138008","id":"1076568871"},{"city":"Pueblo","city_ascii":"Pueblo","lat":"38.2705","lng":"-104.6112","country":"United States","iso2":"US","iso3":"USA","admin_name":"Colorado","capital":"","population":"143932","id":"1840020255"},{"city":"Pleiku","city_ascii":"Pleiku","lat":"13.9833","lng":"108.0000","country":"Vietnam","iso2":"VN","iso3":"VNM","admin_name":"Gia Lai","capital":"admin","population":"142900","id":"1704220080"},{"city":"Pécs","city_ascii":"Pecs","lat":"46.0708","lng":"18.2331","country":"Hungary","iso2":"HU","iso3":"HUN","admin_name":"Baranya","capital":"admin","population":"142873","id":"1348611992"},{"city":"Pemba","city_ascii":"Pemba","lat":"-12.9667","lng":"40.5167","country":"Mozambique","iso2":"MZ","iso3":"MOZ","admin_name":"Cabo Delgado","capital":"admin","population":"141316","id":"1508872233"},{"city":"Pasadena","city_ascii":"Pasadena","lat":"34.1597","lng":"-118.1390","country":"United States","iso2":"US","iso3":"USA","admin_name":"California","capital":"","population":"141029","id":"1840020505"},{"city":"Pakpattan","city_ascii":"Pakpattan","lat":"30.3500","lng":"73.4000","country":"Pakistan","iso2":"PK","iso3":"PAK","admin_name":"Punjab","capital":"minor","population":"139525","id":"1586409848"},{"city":"Pābna","city_ascii":"Pabna","lat":"24.0004","lng":"89.2500","country":"Bangladesh","iso2":"BD","iso3":"BGD","admin_name":"Rājshāhi","capital":"","population":"137888","id":"1050424286"},{"city":"Pīrānshahr","city_ascii":"Piranshahr","lat":"36.6944","lng":"45.1417","country":"Iran","iso2":"IR","iso3":"IRN","admin_name":"Āz̄arbāyjān-e Gharbī","capital":"minor","population":"138864","id":"1364699746"},{"city":"Porto Amboim","city_ascii":"Porto Amboim","lat":"-10.7183","lng":"13.7500","country":"Angola","iso2":"AO","iso3":"AGO","admin_name":"Kwanza Sul","capital":"","population":"137000","id":"1024818756"},{"city":"Pageralam","city_ascii":"Pageralam","lat":"-4.0217","lng":"103.2522","country":"Indonesia","iso2":"ID","iso3":"IDN","admin_name":"Sumatera Selatan","capital":"minor","population":"136244","id":"1360027360"},{"city":"Panama City","city_ascii":"Panama City","lat":"30.1995","lng":"-85.6004","country":"United States","iso2":"US","iso3":"USA","admin_name":"Florida","capital":"","population":"136133","id":"1840015034"},{"city":"Pyay","city_ascii":"Pyay","lat":"18.8165","lng":"95.2114","country":"Burma","iso2":"MM","iso3":"MMR","admin_name":"Bago","capital":"","population":"135308","id":"1104978348"},{"city":"Papeete","city_ascii":"Papeete","lat":"-17.5334","lng":"-149.5667","country":"French Polynesia","iso2":"PF","iso3":"PYF","admin_name":"Îles du Vent","capital":"","population":"131695","id":"1258907380"},{"city":"Pīlibhīt","city_ascii":"Pilibhit","lat":"28.6400","lng":"79.8100","country":"India","iso2":"IN","iso3":"IND","admin_name":"Uttar Pradesh","capital":"","population":"131008","id":"1356147005"},{"city":"Pālghāt","city_ascii":"Palghat","lat":"10.7792","lng":"76.6547","country":"India","iso2":"IN","iso3":"IND","admin_name":"Kerala","capital":"","population":"130955","id":"1356115164"},{"city":"Pālakollu","city_ascii":"Palakollu","lat":"16.5333","lng":"81.7333","country":"India","iso2":"IN","iso3":"IND","admin_name":"Andhra Pradesh","capital":"","population":"129717","id":"1356365783"},{"city":"Parepare","city_ascii":"Parepare","lat":"-4.0167","lng":"119.6236","country":"Indonesia","iso2":"ID","iso3":"IDN","admin_name":"Sulawesi Selatan","capital":"","population":"129542","id":"1360021476"},{"city":"Puno","city_ascii":"Puno","lat":"-15.8433","lng":"-70.0236","country":"Peru","iso2":"PE","iso3":"PER","admin_name":"Puno","capital":"admin","population":"128637","id":"1604227042"},{"city":"Pinsk","city_ascii":"Pinsk","lat":"52.1228","lng":"26.0950","country":"Belarus","iso2":"BY","iso3":"BLR","admin_name":"Brestskaya Voblasts’","capital":"minor","population":"126300","id":"1112209279"},{"city":"Pôrto Seguro","city_ascii":"Porto Seguro","lat":"-16.4296","lng":"-39.0800","country":"Brazil","iso2":"BR","iso3":"BRA","admin_name":"Bahia","capital":"","population":"123173","id":"1076932180"},{"city":"Port Blair","city_ascii":"Port Blair","lat":"11.6667","lng":"92.7500","country":"India","iso2":"IN","iso3":"IND","admin_name":"Andaman and Nicobar Islands","capital":"admin","population":"127562","id":"1356161713"},{"city":"Pakokku","city_ascii":"Pakokku","lat":"21.3320","lng":"95.0866","country":"Burma","iso2":"MM","iso3":"MMR","admin_name":"Magway","capital":"","population":"126938","id":"1104161315"},{"city":"Payakumbuh","city_ascii":"Payakumbuh","lat":"-0.2244","lng":"100.6325","country":"Indonesia","iso2":"ID","iso3":"IDN","admin_name":"Sumatera Barat","capital":"","population":"125608","id":"1360091636"},{"city":"Pforzheim","city_ascii":"Pforzheim","lat":"48.8950","lng":"8.7050","country":"Germany","iso2":"DE","iso3":"DEU","admin_name":"Baden-Württemberg","capital":"minor","population":"125542","id":"1276732622"},{"city":"Pangkalpinang","city_ascii":"Pangkalpinang","lat":"-2.1000","lng":"106.1000","country":"Indonesia","iso2":"ID","iso3":"IDN","admin_name":"Kepulauan Bangka Belitung","capital":"admin","population":"125933","id":"1360901919"},{"city":"Polatlı","city_ascii":"Polatli","lat":"39.5842","lng":"32.1472","country":"Turkey","iso2":"TR","iso3":"TUR","admin_name":"Ankara","capital":"minor","population":"125075","id":"1792124981"},{"city":"Porlamar","city_ascii":"Porlamar","lat":"10.9556","lng":"-63.8478","country":"Venezuela","iso2":"VE","iso3":"VEN","admin_name":"Nueva Esparta","capital":"minor","population":"120924","id":"1862693736"},{"city":"Pouso Alegre","city_ascii":"Pouso Alegre","lat":"-22.2200","lng":"-45.9400","country":"Brazil","iso2":"BR","iso3":"BRA","admin_name":"Minas Gerais","capital":"","population":"115201","id":"1076082333"},{"city":"Pervoural’sk","city_ascii":"Pervoural'sk","lat":"56.9167","lng":"59.9500","country":"Russia","iso2":"RU","iso3":"RUS","admin_name":"Sverdlovskaya Oblast’","capital":"","population":"124447","id":"1643845220"},{"city":"Pescara","city_ascii":"Pescara","lat":"42.4643","lng":"14.2142","country":"Italy","iso2":"IT","iso3":"ITA","admin_name":"Abruzzo","capital":"minor","population":"120286","id":"1380000966"},{"city":"Pleven","city_ascii":"Pleven","lat":"43.4078","lng":"24.6203","country":"Bulgaria","iso2":"BG","iso3":"BGR","admin_name":"Pleven","capital":"admin","population":"123588","id":"1100973719"},{"city":"Preston","city_ascii":"Preston","lat":"53.7590","lng":"-2.6990","country":"United Kingdom","iso2":"GB","iso3":"GBR","admin_name":"Lancashire","capital":"","population":"122719","id":"1826018478"},{"city":"Pati","city_ascii":"Pati","lat":"-6.7415","lng":"111.0347","country":"Indonesia","iso2":"ID","iso3":"IDN","admin_name":"Jawa Tengah","capital":"minor","population":"122785","id":"1360407556"},{"city":"Punta Arenas","city_ascii":"Punta Arenas","lat":"-53.1627","lng":"-70.9081","country":"Chile","iso2":"CL","iso3":"CHL","admin_name":"Magallanes y de la Antártica Chilena","capital":"admin","population":"123403","id":"1152262933"},{"city":"Patnos","city_ascii":"Patnos","lat":"39.2358","lng":"42.8686","country":"Turkey","iso2":"TR","iso3":"TUR","admin_name":"Ağrı","capital":"minor","population":"122833","id":"1792386113"},{"city":"Pearland","city_ascii":"Pearland","lat":"29.5585","lng":"-95.3215","country":"United States","iso2":"US","iso3":"USA","admin_name":"Texas","capital":"","population":"122460","id":"1840020979"},{"city":"Pedro Juan Caballero","city_ascii":"Pedro Juan Caballero","lat":"-22.5667","lng":"-55.7167","country":"Paraguay","iso2":"PY","iso3":"PRY","admin_name":"Amambay","capital":"admin","population":"122190","id":"1600089732"},{"city":"Perpignan","city_ascii":"Perpignan","lat":"42.6986","lng":"2.8956","country":"France","iso2":"FR","iso3":"FRA","admin_name":"Occitanie","capital":"minor","population":"120158","id":"1250102680"},{"city":"Puerto Barrios","city_ascii":"Puerto Barrios","lat":"15.7300","lng":"-88.6000","country":"Guatemala","iso2":"GT","iso3":"GTM","admin_name":"Izabal","capital":"admin","population":"121562","id":"1320517532"},{"city":"Płock","city_ascii":"Plock","lat":"52.5500","lng":"19.7000","country":"Poland","iso2":"PL","iso3":"POL","admin_name":"Mazowieckie","capital":"minor","population":"120000","id":"1616954507"},{"city":"Pakxé","city_ascii":"Pakxe","lat":"15.1167","lng":"105.7833","country":"Laos","iso2":"LA","iso3":"LAO","admin_name":"Champasak","capital":"admin","population":"119848","id":"1418863956"},{"city":"Puerto Plata","city_ascii":"Puerto Plata","lat":"19.7902","lng":"-70.6902","country":"Dominican Republic","iso2":"DO","iso3":"DOM","admin_name":"Cibao Norte","capital":"minor","population":"119897","id":"1214279422"},{"city":"Poá","city_ascii":"Poa","lat":"-23.5286","lng":"-46.3450","country":"Brazil","iso2":"BR","iso3":"BRA","admin_name":"São Paulo","capital":"","population":"113793","id":"1076905631"},{"city":"Port-Gentil","city_ascii":"Port-Gentil","lat":"-0.7167","lng":"8.7833","country":"Gabon","iso2":"GA","iso3":"GAB","admin_name":"Ogooué-Maritime","capital":"admin","population":"116836","id":"1266383028"},{"city":"Ponce","city_ascii":"Ponce","lat":"18.0120","lng":"-66.6198","country":"Puerto Rico","iso2":"PR","iso3":"PRI","admin_name":"Puerto Rico","capital":"","population":"116796","id":"1630023669"},{"city":"Phatthaya","city_ascii":"Phatthaya","lat":"12.9496","lng":"100.8930","country":"Thailand","iso2":"TH","iso3":"THA","admin_name":"Chon Buri","capital":"","population":"115840","id":"1764492695"},{"city":"Parral","city_ascii":"Parral","lat":"26.9333","lng":"-105.6667","country":"Mexico","iso2":"MX","iso3":"MEX","admin_name":"Chihuahua","capital":"minor","population":"109510","id":"1484607603"},{"city":"Puerto Madryn","city_ascii":"Puerto Madryn","lat":"-42.7730","lng":"-65.0366","country":"Argentina","iso2":"AR","iso3":"ARG","admin_name":"Chubut","capital":"minor","population":"115353","id":"1032351657"},{"city":"Pul-e Khumrī","city_ascii":"Pul-e Khumri","lat":"35.9500","lng":"68.7000","country":"Afghanistan","iso2":"AF","iso3":"AFG","admin_name":"Baghlān","capital":"admin","population":"113500","id":"1004123527"},{"city":"Paarl","city_ascii":"Paarl","lat":"-33.7242","lng":"18.9558","country":"South Africa","iso2":"ZA","iso3":"ZAF","admin_name":"Western Cape","capital":"","population":"112045","id":"1710440011"},{"city":"Pompano Beach","city_ascii":"Pompano Beach","lat":"26.2428","lng":"-80.1312","country":"United States","iso2":"US","iso3":"USA","admin_name":"Florida","capital":"","population":"112118","id":"1840015143"},{"city":"Pisco","city_ascii":"Pisco","lat":"-13.7100","lng":"-76.2032","country":"Peru","iso2":"PE","iso3":"PER","admin_name":"Ica","capital":"","population":"109965","id":"1604438126"},{"city":"Pottstown","city_ascii":"Pottstown","lat":"40.2507","lng":"-75.6444","country":"United States","iso2":"US","iso3":"USA","admin_name":"Pennsylvania","capital":"","population":"108758","id":"1840001373"},{"city":"Pavlohrad","city_ascii":"Pavlohrad","lat":"48.5200","lng":"35.8700","country":"Ukraine","iso2":"UA","iso3":"UKR","admin_name":"Dnipropetrovs’ka Oblast’","capital":"minor","population":"106082","id":"1804162854"},{"city":"Petržalka","city_ascii":"Petrzalka","lat":"48.1333","lng":"17.1167","country":"Slovakia","iso2":"SK","iso3":"SVK","admin_name":"Bratislavský","capital":"","population":"103190","id":"1703430611"},{"city":"Pushkino","city_ascii":"Pushkino","lat":"56.0167","lng":"37.8500","country":"Russia","iso2":"RU","iso3":"RUS","admin_name":"Moskovskaya Oblast’","capital":"","population":"105479","id":"1643799484"},{"city":"Passos","city_ascii":"Passos","lat":"-20.7100","lng":"-46.6100","country":"Brazil","iso2":"BR","iso3":"BRA","admin_name":"Minas Gerais","capital":"","population":"98752","id":"1076782492"},{"city":"Piacenza","city_ascii":"Piacenza","lat":"45.0500","lng":"9.7000","country":"Italy","iso2":"IT","iso3":"ITA","admin_name":"Emilia-Romagna","capital":"minor","population":"103082","id":"1380821832"},{"city":"Patos","city_ascii":"Patos","lat":"-7.0196","lng":"-37.2900","country":"Brazil","iso2":"BR","iso3":"BRA","admin_name":"Paraíba","capital":"","population":"92575","id":"1076232522"},{"city":"Prescott Valley","city_ascii":"Prescott Valley","lat":"34.5983","lng":"-112.3176","country":"United States","iso2":"US","iso3":"USA","admin_name":"Arizona","capital":"","population":"101539","id":"1840021772"},{"city":"Ponta Porã","city_ascii":"Ponta Pora","lat":"-22.5361","lng":"-55.7256","country":"Brazil","iso2":"BR","iso3":"BRA","admin_name":"Mato Grosso do Sul","capital":"","population":"94331","id":"1076647935"},{"city":"Pejë","city_ascii":"Peje","lat":"42.6500","lng":"20.3000","country":"Kosovo","iso2":"XK","iso3":"XKS","admin_name":"Pejë","capital":"admin","population":"96450","id":"1901339694"},{"city":"Pardubice","city_ascii":"Pardubice","lat":"50.0386","lng":"15.7792","country":"Czechia","iso2":"CZ","iso3":"CZE","admin_name":"Pardubický Kraj","capital":"admin","population":"91727","id":"1203857442"},{"city":"Panevėžys","city_ascii":"Panevezys","lat":"55.7250","lng":"24.3639","country":"Lithuania","iso2":"LT","iso3":"LTU","admin_name":"Panevėžio Miestas","capital":"admin","population":"91054","id":"1440120065"},{"city":"Poitiers","city_ascii":"Poitiers","lat":"46.5800","lng":"0.3400","country":"France","iso2":"FR","iso3":"FRA","admin_name":"Nouvelle-Aquitaine","capital":"minor","population":"88291","id":"1250812174"},{"city":"Prešov","city_ascii":"Presov","lat":"49.0000","lng":"21.2333","country":"Slovakia","iso2":"SK","iso3":"SVK","admin_name":"Prešovský","capital":"admin","population":"88680","id":"1703231427"},{"city":"Paulo Afonso","city_ascii":"Paulo Afonso","lat":"-9.3307","lng":"-38.2657","country":"Brazil","iso2":"BR","iso3":"BRA","admin_name":"Bahia","capital":"","population":"85350","id":"1076084498"},{"city":"Podujevë","city_ascii":"Podujeve","lat":"42.9167","lng":"21.2000","country":"Kosovo","iso2":"XK","iso3":"XKS","admin_name":"Podujevë","capital":"admin","population":"88499","id":"1901550082"},{"city":"Piatra Neamţ","city_ascii":"Piatra Neamt","lat":"46.9275","lng":"26.3708","country":"Romania","iso2":"RO","iso3":"ROU","admin_name":"Neamţ","capital":"admin","population":"85055","id":"1642444635"},{"city":"Pori","city_ascii":"Pori","lat":"61.4847","lng":"21.7972","country":"Finland","iso2":"FI","iso3":"FIN","admin_name":"Satakunta","capital":"admin","population":"85363","id":"1246259412"},{"city":"Puerto Maldonado","city_ascii":"Puerto Maldonado","lat":"-12.6000","lng":"-69.1833","country":"Peru","iso2":"PE","iso3":"PER","admin_name":"Madre de Dios","capital":"admin","population":"85024","id":"1604871130"},{"city":"Pazardzhik","city_ascii":"Pazardzhik","lat":"42.1892","lng":"24.3317","country":"Bulgaria","iso2":"BG","iso3":"BGR","admin_name":"Pazardzhik","capital":"admin","population":"84619","id":"1100273248"},{"city":"Pernik","city_ascii":"Pernik","lat":"42.6097","lng":"23.0308","country":"Bulgaria","iso2":"BG","iso3":"BGR","admin_name":"Pernik","capital":"admin","population":"83973","id":"1100616332"},{"city":"Phuket","city_ascii":"Phuket","lat":"7.8881","lng":"98.3975","country":"Thailand","iso2":"TH","iso3":"THA","admin_name":"Phuket","capital":"admin","population":"77610","id":"1764327831"},{"city":"Paisley","city_ascii":"Paisley","lat":"55.8466","lng":"-4.4236","country":"United Kingdom","iso2":"GB","iso3":"GBR","admin_name":"Renfrewshire","capital":"","population":"77310","id":"1826549531"},{"city":"Paysandú","city_ascii":"Paysandu","lat":"-32.3200","lng":"-58.0756","country":"Uruguay","iso2":"UY","iso3":"URY","admin_name":"Paysandú","capital":"admin","population":"76429","id":"1858756515"},{"city":"Palmerston North","city_ascii":"Palmerston North","lat":"-40.3549","lng":"175.6095","country":"New Zealand","iso2":"NZ","iso3":"NZL","admin_name":"Manawatu-Wanganui","capital":"admin","population":"80300","id":"1554138183"},{"city":"Puerto Ayacucho","city_ascii":"Puerto Ayacucho","lat":"5.6631","lng":"-67.6264","country":"Venezuela","iso2":"VE","iso3":"VEN","admin_name":"Amazonas","capital":"admin","population":"80000","id":"1862027409"},{"city":"Pau","city_ascii":"Pau","lat":"43.3000","lng":"-0.3700","country":"France","iso2":"FR","iso3":"FRA","admin_name":"Nouvelle-Aquitaine","capital":"minor","population":"77130","id":"1250041150"},{"city":"Pančevo","city_ascii":"Pancevo","lat":"44.8739","lng":"20.6519","country":"Serbia","iso2":"RS","iso3":"SRB","admin_name":"Pančevo","capital":"admin","population":"76203","id":"1688356974"},{"city":"Paracatu","city_ascii":"Paracatu","lat":"-17.2217","lng":"-46.8750","country":"Brazil","iso2":"BR","iso3":"BRA","admin_name":"Minas Gerais","capital":"","population":"70753","id":"1076347421"},{"city":"Pine Hills","city_ascii":"Pine Hills","lat":"28.5818","lng":"-81.4693","country":"United States","iso2":"US","iso3":"USA","admin_name":"Florida","capital":"","population":"75575","id":"1840014098"},{"city":"Prey Veng","city_ascii":"Prey Veng","lat":"11.4840","lng":"105.3240","country":"Cambodia","iso2":"KH","iso3":"KHM","admin_name":"Prey Veng","capital":"admin","population":"74000","id":"1116378797"},{"city":"Parintins","city_ascii":"Parintins","lat":"-2.6100","lng":"-56.7400","country":"Brazil","iso2":"BR","iso3":"BRA","admin_name":"Amazonas","capital":"","population":"64428","id":"1076090375"},{"city":"Pôrto União","city_ascii":"Porto Uniao","lat":"-26.2396","lng":"-51.0800","country":"Brazil","iso2":"BR","iso3":"BRA","admin_name":"Santa Catarina","capital":"","population":"71578","id":"1076057988"},{"city":"Pawtucket","city_ascii":"Pawtucket","lat":"41.8744","lng":"-71.3743","country":"United States","iso2":"US","iso3":"USA","admin_name":"Rhode Island","capital":"","population":"72117","id":"1840003285"},{"city":"Phitsanulok","city_ascii":"Phitsanulok","lat":"16.8158","lng":"100.2636","country":"Thailand","iso2":"TH","iso3":"THA","admin_name":"Phitsanulok","capital":"admin","population":"70871","id":"1764140981"},{"city":"Passaic","city_ascii":"Passaic","lat":"40.8574","lng":"-74.1282","country":"United States","iso2":"US","iso3":"USA","admin_name":"New Jersey","capital":"","population":"69703","id":"1840000837"},{"city":"Putrajaya","city_ascii":"Putrajaya","lat":"2.9140","lng":"101.7019","country":"Malaysia","iso2":"MY","iso3":"MYS","admin_name":"Putrajaya","capital":"admin","population":"67964","id":"1458000206"},{"city":"Playas de Rosarito","city_ascii":"Playas de Rosarito","lat":"32.3422","lng":"-117.0561","country":"Mexico","iso2":"MX","iso3":"MEX","admin_name":"Baja California","capital":"minor","population":"65278","id":"1484522993"},{"city":"Ponta Delgada","city_ascii":"Ponta Delgada","lat":"37.7400","lng":"-25.6700","country":"Portugal","iso2":"PT","iso3":"PRT","admin_name":"Azores","capital":"admin","population":"68809","id":"1620456537"},{"city":"Pantin","city_ascii":"Pantin","lat":"48.8966","lng":"2.4017","country":"France","iso2":"FR","iso3":"FRA","admin_name":"Île-de-France","capital":"","population":"57482","id":"1250209071"},{"city":"Picos","city_ascii":"Picos","lat":"-7.0769","lng":"-41.4669","country":"Brazil","iso2":"BR","iso3":"BRA","admin_name":"Piauí","capital":"","population":"57495","id":"1076752928"},{"city":"Potenza","city_ascii":"Potenza","lat":"40.6333","lng":"15.8000","country":"Italy","iso2":"IT","iso3":"ITA","admin_name":"Basilicata","capital":"admin","population":"67211","id":"1380649430"},{"city":"Prilep","city_ascii":"Prilep","lat":"41.3464","lng":"21.5542","country":"Macedonia","iso2":"MK","iso3":"MKD","admin_name":"Prilep","capital":"admin","population":"66817","id":"1807551778"},{"city":"Pruszków","city_ascii":"Pruszkow","lat":"52.1667","lng":"20.8000","country":"Poland","iso2":"PL","iso3":"POL","admin_name":"Mazowieckie","capital":"minor","population":"61237","id":"1616154673"},{"city":"Pirapora","city_ascii":"Pirapora","lat":"-17.3450","lng":"-44.9419","country":"Brazil","iso2":"BR","iso3":"BRA","admin_name":"Minas Gerais","capital":"","population":"60164","id":"1076124834"},{"city":"Puerto Limón","city_ascii":"Puerto Limon","lat":"10.0022","lng":"-83.0840","country":"Costa Rica","iso2":"CR","iso3":"CRI","admin_name":"Limón","capital":"admin","population":"61072","id":"1188214393"},{"city":"Pico Rivera","city_ascii":"Pico Rivera","lat":"33.9902","lng":"-118.0888","country":"United States","iso2":"US","iso3":"USA","admin_name":"California","capital":"","population":"62027","id":"1840020506"},{"city":"Portugalete","city_ascii":"Portugalete","lat":"43.3194","lng":"-3.0196","country":"Spain","iso2":"ES","iso3":"ESP","admin_name":"Basque Country","capital":"","population":"45766","id":"1724017694"},{"city":"Puteaux","city_ascii":"Puteaux","lat":"48.8850","lng":"2.2389","country":"France","iso2":"FR","iso3":"FRA","admin_name":"Île-de-France","capital":"","population":"44645","id":"1250407425"},{"city":"Port Coquitlam","city_ascii":"Port Coquitlam","lat":"49.2625","lng":"-122.7811","country":"Canada","iso2":"CA","iso3":"CAN","admin_name":"British Columbia","capital":"","population":"58612","id":"1124473757"},{"city":"Pithāpuram","city_ascii":"Pithapuram","lat":"17.1167","lng":"82.2667","country":"India","iso2":"IN","iso3":"IND","admin_name":"Andhra Pradesh","capital":"","population":"54859","id":"1356440541"},{"city":"Phra Nakhon Si Ayutthaya","city_ascii":"Phra Nakhon Si Ayutthaya","lat":"14.3550","lng":"100.5650","country":"Thailand","iso2":"TH","iso3":"THA","admin_name":"Phra Nakhon Si Ayutthaya","capital":"admin","population":"52952","id":"1764002329"},{"city":"Ponte Nova","city_ascii":"Ponte Nova","lat":"-20.4164","lng":"-42.9086","country":"Brazil","iso2":"BR","iso3":"BRA","admin_name":"Minas Gerais","capital":"","population":"48187","id":"1076567178"},{"city":"Paignton","city_ascii":"Paignton","lat":"50.4353","lng":"-3.5625","country":"United Kingdom","iso2":"GB","iso3":"GBR","admin_name":"Devon","capital":"","population":"49021","id":"1826935894"},{"city":"Padangpanjang","city_ascii":"Padangpanjang","lat":"-0.4500","lng":"100.4167","country":"Indonesia","iso2":"ID","iso3":"IDN","admin_name":"Sumatera Barat","capital":"","population":"52422","id":"1360231049"},{"city":"Prachuap Khiri Khan","city_ascii":"Prachuap Khiri Khan","lat":"11.8067","lng":"99.7956","country":"Thailand","iso2":"TH","iso3":"THA","admin_name":"Prachuap Khiri Khan","capital":"admin","population":"54018","id":"1764877766"},{"city":"Paramount","city_ascii":"Paramount","lat":"33.8976","lng":"-118.1652","country":"United States","iso2":"US","iso3":"USA","admin_name":"California","capital":"","population":"53955","id":"1840020504"},{"city":"Pursat","city_ascii":"Pursat","lat":"12.5337","lng":"103.9167","country":"Cambodia","iso2":"KH","iso3":"KHM","admin_name":"Pursat","capital":"admin","population":"52476","id":"1116566865"},{"city":"Pen-y-Bont ar Ogwr","city_ascii":"Pen-y-Bont ar Ogwr","lat":"51.5072","lng":"-3.5784","country":"United Kingdom","iso2":"GB","iso3":"GBR","admin_name":"Bridgend","capital":"","population":"49404","id":"1826587515"},{"city":"Perth Amboy","city_ascii":"Perth Amboy","lat":"40.5203","lng":"-74.2724","country":"United States","iso2":"US","iso3":"USA","admin_name":"New Jersey","capital":"","population":"51390","id":"1840001340"},{"city":"Placentia","city_ascii":"Placentia","lat":"33.8807","lng":"-117.8553","country":"United States","iso2":"US","iso3":"USA","admin_name":"California","capital":"","population":"51233","id":"1840020583"},{"city":"Puttalam","city_ascii":"Puttalam","lat":"8.0330","lng":"79.8260","country":"Sri Lanka","iso2":"LK","iso3":"LKA","admin_name":"North Western","capital":"","population":"45661","id":"1144219740"},{"city":"Plainfield","city_ascii":"Plainfield","lat":"40.6154","lng":"-74.4157","country":"United States","iso2":"US","iso3":"USA","admin_name":"New Jersey","capital":"","population":"50317","id":"1840001090"},{"city":"Perth","city_ascii":"Perth","lat":"56.3970","lng":"-3.4370","country":"United Kingdom","iso2":"GB","iso3":"GBR","admin_name":"Perth and Kinross","capital":"","population":"46960","id":"1826081674"},{"city":"Piripiri","city_ascii":"Piripiri","lat":"-4.2733","lng":"-41.7769","country":"Brazil","iso2":"BR","iso3":"BRA","admin_name":"Piauí","capital":"","population":"44864","id":"1076867493"},{"city":"Puerto Escondido","city_ascii":"Puerto Escondido","lat":"15.8619","lng":"-97.0672","country":"Mexico","iso2":"MX","iso3":"MEX","admin_name":"Oaxaca","capital":"","population":"45000","id":"1484644846"},{"city":"Parras de la Fuente","city_ascii":"Parras de la Fuente","lat":"25.4403","lng":"-102.1792","country":"Mexico","iso2":"MX","iso3":"MEX","admin_name":"Coahuila de Zaragoza","capital":"minor","population":"45423","id":"1484273682"},{"city":"Penedo","city_ascii":"Penedo","lat":"-10.2903","lng":"-36.5864","country":"Brazil","iso2":"BR","iso3":"BRA","admin_name":"Alagoas","capital":"","population":"42097","id":"1076906021"},{"city":"Pattani","city_ascii":"Pattani","lat":"6.8664","lng":"101.2508","country":"Thailand","iso2":"TH","iso3":"THA","admin_name":"Pattani","capital":"admin","population":"44234","id":"1764277891"},{"city":"Pénjamo","city_ascii":"Penjamo","lat":"20.4311","lng":"-101.7222","country":"Mexico","iso2":"MX","iso3":"MEX","admin_name":"Guanajuato","capital":"minor","population":"40076","id":"1484131107"},{"city":"Pinneberg","city_ascii":"Pinneberg","lat":"53.6591","lng":"9.8009","country":"Germany","iso2":"DE","iso3":"DEU","admin_name":"Schleswig-Holstein","capital":"minor","population":"43280","id":"1276865707"},{"city":"Palmeira dos Índios","city_ascii":"Palmeira dos Indios","lat":"-9.4166","lng":"-36.6166","country":"Brazil","iso2":"BR","iso3":"BRA","admin_name":"Alagoas","capital":"","population":"41095","id":"1076723276"},{"city":"Pinheiro","city_ascii":"Pinheiro","lat":"-2.5196","lng":"-45.0900","country":"Brazil","iso2":"BR","iso3":"BRA","admin_name":"Maranhão","capital":"","population":"38893","id":"1076349995"},{"city":"Paracho de Verduzco","city_ascii":"Paracho de Verduzco","lat":"19.6500","lng":"-102.0667","country":"Mexico","iso2":"MX","iso3":"MEX","admin_name":"Michoacán de Ocampo","capital":"","population":"37464","id":"1484536308"},{"city":"Perote","city_ascii":"Perote","lat":"19.5620","lng":"-97.2420","country":"Mexico","iso2":"MX","iso3":"MEX","admin_name":"Veracruz","capital":"minor","population":"37516","id":"1484668149"},{"city":"Port Talbot","city_ascii":"Port Talbot","lat":"51.5906","lng":"-3.7986","country":"United Kingdom","iso2":"GB","iso3":"GBR","admin_name":"Neath Port Talbot","capital":"","population":"37276","id":"1826981147"},{"city":"Puntarenas","city_ascii":"Puntarenas","lat":"9.9764","lng":"-84.8339","country":"Costa Rica","iso2":"CR","iso3":"CRI","admin_name":"Puntarenas","capital":"admin","population":"41528","id":"1188639267"},{"city":"Palayan City","city_ascii":"Palayan City","lat":"15.5333","lng":"121.0833","country":"Philippines","iso2":"PH","iso3":"PHL","admin_name":"Nueva Ecija","capital":"admin","population":"41041","id":"1608192136"},{"city":"Puerto Francisco de Orellana","city_ascii":"Puerto Francisco de Orellana","lat":"-0.4625","lng":"-76.9842","country":"Ecuador","iso2":"EC","iso3":"ECU","admin_name":"Orellana","capital":"admin","population":"40730","id":"1218387446"},{"city":"Panaji","city_ascii":"Panaji","lat":"15.4800","lng":"73.8300","country":"India","iso2":"IN","iso3":"IND","admin_name":"Goa","capital":"admin","population":"40017","id":"1356909212"},{"city":"Pärnu","city_ascii":"Parnu","lat":"58.3844","lng":"24.4989","country":"Estonia","iso2":"EE","iso3":"EST","admin_name":"Pärnumaa","capital":"admin","population":"39438","id":"1233955054"},{"city":"Poissy","city_ascii":"Poissy","lat":"48.9294","lng":"2.0456","country":"France","iso2":"FR","iso3":"FRA","admin_name":"Île-de-France","capital":"","population":"37388","id":"1250776265"},{"city":"Pont-y-pŵl","city_ascii":"Pont-y-pwl","lat":"51.7030","lng":"-3.0410","country":"United Kingdom","iso2":"GB","iso3":"GBR","admin_name":"Torfaen","capital":"","population":"35447","id":"1826931206"},{"city":"Port-de-Paix","city_ascii":"Port-de-Paix","lat":"19.9318","lng":"-72.8295","country":"Haiti","iso2":"HT","iso3":"HTI","admin_name":"Nord-Ouest","capital":"admin","population":"34657","id":"1332536650"},{"city":"Pánuco","city_ascii":"Panuco","lat":"22.0500","lng":"-98.1833","country":"Mexico","iso2":"MX","iso3":"MEX","admin_name":"Veracruz","capital":"minor","population":"33122","id":"1484059135"},{"city":"Palaiseau","city_ascii":"Palaiseau","lat":"48.7145","lng":"2.2457","country":"France","iso2":"FR","iso3":"FRA","admin_name":"Île-de-France","capital":"minor","population":"35514","id":"1250731865"},{"city":"Paphos","city_ascii":"Paphos","lat":"34.7761","lng":"32.4265","country":"Cyprus","iso2":"CY","iso3":"CYP","admin_name":"Páfos","capital":"admin","population":"35961","id":"1196607408"},{"city":"Pierrefitte-sur-Seine","city_ascii":"Pierrefitte-sur-Seine","lat":"48.9656","lng":"2.3614","country":"France","iso2":"FR","iso3":"FRA","admin_name":"Île-de-France","capital":"","population":"30306","id":"1250320498"},{"city":"Prijepolje","city_ascii":"Prijepolje","lat":"43.5439","lng":"19.6514","country":"Serbia","iso2":"RS","iso3":"SRB","admin_name":"Prijepolje","capital":"admin","population":"37059","id":"1688287067"},{"city":"Park Ridge","city_ascii":"Park Ridge","lat":"42.0125","lng":"-87.8436","country":"United States","iso2":"US","iso3":"USA","admin_name":"Illinois","capital":"","population":"36950","id":"1840009183"},{"city":"Pinner","city_ascii":"Pinner","lat":"51.5932","lng":"-0.3894","country":"United Kingdom","iso2":"GB","iso3":"GBR","admin_name":"Harrow","capital":"","population":"31130","id":"1826466478"},{"city":"Paso de Ovejas","city_ascii":"Paso de Ovejas","lat":"19.2850","lng":"-96.4400","country":"Mexico","iso2":"MX","iso3":"MEX","admin_name":"Veracruz","capital":"minor","population":"33392","id":"1484005936"},{"city":"Pontypridd","city_ascii":"Pontypridd","lat":"51.6020","lng":"-3.3420","country":"United Kingdom","iso2":"GB","iso3":"GBR","admin_name":"Rhondda Cynon Taff","capital":"","population":"32694","id":"1826842541"},{"city":"Prestwich","city_ascii":"Prestwich","lat":"53.5333","lng":"-2.2833","country":"United Kingdom","iso2":"GB","iso3":"GBR","admin_name":"Bury","capital":"","population":"31693","id":"1826921530"},{"city":"Paranaíba","city_ascii":"Paranaiba","lat":"-19.6772","lng":"-51.1908","country":"Brazil","iso2":"BR","iso3":"BRA","admin_name":"Mato Grosso do Sul","capital":"","population":"32217","id":"1076355277"},{"city":"Phatthalung","city_ascii":"Phatthalung","lat":"7.6178","lng":"100.0778","country":"Thailand","iso2":"TH","iso3":"THA","admin_name":"Phatthalung","capital":"admin","population":"35039","id":"1764240863"},{"city":"Pabellón de Arteaga","city_ascii":"Pabellon de Arteaga","lat":"22.1500","lng":"-102.2667","country":"Mexico","iso2":"MX","iso3":"MEX","admin_name":"Aguascalientes","capital":"minor","population":"28633","id":"1484799033"},{"city":"Pontoise","city_ascii":"Pontoise","lat":"49.0516","lng":"2.1017","country":"France","iso2":"FR","iso3":"FRA","admin_name":"Île-de-France","capital":"","population":"30767","id":"1250247527"},{"city":"Pontefract","city_ascii":"Pontefract","lat":"53.6910","lng":"-1.3120","country":"United Kingdom","iso2":"GB","iso3":"GBR","admin_name":"Wakefield","capital":"","population":"30881","id":"1826127611"},{"city":"Plympton","city_ascii":"Plympton","lat":"50.3860","lng":"-4.0510","country":"United Kingdom","iso2":"GB","iso3":"GBR","admin_name":"Plymouth","capital":"","population":"29899","id":"1826807244"},{"city":"Presidente Dutra","city_ascii":"Presidente Dutra","lat":"-5.2900","lng":"-44.4900","country":"Brazil","iso2":"BR","iso3":"BRA","admin_name":"Alagoas","capital":"","population":"30330","id":"1076660845"},{"city":"Pilar","city_ascii":"Pilar","lat":"-26.8569","lng":"-58.3039","country":"Paraguay","iso2":"PY","iso3":"PRY","admin_name":"Ñeembucú","capital":"admin","population":"32810","id":"1600377954"},{"city":"Périgueux","city_ascii":"Perigueux","lat":"45.1929","lng":"0.7217","country":"France","iso2":"FR","iso3":"FRA","admin_name":"Nouvelle-Aquitaine","capital":"minor","population":"29966","id":"1250864403"},{"city":"Perry Barr","city_ascii":"Perry Barr","lat":"52.5249","lng":"-1.9042","country":"United Kingdom","iso2":"GB","iso3":"GBR","admin_name":"Birmingham","capital":"","population":"23652","id":"1826464543"},{"city":"Parkville","city_ascii":"Parkville","lat":"39.3832","lng":"-76.5519","country":"United States","iso2":"US","iso3":"USA","admin_name":"Maryland","capital":"","population":"31633","id":"1840005685"},{"city":"Pallisa","city_ascii":"Pallisa","lat":"1.1450","lng":"33.7094","country":"Uganda","iso2":"UG","iso3":"UGA","admin_name":"Pallisa","capital":"admin","population":"30745","id":"1800214906"},{"city":"Péfki","city_ascii":"Pefki","lat":"38.0667","lng":"23.8000","country":"Greece","iso2":"GR","iso3":"GRC","admin_name":"Attikí","capital":"minor","population":"21415","id":"1300609636"},{"city":"Pando","city_ascii":"Pando","lat":"-34.7167","lng":"-55.9583","country":"Uruguay","iso2":"UY","iso3":"URY","admin_name":"Canelones","capital":"","population":"25949","id":"1858276269"},{"city":"Pljevlja","city_ascii":"Pljevlja","lat":"43.3566","lng":"19.3502","country":"Montenegro","iso2":"ME","iso3":"MNE","admin_name":"Pljevlja","capital":"admin","population":"30786","id":"1499255431"},{"city":"Portel","city_ascii":"Portel","lat":"-1.9500","lng":"-50.8200","country":"Brazil","iso2":"BR","iso3":"BRA","admin_name":"Pará","capital":"","population":"21315","id":"1076977846"},{"city":"Port Chester","city_ascii":"Port Chester","lat":"41.0052","lng":"-73.6680","country":"United States","iso2":"US","iso3":"USA","admin_name":"New York","capital":"","population":"29163","id":"1840004941"},{"city":"Penonomé","city_ascii":"Penonome","lat":"8.5100","lng":"-80.3600","country":"Panama","iso2":"PA","iso3":"PAN","admin_name":"Coclé","capital":"admin","population":"28766","id":"1591602960"},{"city":"Pimenta Bueno","city_ascii":"Pimenta Bueno","lat":"-11.6400","lng":"-61.2100","country":"Brazil","iso2":"BR","iso3":"BRA","admin_name":"Rondônia","capital":"","population":"25762","id":"1076267246"},{"city":"Pires do Rio","city_ascii":"Pires do Rio","lat":"-17.2995","lng":"-48.2800","country":"Brazil","iso2":"BR","iso3":"BRA","admin_name":"Goiás","capital":"","population":"24822","id":"1076357135"},{"city":"Popondetta","city_ascii":"Popondetta","lat":"-8.7656","lng":"148.2347","country":"Papua New Guinea","iso2":"PG","iso3":"PNG","admin_name":"Northern","capital":"admin","population":"28198","id":"1598887925"},{"city":"Penarth","city_ascii":"Penarth","lat":"51.4300","lng":"-3.1700","country":"United Kingdom","iso2":"GB","iso3":"GBR","admin_name":"Vale of Glamorgan, The","capital":"","population":"22083","id":"1826447166"},{"city":"Portishead","city_ascii":"Portishead","lat":"51.4840","lng":"-2.7626","country":"United Kingdom","iso2":"GB","iso3":"GBR","admin_name":"North Somerset","capital":"","population":"25000","id":"1826099661"},{"city":"Piastów","city_ascii":"Piastow","lat":"52.1833","lng":"20.8500","country":"Poland","iso2":"PL","iso3":"POL","admin_name":"Mazowieckie","capital":"","population":"23332","id":"1616118197"},{"city":"Priboj","city_ascii":"Priboj","lat":"43.5816","lng":"19.5273","country":"Serbia","iso2":"RS","iso3":"SRB","admin_name":"Priboj","capital":"admin","population":"27133","id":"1688522811"},{"city":"Penwortham","city_ascii":"Penwortham","lat":"53.7400","lng":"-2.7200","country":"United Kingdom","iso2":"GB","iso3":"GBR","admin_name":"Lancashire","capital":"","population":"23047","id":"1826104107"},{"city":"Penistone","city_ascii":"Penistone","lat":"53.5250","lng":"-1.6290","country":"United Kingdom","iso2":"GB","iso3":"GBR","admin_name":"Barnsley","capital":"","population":"22909","id":"1826205951"},{"city":"Puyo","city_ascii":"Puyo","lat":"-1.4830","lng":"-77.9870","country":"Ecuador","iso2":"EC","iso3":"ECU","admin_name":"Pastaza","capital":"admin","population":"24881","id":"1218537461"},{"city":"Paracuru","city_ascii":"Paracuru","lat":"-3.3995","lng":"-39.0400","country":"Brazil","iso2":"BR","iso3":"BRA","admin_name":"Ceará","capital":"","population":"21196","id":"1076591278"},{"city":"Palm Springs","city_ascii":"Palm Springs","lat":"26.6349","lng":"-80.0968","country":"United States","iso2":"US","iso3":"USA","admin_name":"Florida","capital":"","population":"25216","id":"1840018308"},{"city":"Portalegre","city_ascii":"Portalegre","lat":"39.3167","lng":"-7.4167","country":"Portugal","iso2":"PT","iso3":"PRT","admin_name":"Portalegre","capital":"admin","population":"24930","id":"1620475518"},{"city":"Ptuj","city_ascii":"Ptuj","lat":"46.4186","lng":"15.8714","country":"Slovenia","iso2":"SI","iso3":"SVN","admin_name":"Ptuj","capital":"admin","population":"23957","id":"1705072535"},{"city":"Palmers Green","city_ascii":"Palmers Green","lat":"51.6178","lng":"-0.1092","country":"United Kingdom","iso2":"GB","iso3":"GBR","admin_name":"Enfield","capital":"","population":"15162","id":"1826526694"},{"city":"Plumstead","city_ascii":"Plumstead","lat":"51.4900","lng":"0.0900","country":"United Kingdom","iso2":"GB","iso3":"GBR","admin_name":"Greenwich","capital":"","population":"16736","id":"1826276603"},{"city":"Peekskill","city_ascii":"Peekskill","lat":"41.2883","lng":"-73.9227","country":"United States","iso2":"US","iso3":"USA","admin_name":"New York","capital":"","population":"24295","id":"1840000783"},{"city":"Palm Tree","city_ascii":"Palm Tree","lat":"41.3411","lng":"-74.1667","country":"United States","iso2":"US","iso3":"USA","admin_name":"New York","capital":"","population":"23744","id":"1840141656"},{"city":"Phetchaburi","city_ascii":"Phetchaburi","lat":"13.1119","lng":"99.9458","country":"Thailand","iso2":"TH","iso3":"THA","admin_name":"Phetchaburi","capital":"admin","population":"23235","id":"1764000534"},{"city":"Peterlee","city_ascii":"Peterlee","lat":"54.7600","lng":"-1.3300","country":"United Kingdom","iso2":"GB","iso3":"GBR","admin_name":"Durham","capital":"","population":"20164","id":"1826513639"},{"city":"Penzance","city_ascii":"Penzance","lat":"50.1190","lng":"-5.5370","country":"United Kingdom","iso2":"GB","iso3":"GBR","admin_name":"Cornwall","capital":"","population":"21200","id":"1826600240"},{"city":"Peto","city_ascii":"Peto","lat":"20.1256","lng":"-88.9214","country":"Mexico","iso2":"MX","iso3":"MEX","admin_name":"Yucatán","capital":"","population":"19821","id":"1484013411"},{"city":"Prestatyn","city_ascii":"Prestatyn","lat":"53.3310","lng":"-3.4050","country":"United Kingdom","iso2":"GB","iso3":"GBR","admin_name":"Denbighshire","capital":"","population":"18849","id":"1826727642"},{"city":"Phichit","city_ascii":"Phichit","lat":"16.4431","lng":"100.3467","country":"Thailand","iso2":"TH","iso3":"THA","admin_name":"Phichit","capital":"admin","population":"22299","id":"1764024236"},{"city":"Phetchabun","city_ascii":"Phetchabun","lat":"16.4169","lng":"101.1533","country":"Thailand","iso2":"TH","iso3":"THA","admin_name":"Phetchabun","capital":"admin","population":"22121","id":"1764518331"},{"city":"Pully","city_ascii":"Pully","lat":"46.5167","lng":"6.6667","country":"Switzerland","iso2":"CH","iso3":"CHE","admin_name":"Vaud","capital":"","population":"18313","id":"1756456471"},{"city":"Patcham","city_ascii":"Patcham","lat":"50.8640","lng":"-0.1500","country":"United Kingdom","iso2":"GB","iso3":"GBR","admin_name":"Brighton and Hove","capital":"","population":"14277","id":"1826835720"},{"city":"Palisades Park","city_ascii":"Palisades Park","lat":"40.8472","lng":"-73.9967","country":"United States","iso2":"US","iso3":"USA","admin_name":"New Jersey","capital":"","population":"20715","id":"1840000915"},{"city":"Palau","city_ascii":"Palau","lat":"27.9167","lng":"-101.4167","country":"Mexico","iso2":"MX","iso3":"MEX","admin_name":"Coahuila de Zaragoza","capital":"","population":"16133","id":"1484142037"},{"city":"Porthcawl","city_ascii":"Porthcawl","lat":"51.4800","lng":"-3.6900","country":"United Kingdom","iso2":"GB","iso3":"GBR","admin_name":"Bridgend","capital":"","population":"16005","id":"1826674732"},{"city":"Phra Pradaeng","city_ascii":"Phra Pradaeng","lat":"13.6590","lng":"100.5329","country":"Thailand","iso2":"TH","iso3":"THA","admin_name":"Samut Prakan","capital":"minor","population":"10190","id":"1764849819"},{"city":"Partick","city_ascii":"Partick","lat":"55.8699","lng":"-4.3125","country":"United Kingdom","iso2":"GB","iso3":"GBR","admin_name":"Glasgow City","capital":"","population":"8884","id":"1826598697"},{"city":"Pemberton","city_ascii":"Pemberton","lat":"53.5360","lng":"-2.6738","country":"United Kingdom","iso2":"GB","iso3":"GBR","admin_name":"Wigan","capital":"","population":"13982","id":"1826584870"},{"city":"Paraguarí","city_ascii":"Paraguari","lat":"-25.6200","lng":"-57.1600","country":"Paraguay","iso2":"PY","iso3":"PRY","admin_name":"Paraguarí","capital":"admin","population":"18881","id":"1600581132"},{"city":"Puréparo de Echaíz","city_ascii":"Pureparo de Echaiz","lat":"19.9000","lng":"-102.0000","country":"Mexico","iso2":"MX","iso3":"MEX","admin_name":"Michoacán de Ocampo","capital":"","population":"15255","id":"1484222410"},{"city":"Prestwick","city_ascii":"Prestwick","lat":"55.4956","lng":"-4.6142","country":"United Kingdom","iso2":"GB","iso3":"GBR","admin_name":"South Ayrshire","capital":"","population":"14750","id":"1826710421"},{"city":"Point Pleasant","city_ascii":"Point Pleasant","lat":"40.0772","lng":"-74.0702","country":"United States","iso2":"US","iso3":"USA","admin_name":"New Jersey","capital":"","population":"18772","id":"1840001485"},{"city":"Pakwach","city_ascii":"Pakwach","lat":"2.4500","lng":"31.5000","country":"Uganda","iso2":"UG","iso3":"UGA","admin_name":"Nebbi","capital":"admin","population":"17541","id":"1800204374"},{"city":"Pedreiras","city_ascii":"Pedreiras","lat":"-4.5696","lng":"-44.6700","country":"Brazil","iso2":"BR","iso3":"BRA","admin_name":"Maranhão","capital":"","population":"13638","id":"1076527878"},{"city":"Pendlebury","city_ascii":"Pendlebury","lat":"53.5075","lng":"-2.3154","country":"United Kingdom","iso2":"GB","iso3":"GBR","admin_name":"Salford","capital":"","population":"13069","id":"1826555461"},{"city":"Prachin Buri","city_ascii":"Prachin Buri","lat":"14.0567","lng":"101.3739","country":"Thailand","iso2":"TH","iso3":"THA","admin_name":"Prachin Buri","capital":"admin","population":"17768","id":"1764262472"},{"city":"Plungė","city_ascii":"Plunge","lat":"55.9167","lng":"21.8500","country":"Lithuania","iso2":"LT","iso3":"LTU","admin_name":"Plungė","capital":"admin","population":"18042","id":"1440542185"},{"city":"Prilly","city_ascii":"Prilly","lat":"46.5333","lng":"6.6000","country":"Switzerland","iso2":"CH","iso3":"CHE","admin_name":"Vaud","capital":"","population":"12399","id":"1756590980"},{"city":"Piran","city_ascii":"Piran","lat":"45.5271","lng":"13.5685","country":"Slovenia","iso2":"SI","iso3":"SVN","admin_name":"Piran","capital":"admin","population":"17491","id":"1705085466"},{"city":"Perivale","city_ascii":"Perivale","lat":"51.5383","lng":"-0.3192","country":"United Kingdom","iso2":"GB","iso3":"GBR","admin_name":"Ealing","capital":"","population":"15339","id":"1826877417"},{"city":"Puerto Ayora","city_ascii":"Puerto Ayora","lat":"-0.7444","lng":"-90.3139","country":"Ecuador","iso2":"EC","iso3":"ECU","admin_name":"Galápagos","capital":"","population":"11822","id":"1218585265"},{"city":"Phayao","city_ascii":"Phayao","lat":"19.1653","lng":"99.9036","country":"Thailand","iso2":"TH","iso3":"THA","admin_name":"Phayao","capital":"admin","population":"17467","id":"1764291128"},{"city":"Pinewood","city_ascii":"Pinewood","lat":"25.8697","lng":"-80.2174","country":"United States","iso2":"US","iso3":"USA","admin_name":"Florida","capital":"","population":"17027","id":"1840029066"},{"city":"Phrae","city_ascii":"Phrae","lat":"18.1436","lng":"100.1417","country":"Thailand","iso2":"TH","iso3":"THA","admin_name":"Phrae","capital":"admin","population":"16668","id":"1764209592"},{"city":"Puerto Carreño","city_ascii":"Puerto Carreno","lat":"6.1889","lng":"-67.4858","country":"Colombia","iso2":"CO","iso3":"COL","admin_name":"Vichada","capital":"admin","population":"16763","id":"1170291142"},{"city":"Pathum Thani","city_ascii":"Pathum Thani","lat":"13.9841","lng":"100.5512","country":"Thailand","iso2":"TH","iso3":"THA","admin_name":"Pathum Thani","capital":"admin","population":"13987","id":"1764434288"},{"city":"Palmetto Estates","city_ascii":"Palmetto Estates","lat":"25.6211","lng":"-80.3616","country":"United States","iso2":"US","iso3":"USA","admin_name":"Florida","capital":"","population":"15970","id":"1840029063"},{"city":"Pelsall","city_ascii":"Pelsall","lat":"52.6310","lng":"-1.9720","country":"United Kingdom","iso2":"GB","iso3":"GBR","admin_name":"Walsall","capital":"","population":"11505","id":"1826666565"},{"city":"Parkway","city_ascii":"Parkway","lat":"38.4993","lng":"-121.4520","country":"United States","iso2":"US","iso3":"USA","admin_name":"California","capital":"","population":"15885","id":"1840024628"},{"city":"Peshkopi","city_ascii":"Peshkopi","lat":"41.6831","lng":"20.4289","country":"Albania","iso2":"AL","iso3":"ALB","admin_name":"Dibër","capital":"admin","population":"13251","id":"1008412550"},{"city":"Parlier","city_ascii":"Parlier","lat":"36.6087","lng":"-119.5434","country":"United States","iso2":"US","iso3":"USA","admin_name":"California","capital":"","population":"15613","id":"1840020323"},{"city":"Palanga","city_ascii":"Palanga","lat":"55.9167","lng":"21.0639","country":"Lithuania","iso2":"LT","iso3":"LTU","admin_name":"Palangos Miestas","capital":"admin","population":"15381","id":"1440868798"},{"city":"Pacific Grove","city_ascii":"Pacific Grove","lat":"36.6192","lng":"-121.9255","country":"United States","iso2":"US","iso3":"USA","admin_name":"California","capital":"","population":"15413","id":"1840020359"},{"city":"Paro","city_ascii":"Paro","lat":"27.4333","lng":"89.4167","country":"Bhutan","iso2":"BT","iso3":"BTN","admin_name":"Paro","capital":"admin","population":"15000","id":"1064216277"},{"city":"Phôngsali","city_ascii":"Phongsali","lat":"21.6836","lng":"102.1053","country":"Laos","iso2":"LA","iso3":"LAO","admin_name":"Phôngsali","capital":"admin","population":"15083","id":"1418524729"},{"city":"Parkstone","city_ascii":"Parkstone","lat":"50.7100","lng":"-1.9500","country":"United Kingdom","iso2":"GB","iso3":"GBR","admin_name":"Poole","capital":"","population":"10779","id":"1826119514"},{"city":"Prescot","city_ascii":"Prescot","lat":"53.4220","lng":"-2.8140","country":"United Kingdom","iso2":"GB","iso3":"GBR","admin_name":"Knowsley","capital":"","population":"11184","id":"1826329091"},{"city":"Pierre","city_ascii":"Pierre","lat":"44.3748","lng":"-100.3205","country":"United States","iso2":"US","iso3":"USA","admin_name":"South Dakota","capital":"admin","population":"14659","id":"1840000313"},{"city":"Pincourt","city_ascii":"Pincourt","lat":"45.3833","lng":"-73.9833","country":"Canada","iso2":"CA","iso3":"CAN","admin_name":"Quebec","capital":"","population":"14558","id":"1124637966"},{"city":"Port Antonio","city_ascii":"Port Antonio","lat":"18.1667","lng":"-76.4500","country":"Jamaica","iso2":"JM","iso3":"JAM","admin_name":"Portland","capital":"admin","population":"14400","id":"1388024275"},{"city":"Plav","city_ascii":"Plav","lat":"42.5956","lng":"19.9450","country":"Montenegro","iso2":"ME","iso3":"MNE","admin_name":"Plav","capital":"admin","population":"13805","id":"1499247875"},{"city":"Princeton Meadows","city_ascii":"Princeton Meadows","lat":"40.3332","lng":"-74.5628","country":"United States","iso2":"US","iso3":"USA","admin_name":"New Jersey","capital":"","population":"13438","id":"1840033474"},{"city":"Platón Sánchez","city_ascii":"Platon Sanchez","lat":"21.2833","lng":"-98.3667","country":"Mexico","iso2":"MX","iso3":"MEX","admin_name":"Veracruz","capital":"minor","population":"10009","id":"1484193492"},{"city":"Pajacuarán","city_ascii":"Pajacuaran","lat":"20.1178","lng":"-102.5667","country":"Mexico","iso2":"MX","iso3":"MEX","admin_name":"Michoacán de Ocampo","capital":"minor","population":"10014","id":"1484044014"},{"city":"Pelham","city_ascii":"Pelham","lat":"40.9000","lng":"-73.8064","country":"United States","iso2":"US","iso3":"USA","admin_name":"New York","capital":"","population":"12544","id":"1840004938"},{"city":"Patchogue","city_ascii":"Patchogue","lat":"40.7621","lng":"-73.0185","country":"United States","iso2":"US","iso3":"USA","admin_name":"New York","capital":"","population":"12321","id":"1840005129"},{"city":"Porto Nacional","city_ascii":"Porto Nacional","lat":"-10.7000","lng":"-48.4199","country":"Brazil","iso2":"BR","iso3":"BRA","admin_name":"Tocantins","capital":"","population":"9129","id":"1076043090"},{"city":"Piedmont","city_ascii":"Piedmont","lat":"37.8226","lng":"-122.2300","country":"United States","iso2":"US","iso3":"USA","admin_name":"California","capital":"","population":"11135","id":"1840020297"},{"city":"Pyle","city_ascii":"Pyle","lat":"51.5291","lng":"-3.6953","country":"United Kingdom","iso2":"GB","iso3":"GBR","admin_name":"Bridgend","capital":"","population":"7405","id":"1826080391"},{"city":"Penryn","city_ascii":"Penryn","lat":"50.1690","lng":"-5.1070","country":"United Kingdom","iso2":"GB","iso3":"GBR","admin_name":"Cornwall","capital":"","population":"6812","id":"1826209257"},{"city":"Phangnga","city_ascii":"Phangnga","lat":"8.4644","lng":"98.5317","country":"Thailand","iso2":"TH","iso3":"THA","admin_name":"Phangnga","capital":"admin","population":"10412","id":"1764855952"},{"city":"Partington","city_ascii":"Partington","lat":"53.4200","lng":"-2.4300","country":"United Kingdom","iso2":"GB","iso3":"GBR","admin_name":"Trafford","capital":"","population":"7327","id":"1826211416"},{"city":"Pembroke","city_ascii":"Pembroke","lat":"51.6760","lng":"-4.9158","country":"United Kingdom","iso2":"GB","iso3":"GBR","admin_name":"Pembrokeshire","capital":"","population":"7552","id":"1826380894"},{"city":"Pedra Badejo","city_ascii":"Pedra Badejo","lat":"15.1375","lng":"-23.5333","country":"Cabo Verde","iso2":"CV","iso3":"CPV","admin_name":"Santa Cruz","capital":"admin","population":"9530","id":"1132841923"},{"city":"Pájaros","city_ascii":"Pajaros","lat":"18.3609","lng":"-66.2184","country":"Puerto Rico","iso2":"PR","iso3":"PRI","admin_name":"Puerto Rico","capital":"","population":"9554","id":"1630035532"},{"city":"Porth","city_ascii":"Porth","lat":"51.6138","lng":"-3.4095","country":"United Kingdom","iso2":"GB","iso3":"GBR","admin_name":"Rhondda Cynon Taff","capital":"","population":"5970","id":"1826101777"},{"city":"Plainedge","city_ascii":"Plainedge","lat":"40.7240","lng":"-73.4770","country":"United States","iso2":"US","iso3":"USA","admin_name":"New York","capital":"","population":"9206","id":"1840005249"},{"city":"Pontardawe","city_ascii":"Pontardawe","lat":"51.7220","lng":"-3.8510","country":"United Kingdom","iso2":"GB","iso3":"GBR","admin_name":"Neath Port Talbot","capital":"","population":"6832","id":"1826219127"},{"city":"Pontardulais","city_ascii":"Pontardulais","lat":"51.7100","lng":"-4.0400","country":"United Kingdom","iso2":"GB","iso3":"GBR","admin_name":"Swansea","capital":"","population":"6281","id":"1826755520"},{"city":"Paide","city_ascii":"Paide","lat":"58.8833","lng":"25.5667","country":"Estonia","iso2":"EE","iso3":"EST","admin_name":"Järvamaa","capital":"admin","population":"7905","id":"1233393684"},{"city":"Prienai","city_ascii":"Prienai","lat":"54.6333","lng":"23.9417","country":"Lithuania","iso2":"LT","iso3":"LTU","admin_name":"Prienai","capital":"admin","population":"8610","id":"1440412268"},{"city":"Paulton","city_ascii":"Paulton","lat":"51.3069","lng":"-2.5027","country":"United Kingdom","iso2":"GB","iso3":"GBR","admin_name":"Bath and North East Somerset","capital":"","population":"5303","id":"1826351087"},{"city":"Puerto San Carlos","city_ascii":"Puerto San Carlos","lat":"24.7894","lng":"-112.1083","country":"Mexico","iso2":"MX","iso3":"MEX","admin_name":"Baja California Sur","capital":"","population":"5538","id":"1484585914"},{"city":"Piste","city_ascii":"Piste","lat":"20.6981","lng":"-88.5886","country":"Mexico","iso2":"MX","iso3":"MEX","admin_name":"Yucatán","capital":"","population":"5528","id":"1484346814"},{"city":"Port Maria","city_ascii":"Port Maria","lat":"18.3703","lng":"-76.8903","country":"Jamaica","iso2":"JM","iso3":"JAM","admin_name":"Saint Mary","capital":"admin","population":"7906","id":"1388155945"},{"city":"Panindícuaro","city_ascii":"Panindicuaro","lat":"19.9828","lng":"-101.7606","country":"Mexico","iso2":"MX","iso3":"MEX","admin_name":"Michoacán de Ocampo","capital":"minor","population":"5565","id":"1484235185"},{"city":"Panabá","city_ascii":"Panaba","lat":"21.2964","lng":"-88.2706","country":"Mexico","iso2":"MX","iso3":"MEX","admin_name":"Yucatán","capital":"minor","population":"5232","id":"1484205103"},{"city":"Palo Alto","city_ascii":"Palo Alto","lat":"21.9167","lng":"-101.9667","country":"Mexico","iso2":"MX","iso3":"MEX","admin_name":"Aguascalientes","capital":"minor","population":"5399","id":"1484615349"},{"city":"Pinchbeck","city_ascii":"Pinchbeck","lat":"52.8147","lng":"-0.1605","country":"United Kingdom","iso2":"GB","iso3":"GBR","admin_name":"Lincolnshire","capital":"","population":"5153","id":"1826280450"},{"city":"Park City","city_ascii":"Park City","lat":"42.3522","lng":"-87.8915","country":"United States","iso2":"US","iso3":"USA","admin_name":"Illinois","capital":"","population":"7438","id":"1840009133"},{"city":"Puerto Real","city_ascii":"Puerto Real","lat":"18.0762","lng":"-67.1861","country":"Puerto Rico","iso2":"PR","iso3":"PRI","admin_name":"Puerto Rico","capital":"","population":"6892","id":"1630035555"},{"city":"Pasvalys","city_ascii":"Pasvalys","lat":"56.0611","lng":"24.4028","country":"Lithuania","iso2":"LT","iso3":"LTU","admin_name":"Pasvalys","capital":"admin","population":"6768","id":"1440957197"},{"city":"Paloma Creek South","city_ascii":"Paloma Creek South","lat":"33.2100","lng":"-96.9327","country":"United States","iso2":"US","iso3":"USA","admin_name":"Texas","capital":"","population":"6624","id":"1840041381"},{"city":"Preiļi","city_ascii":"Preili","lat":"56.2942","lng":"26.7247","country":"Latvia","iso2":"LV","iso3":"LVA","admin_name":"Preiļu Novads","capital":"admin","population":"6522","id":"1428460035"},{"city":"Puerto Baquerizo Moreno","city_ascii":"Puerto Baquerizo Moreno","lat":"-0.9025","lng":"-89.6092","country":"Ecuador","iso2":"EC","iso3":"ECU","admin_name":"Galápagos","capital":"admin","population":"6533","id":"1218093882"},{"city":"Prospect Park","city_ascii":"Prospect Park","lat":"39.8858","lng":"-75.3074","country":"United States","iso2":"US","iso3":"USA","admin_name":"Pennsylvania","capital":"","population":"6492","id":"1840000707"},{"city":"Põlva","city_ascii":"Polva","lat":"58.0536","lng":"27.0556","country":"Estonia","iso2":"EE","iso3":"EST","admin_name":"Põlvamaa","capital":"admin","population":"5324","id":"1233866730"},{"city":"Pleasure Point","city_ascii":"Pleasure Point","lat":"36.9618","lng":"-121.9715","country":"United States","iso2":"US","iso3":"USA","admin_name":"California","capital":"","population":"6277","id":"1840074532"},{"city":"Prospect Park","city_ascii":"Prospect Park","lat":"40.9380","lng":"-74.1736","country":"United States","iso2":"US","iso3":"USA","admin_name":"New Jersey","capital":"","population":"5843","id":"1840000834"},{"city":"Plymouth","city_ascii":"Plymouth","lat":"41.2404","lng":"-75.9505","country":"United States","iso2":"US","iso3":"USA","admin_name":"Pennsylvania","capital":"","population":"5794","id":"1840000767"},{"city":"Penn Wynne","city_ascii":"Penn Wynne","lat":"39.9867","lng":"-75.2715","country":"United States","iso2":"US","iso3":"USA","admin_name":"Pennsylvania","capital":"","population":"5758","id":"1840035305"},{"city":"Pietà","city_ascii":"Pieta","lat":"35.8947","lng":"14.4950","country":"Malta","iso2":"MT","iso3":"MLT","admin_name":"Pietà","capital":"admin","population":"","id":"1470444069"},{"city":"Partesh","city_ascii":"Partesh","lat":"42.4019","lng":"21.4336","country":"Kosovo","iso2":"XK","iso3":"XKS","admin_name":"Partesh","capital":"admin","population":"5300","id":"1901909986"},{"city":"Palm Springs North","city_ascii":"Palm Springs North","lat":"25.9351","lng":"-80.3339","country":"United States","iso2":"US","iso3":"USA","admin_name":"Florida","capital":"","population":"5515","id":"1840047821"},{"city":"Palé","city_ascii":"Pale","lat":"-1.4043","lng":"5.6322","country":"Equatorial Guinea","iso2":"GQ","iso3":"GNQ","admin_name":"Annobón","capital":"admin","population":"5008","id":"1226970205"},{"city":"Peñuelas","city_ascii":"Penuelas","lat":"18.0595","lng":"-66.7206","country":"Puerto Rico","iso2":"PR","iso3":"PRI","admin_name":"Puerto Rico","capital":"","population":"5253","id":"1630023556"},{"city":"Pine Manor","city_ascii":"Pine Manor","lat":"26.5727","lng":"-81.8775","country":"United States","iso2":"US","iso3":"USA","admin_name":"Florida","capital":"","population":"5248","id":"1840028755"},{"city":"Punta Gorda","city_ascii":"Punta Gorda","lat":"16.1000","lng":"-88.8000","country":"Belize","iso2":"BZ","iso3":"BLZ","admin_name":"Toledo","capital":"admin","population":"5026","id":"1084536442"},{"city":"Punakha","city_ascii":"Punakha","lat":"27.6167","lng":"89.8667","country":"Bhutan","iso2":"BT","iso3":"BTN","admin_name":"Punakha","capital":"admin","population":"5000","id":"1064171188"},{"city":"Puerto Lempira","city_ascii":"Puerto Lempira","lat":"15.2653","lng":"-83.7744","country":"Honduras","iso2":"HN","iso3":"HND","admin_name":"Gracias a Dios","capital":"admin","population":"4856","id":"1340110055"},{"city":"Pakruojis","city_ascii":"Pakruojis","lat":"55.9809","lng":"23.8551","country":"Lithuania","iso2":"LT","iso3":"LTU","admin_name":"Pakruojis","capital":"admin","population":"4640","id":"1440570493"},{"city":"Pehčevo","city_ascii":"Pehcevo","lat":"41.7592","lng":"22.8906","country":"Macedonia","iso2":"MK","iso3":"MKD","admin_name":"Pehčevo","capital":"admin","population":"3237","id":"1807666030"},{"city":"Pļaviņas","city_ascii":"Plavinas","lat":"56.6161","lng":"25.7217","country":"Latvia","iso2":"LV","iso3":"LVA","admin_name":"Pļaviņu Novads","capital":"admin","population":"3151","id":"1428245037"},{"city":"Probištip","city_ascii":"Probistip","lat":"41.9936","lng":"22.1767","country":"Macedonia","iso2":"MK","iso3":"MKD","admin_name":"Probištip","capital":"admin","population":"3110","id":"1807592969"},{"city":"Porto Inglês","city_ascii":"Porto Ingles","lat":"15.1375","lng":"-23.2083","country":"Cabo Verde","iso2":"CV","iso3":"CPV","admin_name":"Maio","capital":"admin","population":"3056","id":"1132346974"},{"city":"Phủ Lý","city_ascii":"Phu Ly","lat":"20.5453","lng":"105.9122","country":"Vietnam","iso2":"VN","iso3":"VNM","admin_name":"Hà Nam","capital":"admin","population":"","id":"1704841896"},{"city":"Priekule","city_ascii":"Priekule","lat":"56.4472","lng":"21.5933","country":"Latvia","iso2":"LV","iso3":"LVA","admin_name":"Priekules Novads","capital":"admin","population":"2167","id":"1428340962"},{"city":"Paola","city_ascii":"Paola","lat":"35.8731","lng":"14.4989","country":"Malta","iso2":"MT","iso3":"MLT","admin_name":"Paola","capital":"admin","population":"","id":"1470416994"},{"city":"Phalombe","city_ascii":"Phalombe","lat":"-15.8000","lng":"35.6500","country":"Malawi","iso2":"MW","iso3":"MWI","admin_name":"Phalombe","capital":"admin","population":"","id":"1454510180"},{"city":"Pembroke","city_ascii":"Pembroke","lat":"35.9306","lng":"14.4764","country":"Malta","iso2":"MT","iso3":"MLT","admin_name":"Pembroke","capital":"admin","population":"","id":"1470802229"},{"city":"Prevalje","city_ascii":"Prevalje","lat":"46.5467","lng":"14.9800","country":"Slovenia","iso2":"SI","iso3":"SVN","admin_name":"Prevalje","capital":"admin","population":"","id":"1705187949"},{"city":"Pāvilosta","city_ascii":"Pavilosta","lat":"56.8878","lng":"21.1842","country":"Latvia","iso2":"LV","iso3":"LVA","admin_name":"Pāvilostas Novads","capital":"admin","population":"1035","id":"1428955629"},{"city":"Požega","city_ascii":"Pozega","lat":"43.8500","lng":"20.0500","country":"Serbia","iso2":"RS","iso3":"SRB","admin_name":"Požega","capital":"admin","population":"","id":"1688211541"},{"city":"Picos","city_ascii":"Picos","lat":"15.0833","lng":"-23.6500","country":"Cabo Verde","iso2":"CV","iso3":"CPV","admin_name":"São Salvador do Mundo","capital":"admin","population":"","id":"1132670996"},