[{"city":"Rio de Janeiro","city_ascii":"Rio de Janeiro","lat":"-22.9083","lng":"-43.1964","country":"Brazil","iso2":"BR","iso3":"BRA","admin_name":"Rio de Janeiro","capital":"admin","population":"12272000","id":"1076887657"},{"city":"Riyadh","city_ascii":"Riyadh","lat":"24.6500","lng":"46.7100","country":"Saudi Arabia","iso2":"SA","iso3":"SAU","admin_name":"Ar Riyāḑ","capital":"primary","population":"6881000","id":"1682999334"},{"city":"Rangoon","city_ascii":"Rangoon","lat":"16.8000","lng":"96.1500","country":"Burma","iso2":"MM","iso3":"MMR","admin_name":"Yangon","capital":"primary","population":"5430000","id":"1104616656"},{"city":"Rome","city_ascii":"Rome","lat":"41.8931","lng":"12.4828","country":"Italy","iso2":"IT","iso3":"ITA","admin_name":"Lazio","capital":"primary","population":"2872800","id":"1380382862"},{"city":"Rizhao","city_ascii":"Rizhao","lat":"35.4164","lng":"119.4331","country":"China","iso2":"CN","iso3":"CHN","admin_name":"Shandong","capital":"minor","population":"2720000","id":"1156032841"},{"city":"Riverside","city_ascii":"Riverside","lat":"33.9381","lng":"-117.3948","country":"United States","iso2":"US","iso3":"USA","admin_name":"California","capital":"","population":"2107852","id":"1840020551"},{"city":"Rawalpindi","city_ascii":"Rawalpindi","lat":"33.6007","lng":"73.0679","country":"Pakistan","iso2":"PK","iso3":"PAK","admin_name":"Punjab","capital":"minor","population":"2098231","id":"1586344001"},{"city":"Rabat","city_ascii":"Rabat","lat":"34.0253","lng":"-6.8361","country":"Morocco","iso2":"MA","iso3":"MAR","admin_name":"Rabat-Salé-Kénitra","capital":"primary","population":"1628000","id":"1504023252"},{"city":"Recife","city_ascii":"Recife","lat":"-8.0539","lng":"-34.8808","country":"Brazil","iso2":"BR","iso3":"BRA","admin_name":"Pernambuco","capital":"admin","population":"1555039","id":"1076137337"},{"city":"Rui’an","city_ascii":"Rui'an","lat":"27.7780","lng":"120.6526","country":"China","iso2":"CN","iso3":"CHN","admin_name":"Zhejiang","capital":"","population":"1424667","id":"1156993705"},{"city":"Rājkot","city_ascii":"Rajkot","lat":"22.2969","lng":"70.7984","country":"India","iso2":"IN","iso3":"IND","admin_name":"Gujarāt","capital":"","population":"1335397","id":"1356317190"},{"city":"Rongcheng","city_ascii":"Rongcheng","lat":"26.2312","lng":"104.0966","country":"China","iso2":"CN","iso3":"CHN","admin_name":"Yunnan","capital":"","population":"1302891","id":"1156122888"},{"city":"Rucheng","city_ascii":"Rucheng","lat":"32.3852","lng":"120.5634","country":"China","iso2":"CN","iso3":"CHN","admin_name":"Jiangsu","capital":"minor","population":"1267066","id":"1156323529"},{"city":"Rosario","city_ascii":"Rosario","lat":"-32.9575","lng":"-60.6394","country":"Argentina","iso2":"AR","iso3":"ARG","admin_name":"Santa Fe","capital":"minor","population":"1193605","id":"1032770677"},{"city":"Rongcheng","city_ascii":"Rongcheng","lat":"29.8239","lng":"112.9019","country":"China","iso2":"CN","iso3":"CHN","admin_name":"Hubei","capital":"minor","population":"1162770","id":"1156102432"},{"city":"Rostov","city_ascii":"Rostov","lat":"47.2333","lng":"39.7167","country":"Russia","iso2":"RU","iso3":"RUS","admin_name":"Rostovskaya Oblast’","capital":"admin","population":"1125299","id":"1643013518"},{"city":"Rānchi","city_ascii":"Ranchi","lat":"23.3556","lng":"85.3347","country":"India","iso2":"IN","iso3":"IND","admin_name":"Jharkhand","capital":"admin","population":"1073440","id":"1356110588"},{"city":"Richmond","city_ascii":"Richmond","lat":"37.5295","lng":"-77.4756","country":"United States","iso2":"US","iso3":"USA","admin_name":"Virginia","capital":"admin","population":"1075798","id":"1840001698"},{"city":"Raleigh","city_ascii":"Raleigh","lat":"35.8325","lng":"-78.6435","country":"United States","iso2":"US","iso3":"USA","admin_name":"North Carolina","capital":"admin","population":"1038738","id":"1840014497"},{"city":"Raipur","city_ascii":"Raipur","lat":"21.2379","lng":"81.6337","country":"India","iso2":"IN","iso3":"IND","admin_name":"Chhattīsgarh","capital":"admin","population":"1010087","id":"1356374983"},{"city":"Rotterdam","city_ascii":"Rotterdam","lat":"51.9200","lng":"4.4800","country":"Netherlands","iso2":"NL","iso3":"NLD","admin_name":"Zuid-Holland","capital":"minor","population":"1005000","id":"1528892850"},{"city":"Riga","city_ascii":"Riga","lat":"56.9475","lng":"24.1069","country":"Latvia","iso2":"LV","iso3":"LVA","admin_name":"Rīga","capital":"primary","population":"698529","id":"1428586192"},{"city":"Reykjavík","city_ascii":"Reykjavik","lat":"64.1475","lng":"-21.9350","country":"Iceland","iso2":"IS","iso3":"ISL","admin_name":"","capital":"primary","population":"128793","id":"1352327190"},{"city":"Roseau","city_ascii":"Roseau","lat":"15.3000","lng":"-61.3833","country":"Dominica","iso2":"DM","iso3":"DMA","admin_name":"Saint George","capital":"primary","population":"16582","id":"1212060440"},{"city":"Rongjiawan","city_ascii":"Rongjiawan","lat":"29.3801","lng":"113.1000","country":"China","iso2":"CN","iso3":"CHN","admin_name":"Hunan","capital":"minor","population":"826000","id":"1156795164"},{"city":"Renqiu","city_ascii":"Renqiu","lat":"38.7094","lng":"116.1008","country":"China","iso2":"CN","iso3":"CHN","admin_name":"Hebei","capital":"","population":"822455","id":"1156943939"},{"city":"Rennes","city_ascii":"Rennes","lat":"48.1147","lng":"-1.6794","country":"France","iso2":"FR","iso3":"FRA","admin_name":"Bretagne","capital":"admin","population":"727357","id":"1250363682"},{"city":"Reynosa","city_ascii":"Reynosa","lat":"26.0922","lng":"-98.2778","country":"Mexico","iso2":"MX","iso3":"MEX","admin_name":"Tamaulipas","capital":"minor","population":"725793","id":"1484737671"},{"city":"Rochester","city_ascii":"Rochester","lat":"43.1680","lng":"-77.6162","country":"United States","iso2":"US","iso3":"USA","admin_name":"New York","capital":"","population":"703952","id":"1840000373"},{"city":"Ribeirão Prêto","city_ascii":"Ribeirao Preto","lat":"-21.1783","lng":"-47.8067","country":"Brazil","iso2":"BR","iso3":"BRA","admin_name":"São Paulo","capital":"","population":"666323","id":"1076524478"},{"city":"Ruiming","city_ascii":"Ruiming","lat":"25.8833","lng":"116.0333","country":"China","iso2":"CN","iso3":"CHN","admin_name":"Jiangxi","capital":"","population":"640600","id":"1156104573"},{"city":"Rasht","city_ascii":"Rasht","lat":"37.2833","lng":"49.6000","country":"Iran","iso2":"IR","iso3":"IRN","admin_name":"Gīlān","capital":"admin","population":"639951","id":"1364630382"},{"city":"Raurkela","city_ascii":"Raurkela","lat":"22.2492","lng":"84.8828","country":"India","iso2":"IN","iso3":"IND","admin_name":"Odisha","capital":"","population":"625831","id":"1356096816"},{"city":"Ryazan’","city_ascii":"Ryazan'","lat":"54.6167","lng":"39.7167","country":"Russia","iso2":"RU","iso3":"RUS","admin_name":"Ryazanskaya Oblast’","capital":"admin","population":"537622","id":"1643205787"},{"city":"Rouen","city_ascii":"Rouen","lat":"49.4428","lng":"1.0886","country":"France","iso2":"FR","iso3":"FRA","admin_name":"Normandie","capital":"admin","population":"494382","id":"1250372069"},{"city":"Rājshāhi","city_ascii":"Rajshahi","lat":"24.3667","lng":"88.6000","country":"Bangladesh","iso2":"BD","iso3":"BGD","admin_name":"Rājshāhi","capital":"admin","population":"448087","id":"1050547831"},{"city":"Reno","city_ascii":"Reno","lat":"39.5497","lng":"-119.8483","country":"United States","iso2":"US","iso3":"USA","admin_name":"Nevada","capital":"","population":"445020","id":"1840020121"},{"city":"Rio Branco","city_ascii":"Rio Branco","lat":"-9.9781","lng":"-67.8117","country":"Brazil","iso2":"BR","iso3":"BRA","admin_name":"Acre","capital":"admin","population":"383443","id":"1076391263"},{"city":"Rohtak","city_ascii":"Rohtak","lat":"28.9000","lng":"76.5667","country":"India","iso2":"IN","iso3":"IND","admin_name":"Haryāna","capital":"","population":"374292","id":"1356162915"},{"city":"Rājapālaiyam","city_ascii":"Rajapalaiyam","lat":"9.4204","lng":"77.5800","country":"India","iso2":"IN","iso3":"IND","admin_name":"Tamil Nādu","capital":"","population":"369991","id":"1356110350"},{"city":"Rahimyar Khan","city_ascii":"Rahimyar Khan","lat":"28.4202","lng":"70.2952","country":"Pakistan","iso2":"PK","iso3":"PAK","admin_name":"Punjab","capital":"","population":"353203","id":"1586136399"},{"city":"Rājahmundry","city_ascii":"Rajahmundry","lat":"16.9833","lng":"81.7833","country":"India","iso2":"IN","iso3":"IND","admin_name":"Andhra Pradesh","capital":"","population":"341831","id":"1356831716"},{"city":"Randburg","city_ascii":"Randburg","lat":"-26.0936","lng":"28.0064","country":"South Africa","iso2":"ZA","iso3":"ZAF","admin_name":"Gauteng","capital":"","population":"337053","id":"1710279034"},{"city":"Reading","city_ascii":"Reading","lat":"51.4542","lng":"-0.9731","country":"United Kingdom","iso2":"GB","iso3":"GBR","admin_name":"Reading","capital":"","population":"337108","id":"1826869043"},{"city":"Roodepoort","city_ascii":"Roodepoort","lat":"-26.1625","lng":"27.8725","country":"South Africa","iso2":"ZA","iso3":"ZAF","admin_name":"Gauteng","capital":"","population":"326416","id":"1710090212"},{"city":"Rāmpur","city_ascii":"Rampur","lat":"28.8154","lng":"79.0250","country":"India","iso2":"IN","iso3":"IND","admin_name":"Uttar Pradesh","capital":"","population":"296418","id":"1356666569"},{"city":"Rangpur","city_ascii":"Rangpur","lat":"25.7500","lng":"89.2500","country":"Bangladesh","iso2":"BD","iso3":"BGD","admin_name":"Rangpur","capital":"admin","population":"294265","id":"1050667437"},{"city":"Resistencia","city_ascii":"Resistencia","lat":"-27.4514","lng":"-58.9867","country":"Argentina","iso2":"AR","iso3":"ARG","admin_name":"Chaco","capital":"admin","population":"291720","id":"1032720891"},{"city":"Rockford","city_ascii":"Rockford","lat":"42.2597","lng":"-89.0641","country":"United States","iso2":"US","iso3":"USA","admin_name":"Illinois","capital":"","population":"282762","id":"1840009132"},{"city":"Round Lake Beach","city_ascii":"Round Lake Beach","lat":"42.3790","lng":"-88.0811","country":"United States","iso2":"US","iso3":"USA","admin_name":"Illinois","capital":"","population":"279381","id":"1840011171"},{"city":"Ratlām","city_ascii":"Ratlam","lat":"23.3167","lng":"75.0667","country":"India","iso2":"IN","iso3":"IND","admin_name":"Madhya Pradesh","capital":"","population":"273892","id":"1356241663"},{"city":"Reading","city_ascii":"Reading","lat":"40.3400","lng":"-75.9267","country":"United States","iso2":"US","iso3":"USA","admin_name":"Pennsylvania","capital":"","population":"267155","id":"1840001185"},{"city":"Rāichūr","city_ascii":"Raichur","lat":"16.2104","lng":"77.3550","country":"India","iso2":"IN","iso3":"IND","admin_name":"Karnātaka","capital":"","population":"255240","id":"1356217280"},{"city":"Rishon LeẔiyyon","city_ascii":"Rishon LeZiyyon","lat":"31.9500","lng":"34.8000","country":"Israel","iso2":"IL","iso3":"ISR","admin_name":"Central","capital":"","population":"249860","id":"1376642268"},{"city":"Rạch Giá","city_ascii":"Rach Gia","lat":"10.0125","lng":"105.0808","country":"Vietnam","iso2":"VN","iso3":"VNM","admin_name":"Kiến Giang","capital":"admin","population":"250660","id":"1704872008"},{"city":"Rivne","city_ascii":"Rivne","lat":"50.6197","lng":"26.2514","country":"Ukraine","iso2":"UA","iso3":"UKR","admin_name":"Rivnens’ka Oblast’","capital":"admin","population":"245630","id":"1804144712"},{"city":"Rāmgundam","city_ascii":"Ramgundam","lat":"18.8000","lng":"79.4500","country":"India","iso2":"IN","iso3":"IND","admin_name":"Telangana","capital":"","population":"242979","id":"1356590864"},{"city":"Rancagua","city_ascii":"Rancagua","lat":"-34.1654","lng":"-70.7398","country":"Chile","iso2":"CL","iso3":"CHL","admin_name":"Libertador General Bernardo O’Higgins","capital":"admin","population":"231370","id":"1152672356"},{"city":"Rufisque","city_ascii":"Rufisque","lat":"14.7167","lng":"-17.2667","country":"Senegal","iso2":"SN","iso3":"SEN","admin_name":"Dakar","capital":"","population":"221066","id":"1686348669"},{"city":"Radom","city_ascii":"Radom","lat":"51.4036","lng":"21.1567","country":"Poland","iso2":"PL","iso3":"POL","admin_name":"Mazowieckie","capital":"minor","population":"219703","id":"1616327727"},{"city":"Regina","city_ascii":"Regina","lat":"50.4547","lng":"-104.6067","country":"Canada","iso2":"CA","iso3":"CAN","admin_name":"Saskatchewan","capital":"","population":"215106","id":"1124342541"},{"city":"Roanoke","city_ascii":"Roanoke","lat":"37.2785","lng":"-79.9580","country":"United States","iso2":"US","iso3":"USA","admin_name":"Virginia","capital":"","population":"214674","id":"1840003858"},{"city":"Rostock","city_ascii":"Rostock","lat":"54.0833","lng":"12.1333","country":"Germany","iso2":"DE","iso3":"DEU","admin_name":"Mecklenburg-Western Pomerania","capital":"","population":"208886","id":"1276210265"},{"city":"Rio Claro","city_ascii":"Rio Claro","lat":"-22.4108","lng":"-47.5608","country":"Brazil","iso2":"BR","iso3":"BRA","admin_name":"São Paulo","capital":"","population":"199961","id":"1076411428"},{"city":"Richmond","city_ascii":"Richmond","lat":"49.1667","lng":"-123.1333","country":"Canada","iso2":"CA","iso3":"CAN","admin_name":"British Columbia","capital":"","population":"198309","id":"1124121940"},{"city":"Rajin","city_ascii":"Rajin","lat":"42.3444","lng":"130.3844","country":"Korea, North","iso2":"KP","iso3":"PRK","admin_name":"Nasŏn","capital":"admin","population":"196954","id":"1408449973"},{"city":"Richmond Hill","city_ascii":"Richmond Hill","lat":"43.8667","lng":"-79.4333","country":"Canada","iso2":"CA","iso3":"CAN","admin_name":"Ontario","capital":"","population":"195022","id":"1124364273"},{"city":"Rio Grande","city_ascii":"Rio Grande","lat":"-32.0495","lng":"-52.1200","country":"Brazil","iso2":"BR","iso3":"BRA","admin_name":"Rio Grande do Sul","capital":"","population":"187838","id":"1076567920"},{"city":"Rybinsk","city_ascii":"Rybinsk","lat":"58.0500","lng":"38.8333","country":"Russia","iso2":"RU","iso3":"RUS","admin_name":"Yaroslavskaya Oblast’","capital":"","population":"190429","id":"1643113701"},{"city":"Rāiganj","city_ascii":"Raiganj","lat":"25.6167","lng":"88.1167","country":"India","iso2":"IN","iso3":"IND","admin_name":"West Bengal","capital":"","population":"183612","id":"1356159126"},{"city":"Reims","city_ascii":"Reims","lat":"49.2628","lng":"4.0347","country":"France","iso2":"FR","iso3":"FRA","admin_name":"Grand Est","capital":"minor","population":"182460","id":"1250608730"},{"city":"Rzeszów","city_ascii":"Rzeszow","lat":"50.0500","lng":"22.0000","country":"Poland","iso2":"PL","iso3":"POL","admin_name":"Podkarpackie","capital":"admin","population":"182548","id":"1616879570"},{"city":"Reggio di Calabria","city_ascii":"Reggio di Calabria","lat":"38.1144","lng":"15.6500","country":"Italy","iso2":"IT","iso3":"ITA","admin_name":"Calabria","capital":"minor","population":"182703","id":"1380630212"},{"city":"Rancho Cucamonga","city_ascii":"Rancho Cucamonga","lat":"34.1248","lng":"-117.5666","country":"United States","iso2":"US","iso3":"USA","admin_name":"California","capital":"","population":"177603","id":"1840020411"},{"city":"Reggio Emilia","city_ascii":"Reggio Emilia","lat":"44.7000","lng":"10.6333","country":"Italy","iso2":"IT","iso3":"ITA","admin_name":"Emilia-Romagna","capital":"minor","population":"170996","id":"1380487033"},{"city":"Roxas City","city_ascii":"Roxas City","lat":"11.5833","lng":"122.7500","country":"Philippines","iso2":"PH","iso3":"PHL","admin_name":"Capiz","capital":"admin","population":"167003","id":"1608344583"},{"city":"Rustenburg","city_ascii":"Rustenburg","lat":"-25.6500","lng":"27.2400","country":"South Africa","iso2":"ZA","iso3":"ZAF","admin_name":"North West","capital":"","population":"165976","id":"1710326039"},{"city":"Ríohacha","city_ascii":"Riohacha","lat":"11.5442","lng":"-72.9069","country":"Colombia","iso2":"CO","iso3":"COL","admin_name":"La Guajira","capital":"admin","population":"167865","id":"1170903069"},{"city":"Rio Largo","city_ascii":"Rio Largo","lat":"-9.4783","lng":"-35.8533","country":"Brazil","iso2":"BR","iso3":"BRA","admin_name":"Alagoas","capital":"","population":"158545","id":"1076018887"},{"city":"Ramat Gan","city_ascii":"Ramat Gan","lat":"32.0833","lng":"34.8167","country":"Israel","iso2":"IL","iso3":"ISR","admin_name":"Tel Aviv","capital":"","population":"152596","id":"1376357911"},{"city":"Ruse","city_ascii":"Ruse","lat":"43.8475","lng":"25.9544","country":"Bulgaria","iso2":"BG","iso3":"BGR","admin_name":"Ruse","capital":"admin","population":"163712","id":"1100854249"},{"city":"Rafsanjān","city_ascii":"Rafsanjan","lat":"30.4000","lng":"56.0000","country":"Iran","iso2":"IR","iso3":"IRN","admin_name":"Kermān","capital":"minor","population":"161909","id":"1364354751"},{"city":"Ra’s al Khaymah","city_ascii":"Ra's al Khaymah","lat":"25.7915","lng":"55.9428","country":"United Arab Emirates","iso2":"AE","iso3":"ARE","admin_name":"Ra’s al Khaymah","capital":"admin","population":"160849","id":"1784053892"},{"city":"Ravenna","city_ascii":"Ravenna","lat":"44.4178","lng":"12.1994","country":"Italy","iso2":"IT","iso3":"ITA","admin_name":"Emilia-Romagna","capital":"minor","population":"159162","id":"1380964180"},{"city":"Rafael Castillo","city_ascii":"Rafael Castillo","lat":"-34.7167","lng":"-58.6167","country":"Argentina","iso2":"AR","iso3":"ARG","admin_name":"Buenos Aires","capital":"","population":"147965","id":"1032812310"},{"city":"Rondonópolis","city_ascii":"Rondonopolis","lat":"-16.4695","lng":"-54.6400","country":"Brazil","iso2":"BR","iso3":"BRA","admin_name":"Mato Grosso","capital":"","population":"152912","id":"1076627175"},{"city":"Regensburg","city_ascii":"Regensburg","lat":"49.0167","lng":"12.0833","country":"Germany","iso2":"DE","iso3":"DEU","admin_name":"Bavaria","capital":"minor","population":"152610","id":"1276000325"},{"city":"Riobamba","city_ascii":"Riobamba","lat":"-1.6743","lng":"-78.6483","country":"Ecuador","iso2":"EC","iso3":"ECU","admin_name":"Chimborazo","capital":"admin","population":"146324","id":"1218552075"},{"city":"Rimini","city_ascii":"Rimini","lat":"44.0594","lng":"12.5683","country":"Italy","iso2":"IT","iso3":"ITA","admin_name":"Emilia-Romagna","capital":"minor","population":"149403","id":"1380527853"},{"city":"Rubtsovsk","city_ascii":"Rubtsovsk","lat":"51.5167","lng":"81.2000","country":"Russia","iso2":"RU","iso3":"RUS","admin_name":"Altayskiy Kray","capital":"","population":"145333","id":"1643450182"},{"city":"Rybnik","city_ascii":"Rybnik","lat":"50.0833","lng":"18.5000","country":"Poland","iso2":"PL","iso3":"POL","admin_name":"Śląskie","capital":"minor","population":"141000","id":"1616092098"},{"city":"Rize","city_ascii":"Rize","lat":"41.0167","lng":"40.5167","country":"Turkey","iso2":"TR","iso3":"TUR","admin_name":"Rize","capital":"admin","population":"141143","id":"1792024731"},{"city":"Roseville","city_ascii":"Roseville","lat":"38.7703","lng":"-121.3196","country":"United States","iso2":"US","iso3":"USA","admin_name":"California","capital":"","population":"141500","id":"1840020233"},{"city":"Ruda Śląska","city_ascii":"Ruda Slaska","lat":"50.2628","lng":"18.8536","country":"Poland","iso2":"PL","iso3":"POL","admin_name":"Śląskie","capital":"minor","population":"139412","id":"1616148566"},{"city":"Ramapo","city_ascii":"Ramapo","lat":"41.1404","lng":"-74.1072","country":"United States","iso2":"US","iso3":"USA","admin_name":"New York","capital":"","population":"134571","id":"1840058431"},{"city":"Reẖovot","city_ascii":"Rehovot","lat":"31.8914","lng":"34.8078","country":"Israel","iso2":"IL","iso3":"ISR","admin_name":"Central","capital":"","population":"132671","id":"1376684821"},{"city":"Round Rock","city_ascii":"Round Rock","lat":"30.5254","lng":"-97.6660","country":"United States","iso2":"US","iso3":"USA","admin_name":"Texas","capital":"","population":"133372","id":"1840020879"},{"city":"Rijeka","city_ascii":"Rijeka","lat":"45.3297","lng":"14.4322","country":"Croatia","iso2":"HR","iso3":"HRV","admin_name":"Primorsko-Goranska Županija","capital":"admin","population":"128624","id":"1191949063"},{"city":"Racine","city_ascii":"Racine","lat":"42.7274","lng":"-87.8135","country":"United States","iso2":"US","iso3":"USA","admin_name":"Wisconsin","capital":"","population":"130142","id":"1840002493"},{"city":"Romford","city_ascii":"Romford","lat":"51.5768","lng":"0.1801","country":"United Kingdom","iso2":"GB","iso3":"GBR","admin_name":"Havering","capital":"","population":"122854","id":"1826695421"},{"city":"Rustavi","city_ascii":"Rustavi","lat":"41.5333","lng":"45.0000","country":"Georgia","iso2":"GE","iso3":"GEO","admin_name":"Kvemo Kartli","capital":"admin","population":"125103","id":"1268562807"},{"city":"Ramos Mejía","city_ascii":"Ramos Mejia","lat":"-34.6500","lng":"-58.5667","country":"Argentina","iso2":"AR","iso3":"ARG","admin_name":"Buenos Aires","capital":"","population":"120346","id":"1032425368"},{"city":"Rishra","city_ascii":"Rishra","lat":"22.7100","lng":"88.3500","country":"India","iso2":"IN","iso3":"IND","admin_name":"West Bengal","capital":"","population":"124577","id":"1356339732"},{"city":"Resende","city_ascii":"Resende","lat":"-22.4689","lng":"-44.4469","country":"Brazil","iso2":"BR","iso3":"BRA","admin_name":"Rio de Janeiro","capital":"","population":"125214","id":"1076678781"},{"city":"Rudnyy","city_ascii":"Rudnyy","lat":"52.9527","lng":"63.1300","country":"Kazakhstan","iso2":"KZ","iso3":"KAZ","admin_name":"Qostanay","capital":"","population":"124000","id":"1398701954"},{"city":"Ribeirão Pires","city_ascii":"Ribeirao Pires","lat":"-23.7108","lng":"-46.4128","country":"Brazil","iso2":"BR","iso3":"BRA","admin_name":"São Paulo","capital":"","population":"120396","id":"1076050419"},{"city":"Richardson","city_ascii":"Richardson","lat":"32.9717","lng":"-96.7093","country":"United States","iso2":"US","iso3":"USA","admin_name":"Texas","capital":"","population":"121323","id":"1840020710"},{"city":"Redding","city_ascii":"Redding","lat":"40.5698","lng":"-122.3650","country":"United States","iso2":"US","iso3":"USA","admin_name":"California","capital":"","population":"121313","id":"1840020141"},{"city":"Rochester","city_ascii":"Rochester","lat":"44.0151","lng":"-92.4778","country":"United States","iso2":"US","iso3":"USA","admin_name":"Minnesota","capital":"","population":"119942","id":"1840008987"},{"city":"Rock Hill","city_ascii":"Rock Hill","lat":"34.9416","lng":"-81.0244","country":"United States","iso2":"US","iso3":"USA","admin_name":"South Carolina","capital":"","population":"119105","id":"1840014618"},{"city":"Reutov","city_ascii":"Reutov","lat":"55.7667","lng":"37.8667","country":"Russia","iso2":"RU","iso3":"RUS","admin_name":"Moskovskaya Oblast’","capital":"","population":"106990","id":"1643138327"},{"city":"Reutlingen","city_ascii":"Reutlingen","lat":"48.4833","lng":"9.2167","country":"Germany","iso2":"DE","iso3":"DEU","admin_name":"Baden-Württemberg","capital":"minor","population":"115966","id":"1276256795"},{"city":"Ramenskoye","city_ascii":"Ramenskoye","lat":"55.5669","lng":"38.2303","country":"Russia","iso2":"RU","iso3":"RUS","admin_name":"Moskovskaya Oblast’","capital":"","population":"116077","id":"1643438526"},{"city":"Recklinghausen","city_ascii":"Recklinghausen","lat":"51.6167","lng":"7.2000","country":"Germany","iso2":"DE","iso3":"DEU","admin_name":"North Rhine-Westphalia","capital":"minor","population":"112267","id":"1276179876"},{"city":"Rotherham","city_ascii":"Rotherham","lat":"53.4300","lng":"-1.3570","country":"United Kingdom","iso2":"GB","iso3":"GBR","admin_name":"Rotherham","capital":"","population":"109691","id":"1826763937"},{"city":"Remscheid","city_ascii":"Remscheid","lat":"51.1906","lng":"7.2247","country":"Germany","iso2":"DE","iso3":"DEU","admin_name":"North Rhine-Westphalia","capital":"minor","population":"110994","id":"1276043920"},{"city":"Rochdale","city_ascii":"Rochdale","lat":"53.6136","lng":"-2.1610","country":"United Kingdom","iso2":"GB","iso3":"GBR","admin_name":"Rochdale","capital":"","population":"107926","id":"1826578106"},{"city":"Richmond","city_ascii":"Richmond","lat":"37.9477","lng":"-122.3390","country":"United States","iso2":"US","iso3":"USA","admin_name":"California","capital":"","population":"110567","id":"1840020277"},{"city":"Roubaix","city_ascii":"Roubaix","lat":"50.6901","lng":"3.1817","country":"France","iso2":"FR","iso3":"FRA","admin_name":"Hauts-de-France","capital":"","population":"100000","id":"1250000779"},{"city":"Raba","city_ascii":"Raba","lat":"-8.4614","lng":"118.7470","country":"Indonesia","iso2":"ID","iso3":"IDN","admin_name":"Nusa Tenggara Barat","capital":"minor","population":"106101","id":"1360014952"},{"city":"Robāţ Karīm","city_ascii":"Robat Karim","lat":"35.4847","lng":"51.0828","country":"Iran","iso2":"IR","iso3":"IRN","admin_name":"Tehrān","capital":"minor","population":"105393","id":"1364282464"},{"city":"Rialto","city_ascii":"Rialto","lat":"34.1174","lng":"-117.3894","country":"United States","iso2":"US","iso3":"USA","admin_name":"California","capital":"","population":"103526","id":"1840020407"},{"city":"Renton","city_ascii":"Renton","lat":"47.4784","lng":"-122.1919","country":"United States","iso2":"US","iso3":"USA","admin_name":"Washington","capital":"","population":"101751","id":"1840019827"},{"city":"Red Deer","city_ascii":"Red Deer","lat":"52.2681","lng":"-113.8111","country":"Canada","iso2":"CA","iso3":"CAN","admin_name":"Alberta","capital":"","population":"100418","id":"1124404130"},{"city":"Râmnicu Vâlcea","city_ascii":"Ramnicu Valcea","lat":"45.1047","lng":"24.3756","country":"Romania","iso2":"RO","iso3":"ROU","admin_name":"Vâlcea","capital":"admin","population":"98776","id":"1642348361"},{"city":"Río Gallegos","city_ascii":"Rio Gallegos","lat":"-51.6333","lng":"-69.2333","country":"Argentina","iso2":"AR","iso3":"ARG","admin_name":"Santa Cruz","capital":"admin","population":"95796","id":"1032471024"},{"city":"Remedios de Escalada","city_ascii":"Remedios de Escalada","lat":"-34.7167","lng":"-58.4000","country":"Argentina","iso2":"AR","iso3":"ARG","admin_name":"Buenos Aires","capital":"","population":"81465","id":"1032150292"},{"city":"Rivera","city_ascii":"Rivera","lat":"-30.9025","lng":"-55.5506","country":"Uruguay","iso2":"UY","iso3":"URY","admin_name":"Rivera","capital":"admin","population":"78900","id":"1858819782"},{"city":"Reşiţa","city_ascii":"Resita","lat":"45.2970","lng":"21.8865","country":"Romania","iso2":"RO","iso3":"ROU","admin_name":"Caraş-Severin","capital":"admin","population":"83324","id":"1642047399"},{"city":"Rueil-Malmaison","city_ascii":"Rueil-Malmaison","lat":"48.8760","lng":"2.1810","country":"France","iso2":"FR","iso3":"FRA","admin_name":"Île-de-France","capital":"","population":"78152","id":"1250924511"},{"city":"Rubí","city_ascii":"Rubi","lat":"41.4933","lng":"2.0325","country":"Spain","iso2":"ES","iso3":"ESP","admin_name":"Catalonia","capital":"","population":"77464","id":"1724552367"},{"city":"Ra‘ananna","city_ascii":"Ra`ananna","lat":"32.1833","lng":"34.8667","country":"Israel","iso2":"IL","iso3":"ISR","admin_name":"Central","capital":"","population":"74000","id":"1376791991"},{"city":"Ramla","city_ascii":"Ramla","lat":"31.9318","lng":"34.8736","country":"Israel","iso2":"IL","iso3":"ISR","admin_name":"Central","capital":"admin","population":"75500","id":"1376321361"},{"city":"Rugby","city_ascii":"Rugby","lat":"52.3700","lng":"-1.2600","country":"United Kingdom","iso2":"GB","iso3":"GBR","admin_name":"Warwickshire","capital":"","population":"70628","id":"1826969205"},{"city":"Rioverde","city_ascii":"Rioverde","lat":"21.9300","lng":"-99.9800","country":"Mexico","iso2":"MX","iso3":"MEX","admin_name":"San Luis Potosí","capital":"minor","population":"69613","id":"1484341437"},{"city":"Rochester","city_ascii":"Rochester","lat":"51.3750","lng":"0.5000","country":"United Kingdom","iso2":"GB","iso3":"GBR","admin_name":"Medway","capital":"","population":"62982","id":"1826559634"},{"city":"Redondo Beach","city_ascii":"Redondo Beach","lat":"33.8574","lng":"-118.3766","country":"United States","iso2":"US","iso3":"USA","admin_name":"California","capital":"","population":"66749","id":"1840020509"},{"city":"Rundu","city_ascii":"Rundu","lat":"-17.9167","lng":"19.7667","country":"Namibia","iso2":"NA","iso3":"NAM","admin_name":"Kavango East","capital":"admin","population":"63431","id":"1516885937"},{"city":"Ruislip","city_ascii":"Ruislip","lat":"51.5760","lng":"-0.4330","country":"United Kingdom","iso2":"GB","iso3":"GBR","admin_name":"Hillingdon","capital":"","population":"58217","id":"1826571723"},{"city":"Royal Tunbridge Wells","city_ascii":"Royal Tunbridge Wells","lat":"51.1320","lng":"0.2630","country":"United Kingdom","iso2":"GB","iso3":"GBR","admin_name":"Kent","capital":"","population":"59947","id":"1826011948"},{"city":"Rayong","city_ascii":"Rayong","lat":"12.6742","lng":"101.2789","country":"Thailand","iso2":"TH","iso3":"THA","admin_name":"Rayong","capital":"admin","population":"61902","id":"1764920057"},{"city":"Rafael Calzada","city_ascii":"Rafael Calzada","lat":"-34.7833","lng":"-58.3667","country":"Argentina","iso2":"AR","iso3":"ARG","admin_name":"Buenos Aires","capital":"","population":"57351","id":"1032898708"},{"city":"Rovaniemi","city_ascii":"Rovaniemi","lat":"66.5014","lng":"25.7347","country":"Finland","iso2":"FI","iso3":"FIN","admin_name":"Lappi","capital":"admin","population":"61763","id":"1246718173"},{"city":"Ruhengeri","city_ascii":"Ruhengeri","lat":"-1.4944","lng":"29.6417","country":"Rwanda","iso2":"RW","iso3":"RWA","admin_name":"Northern Province","capital":"","population":"59333","id":"1646793543"},{"city":"Romita","city_ascii":"Romita","lat":"20.8708","lng":"-101.5169","country":"Mexico","iso2":"MX","iso3":"MEX","admin_name":"Guanajuato","capital":"minor","population":"51825","id":"1484697777"},{"city":"Ródos","city_ascii":"Rodos","lat":"36.4412","lng":"28.2225","country":"Greece","iso2":"GR","iso3":"GRC","admin_name":"Notío Aigaío","capital":"minor","population":"56969","id":"1300944675"},{"city":"Rosh Ha‘Ayin","city_ascii":"Rosh Ha`Ayin","lat":"32.0833","lng":"34.9500","country":"Israel","iso2":"IL","iso3":"ISR","admin_name":"Central","capital":"","population":"56300","id":"1376619380"},{"city":"Royal Leamington Spa","city_ascii":"Royal Leamington Spa","lat":"52.2920","lng":"-1.5370","country":"United Kingdom","iso2":"GB","iso3":"GBR","admin_name":"Warwickshire","capital":"","population":"49662","id":"1826633006"},{"city":"Rahovec","city_ascii":"Rahovec","lat":"42.3994","lng":"20.6547","country":"Kosovo","iso2":"XK","iso3":"XKS","admin_name":"Rahovec","capital":"admin","population":"56208","id":"1901336358"},{"city":"Rio Tinto","city_ascii":"Rio Tinto","lat":"41.1833","lng":"-8.5667","country":"Portugal","iso2":"PT","iso3":"PRT","admin_name":"Porto","capital":"","population":"50713","id":"1620258719"},{"city":"Rio Verde","city_ascii":"Rio Verde","lat":"-17.8196","lng":"-50.9300","country":"Brazil","iso2":"BR","iso3":"BRA","admin_name":"Goiás","capital":"","population":"48318","id":"1076844683"},{"city":"Rowley Regis","city_ascii":"Rowley Regis","lat":"52.4800","lng":"-2.0600","country":"United Kingdom","iso2":"GB","iso3":"GBR","admin_name":"Sandwell","capital":"","population":"50257","id":"1826180390"},{"city":"Rosemead","city_ascii":"Rosemead","lat":"34.0689","lng":"-118.0823","country":"United States","iso2":"US","iso3":"USA","admin_name":"California","capital":"","population":"54058","id":"1840020495"},{"city":"Rosny-sous-Bois","city_ascii":"Rosny-sous-Bois","lat":"48.8667","lng":"2.4833","country":"France","iso2":"FR","iso3":"FRA","admin_name":"Île-de-France","capital":"","population":"46207","id":"1250643229"},{"city":"Revere","city_ascii":"Revere","lat":"42.4192","lng":"-71.0036","country":"United States","iso2":"US","iso3":"USA","admin_name":"Massachusetts","capital":"","population":"53073","id":"1840000457"},{"city":"Ramos Arizpe","city_ascii":"Ramos Arizpe","lat":"25.5500","lng":"-100.9667","country":"Mexico","iso2":"MX","iso3":"MEX","admin_name":"Coahuila de Zaragoza","capital":"minor","population":"48228","id":"1484685820"},{"city":"Ratnapura","city_ascii":"Ratnapura","lat":"6.6930","lng":"80.3860","country":"Sri Lanka","iso2":"LK","iso3":"LKA","admin_name":"Sabaragamuwa","capital":"admin","population":"47832","id":"1144739208"},{"city":"Ramat HaSharon","city_ascii":"Ramat HaSharon","lat":"32.1461","lng":"34.8394","country":"Israel","iso2":"IL","iso3":"ISR","admin_name":"Tel Aviv","capital":"","population":"46700","id":"1376215427"},{"city":"Rovenky","city_ascii":"Rovenky","lat":"48.0833","lng":"39.3667","country":"Ukraine","iso2":"UA","iso3":"UKR","admin_name":"Luhans’ka Oblast’","capital":"","population":"46734","id":"1804938726"},{"city":"Rosso","city_ascii":"Rosso","lat":"16.5128","lng":"-15.8050","country":"Mauritania","iso2":"MR","iso3":"MRT","admin_name":"Trarza","capital":"admin","population":"47203","id":"1478524903"},{"city":"Rye","city_ascii":"Rye","lat":"41.0076","lng":"-73.6872","country":"United States","iso2":"US","iso3":"USA","admin_name":"New York","capital":"","population":"46636","id":"1840000784"},{"city":"Russas","city_ascii":"Russas","lat":"-4.9403","lng":"-37.9758","country":"Brazil","iso2":"BR","iso3":"BRA","admin_name":"Ceará","capital":"","population":"39465","id":"1076843360"},{"city":"Rezé","city_ascii":"Reze","lat":"47.1833","lng":"-1.5500","country":"France","iso2":"FR","iso3":"FRA","admin_name":"Pays de la Loire","capital":"","population":"41411","id":"1250886805"},{"city":"Remanso","city_ascii":"Remanso","lat":"-9.5996","lng":"-42.1100","country":"Brazil","iso2":"BR","iso3":"BRA","admin_name":"Bahia","capital":"","population":"37945","id":"1076051035"},{"city":"Ramsgate","city_ascii":"Ramsgate","lat":"51.3360","lng":"1.4160","country":"United Kingdom","iso2":"GB","iso3":"GBR","admin_name":"Kent","capital":"","population":"40408","id":"1826278899"},{"city":"Rohnert Park","city_ascii":"Rohnert Park","lat":"38.3480","lng":"-122.6964","country":"United States","iso2":"US","iso3":"USA","admin_name":"California","capital":"","population":"43291","id":"1840020243"},{"city":"Razgrad","city_ascii":"Razgrad","lat":"43.5267","lng":"26.5242","country":"Bulgaria","iso2":"BG","iso3":"BGR","admin_name":"Razgrad","capital":"admin","population":"41909","id":"1100143131"},{"city":"Rosário do Sul","city_ascii":"Rosario do Sul","lat":"-30.2583","lng":"-54.9142","country":"Brazil","iso2":"BR","iso3":"BRA","admin_name":"Rio Grande do Sul","capital":"","population":"36721","id":"1076900712"},{"city":"Retalhuleu","city_ascii":"Retalhuleu","lat":"14.5333","lng":"-91.6833","country":"Guatemala","iso2":"GT","iso3":"GTM","admin_name":"Retalhuleu","capital":"admin","population":"40000","id":"1320999503"},{"city":"Redcar","city_ascii":"Redcar","lat":"54.6180","lng":"-1.0690","country":"United Kingdom","iso2":"GB","iso3":"GBR","admin_name":"Redcar and Cleveland","capital":"","population":"35692","id":"1826929580"},{"city":"Richmond West","city_ascii":"Richmond West","lat":"25.6105","lng":"-80.4297","country":"United States","iso2":"US","iso3":"USA","admin_name":"Florida","capital":"","population":"37965","id":"1840073270"},{"city":"Ratchaburi","city_ascii":"Ratchaburi","lat":"13.5367","lng":"99.8169","country":"Thailand","iso2":"TH","iso3":"THA","admin_name":"Ratchaburi","capital":"admin","population":"36339","id":"1764773366"},{"city":"Roanne","city_ascii":"Roanne","lat":"46.0367","lng":"4.0689","country":"France","iso2":"FR","iso3":"FRA","admin_name":"Auvergne-Rhône-Alpes","capital":"minor","population":"34366","id":"1250674978"},{"city":"Rayleigh","city_ascii":"Rayleigh","lat":"51.5864","lng":"0.6049","country":"United Kingdom","iso2":"GB","iso3":"GBR","admin_name":"Essex","capital":"","population":"32150","id":"1826491250"},{"city":"Richfield","city_ascii":"Richfield","lat":"44.8762","lng":"-93.2833","country":"United States","iso2":"US","iso3":"USA","admin_name":"Minnesota","capital":"","population":"36354","id":"1840008930"},{"city":"Rutherglen","city_ascii":"Rutherglen","lat":"55.8286","lng":"-4.2139","country":"United Kingdom","iso2":"GB","iso3":"GBR","admin_name":"Glasgow City","capital":"","population":"31120","id":"1826453586"},{"city":"Ryde","city_ascii":"Ryde","lat":"50.7271","lng":"-1.1618","country":"United Kingdom","iso2":"GB","iso3":"GBR","admin_name":"Isle of Wight","capital":"","population":"32072","id":"1826600816"},{"city":"Roi Et","city_ascii":"Roi Et","lat":"16.0578","lng":"103.6514","country":"Thailand","iso2":"TH","iso3":"THA","admin_name":"Roi Et","capital":"admin","population":"35219","id":"1764216668"},{"city":"Romainville","city_ascii":"Romainville","lat":"48.8840","lng":"2.4350","country":"France","iso2":"FR","iso3":"FRA","admin_name":"Île-de-France","capital":"","population":"27567","id":"1250311855"},{"city":"Rincón de Romos","city_ascii":"Rincon de Romos","lat":"22.2333","lng":"-102.3167","country":"Mexico","iso2":"MX","iso3":"MEX","admin_name":"Aguascalientes","capital":"minor","population":"27988","id":"1484371427"},{"city":"Reddish","city_ascii":"Reddish","lat":"53.4383","lng":"-2.1613","country":"United Kingdom","iso2":"GB","iso3":"GBR","admin_name":"Stockport","capital":"","population":"28052","id":"1826969307"},{"city":"Ris-Orangis","city_ascii":"Ris-Orangis","lat":"48.6537","lng":"2.4161","country":"France","iso2":"FR","iso3":"FRA","admin_name":"Île-de-France","capital":"","population":"29225","id":"1250798582"},{"city":"Rumbek","city_ascii":"Rumbek","lat":"6.8000","lng":"29.6833","country":"South Sudan","iso2":"SS","iso3":"SSD","admin_name":"Lakes","capital":"admin","population":"32083","id":"1728842249"},{"city":"Rivas","city_ascii":"Rivas","lat":"11.4404","lng":"-85.8200","country":"Nicaragua","iso2":"NI","iso3":"NIC","admin_name":"Rivas","capital":"admin","population":"31941","id":"1558146594"},{"city":"Rillieux-la-Pape","city_ascii":"Rillieux-la-Pape","lat":"45.8214","lng":"4.8983","country":"France","iso2":"FR","iso3":"FRA","admin_name":"Auvergne-Rhône-Alpes","capital":"","population":"30012","id":"1250128916"},{"city":"Rawson","city_ascii":"Rawson","lat":"-43.3000","lng":"-65.1000","country":"Argentina","iso2":"AR","iso3":"ARG","admin_name":"Chubut","capital":"admin","population":"31787","id":"1032302344"},{"city":"Ridley","city_ascii":"Ridley","lat":"39.8854","lng":"-75.3280","country":"United States","iso2":"US","iso3":"USA","admin_name":"Pennsylvania","capital":"","population":"31117","id":"1840142587"},{"city":"Rhyl","city_ascii":"Rhyl","lat":"53.3210","lng":"-3.4800","country":"United Kingdom","iso2":"GB","iso3":"GBR","admin_name":"Denbighshire","capital":"","population":"25149","id":"1826387077"},{"city":"Rainham","city_ascii":"Rainham","lat":"51.3600","lng":"0.6100","country":"United Kingdom","iso2":"GB","iso3":"GBR","admin_name":"Medway","capital":"","population":"25000","id":"1826039806"},{"city":"Rahway","city_ascii":"Rahway","lat":"40.6077","lng":"-74.2807","country":"United States","iso2":"US","iso3":"USA","admin_name":"New Jersey","capital":"","population":"29895","id":"1840001091"},{"city":"Rēzekne","city_ascii":"Rezekne","lat":"56.5067","lng":"27.3308","country":"Latvia","iso2":"LV","iso3":"LVA","admin_name":"Rēzeknes Novads","capital":"admin","population":"28174","id":"1428895373"},{"city":"Rocha","city_ascii":"Rocha","lat":"-34.4833","lng":"-54.3500","country":"Uruguay","iso2":"UY","iso3":"URY","admin_name":"Rocha","capital":"admin","population":"25422","id":"1858936449"},{"city":"Renens","city_ascii":"Renens","lat":"46.5353","lng":"6.5897","country":"Switzerland","iso2":"CH","iso3":"CHE","admin_name":"Vaud","capital":"minor","population":"20927","id":"1756264043"},{"city":"Rehoboth","city_ascii":"Rehoboth","lat":"-23.3167","lng":"17.0833","country":"Namibia","iso2":"NA","iso3":"NAM","admin_name":"Hardap","capital":"","population":"25219","id":"1516928100"},{"city":"Reisterstown","city_ascii":"Reisterstown","lat":"39.4552","lng":"-76.8144","country":"United States","iso2":"US","iso3":"USA","admin_name":"Maryland","capital":"","population":"26933","id":"1840005689"},{"city":"Rolim de Moura","city_ascii":"Rolim de Moura","lat":"-11.7302","lng":"-61.7806","country":"Brazil","iso2":"BR","iso3":"BRA","admin_name":"Rondônia","capital":"","population":"24516","id":"1076556836"},{"city":"Rodez","city_ascii":"Rodez","lat":"44.3506","lng":"2.5750","country":"France","iso2":"FR","iso3":"FRA","admin_name":"Occitanie","capital":"minor","population":"24057","id":"1250807687"},{"city":"Riverbank","city_ascii":"Riverbank","lat":"37.7268","lng":"-120.9402","country":"United States","iso2":"US","iso3":"USA","admin_name":"California","capital":"","population":"24881","id":"1840020286"},{"city":"Reyes Acozac","city_ascii":"Reyes Acozac","lat":"19.7667","lng":"-98.9833","country":"Mexico","iso2":"MX","iso3":"MEX","admin_name":"Morelos","capital":"","population":"20478","id":"1484003541"},{"city":"Royton","city_ascii":"Royton","lat":"53.5660","lng":"-2.1210","country":"United Kingdom","iso2":"GB","iso3":"GBR","admin_name":"Oldham","capital":"","population":"21284","id":"1826073923"},{"city":"Rockville Centre","city_ascii":"Rockville Centre","lat":"40.6644","lng":"-73.6383","country":"United States","iso2":"US","iso3":"USA","admin_name":"New York","capital":"","population":"24550","id":"1840005320"},{"city":"Renfrew","city_ascii":"Renfrew","lat":"55.8791","lng":"-4.3868","country":"United Kingdom","iso2":"GB","iso3":"GBR","admin_name":"Renfrewshire","capital":"","population":"21854","id":"1826588626"},{"city":"Rosemont","city_ascii":"Rosemont","lat":"38.5477","lng":"-121.3553","country":"United States","iso2":"US","iso3":"USA","admin_name":"California","capital":"","population":"23617","id":"1840018844"},{"city":"Rothwell","city_ascii":"Rothwell","lat":"53.7485","lng":"-1.4780","country":"United Kingdom","iso2":"GB","iso3":"GBR","admin_name":"Leeds","capital":"","population":"20354","id":"1826415325"},{"city":"Reinach","city_ascii":"Reinach","lat":"47.4936","lng":"7.5908","country":"Switzerland","iso2":"CH","iso3":"CHE","admin_name":"Basel-Landschaft","capital":"","population":"19144","id":"1756011617"},{"city":"Roselle","city_ascii":"Roselle","lat":"40.6527","lng":"-74.2599","country":"United States","iso2":"US","iso3":"USA","admin_name":"New Jersey","capital":"","population":"21811","id":"1840001092"},{"city":"Redhill","city_ascii":"Redhill","lat":"51.2393","lng":"-0.1726","country":"United Kingdom","iso2":"GB","iso3":"GBR","admin_name":"Surrey","capital":"","population":"18163","id":"1826029487"},{"city":"Rutana","city_ascii":"Rutana","lat":"-3.9310","lng":"29.9930","country":"Burundi","iso2":"BI","iso3":"BDI","admin_name":"Rutana","capital":"admin","population":"20893","id":"1108441253"},{"city":"Rodolfo Sánchez Taboada","city_ascii":"Rodolfo Sanchez Taboada","lat":"31.7958","lng":"-116.5911","country":"Mexico","iso2":"MX","iso3":"MEX","admin_name":"Baja California","capital":"","population":"15038","id":"1484409365"},{"city":"Rwamagana","city_ascii":"Rwamagana","lat":"-1.9525","lng":"30.4378","country":"Rwanda","iso2":"RW","iso3":"RWA","admin_name":"Eastern Province","capital":"admin","population":"18009","id":"1646996571"},{"city":"Rock Ferry","city_ascii":"Rock Ferry","lat":"53.3730","lng":"-3.0080","country":"United Kingdom","iso2":"GB","iso3":"GBR","admin_name":"Wirral","capital":"","population":"14298","id":"1826250027"},{"city":"Rutherford","city_ascii":"Rutherford","lat":"40.8203","lng":"-74.1057","country":"United States","iso2":"US","iso3":"USA","admin_name":"New Jersey","capital":"","population":"18303","id":"1840000902"},{"city":"Royston","city_ascii":"Royston","lat":"52.0471","lng":"-0.0202","country":"United Kingdom","iso2":"GB","iso3":"GBR","admin_name":"Hertfordshire","capital":"","population":"15781","id":"1826165038"},{"city":"Rosyth","city_ascii":"Rosyth","lat":"56.0339","lng":"-3.4323","country":"United Kingdom","iso2":"GB","iso3":"GBR","admin_name":"Fife","capital":"","population":"13440","id":"1826173931"},{"city":"Rossington","city_ascii":"Rossington","lat":"53.4759","lng":"-1.0613","country":"United Kingdom","iso2":"GB","iso3":"GBR","admin_name":"Doncaster","capital":"","population":"13557","id":"1826906333"},{"city":"Ringwood","city_ascii":"Ringwood","lat":"50.8500","lng":"-1.7800","country":"United Kingdom","iso2":"GB","iso3":"GBR","admin_name":"Hampshire","capital":"","population":"13943","id":"1826578409"},{"city":"Redruth","city_ascii":"Redruth","lat":"50.2330","lng":"-5.2240","country":"United Kingdom","iso2":"GB","iso3":"GBR","admin_name":"Cornwall","capital":"","population":"14018","id":"1826258602"},{"city":"Rakvere","city_ascii":"Rakvere","lat":"59.3506","lng":"26.3611","country":"Estonia","iso2":"EE","iso3":"EST","admin_name":"Lääne-Virumaa","capital":"admin","population":"15189","id":"1233049348"},{"city":"Richmond","city_ascii":"Richmond","lat":"-41.3333","lng":"173.1833","country":"New Zealand","iso2":"NZ","iso3":"NZL","admin_name":"Tasman","capital":"admin","population":"15000","id":"1554001427"},{"city":"Ranong","city_ascii":"Ranong","lat":"9.9619","lng":"98.6389","country":"Thailand","iso2":"TH","iso3":"THA","admin_name":"Ranong","capital":"admin","population":"16125","id":"1764623795"},{"city":"Radoviš","city_ascii":"Radovis","lat":"41.6381","lng":"22.4644","country":"Macedonia","iso2":"MK","iso3":"MKD","admin_name":"Radoviš","capital":"admin","population":"16223","id":"1807341711"},{"city":"Roosevelt","city_ascii":"Roosevelt","lat":"40.6797","lng":"-73.5837","country":"United States","iso2":"US","iso3":"USA","admin_name":"New York","capital":"","population":"16229","id":"1840005253"},{"city":"Radviliškis","city_ascii":"Radviliskis","lat":"55.8000","lng":"23.5500","country":"Lithuania","iso2":"LT","iso3":"LTU","admin_name":"Radviliškis","capital":"admin","population":"15275","id":"1440712589"},{"city":"Rorschach","city_ascii":"Rorschach","lat":"47.4786","lng":"9.4936","country":"Switzerland","iso2":"CH","iso3":"CHE","admin_name":"Sankt Gallen","capital":"minor","population":"9439","id":"1756630924"},{"city":"Rayón","city_ascii":"Rayon","lat":"19.1481","lng":"-99.5800","country":"Mexico","iso2":"MX","iso3":"MEX","admin_name":"México","capital":"minor","population":"8590","id":"1484649015"},{"city":"Raynes Park","city_ascii":"Raynes Park","lat":"51.4033","lng":"-0.2321","country":"United Kingdom","iso2":"GB","iso3":"GBR","admin_name":"Merton","capital":"","population":"9738","id":"1826000018"},{"city":"Ryhope","city_ascii":"Ryhope","lat":"54.8679","lng":"-1.3698","country":"United Kingdom","iso2":"GB","iso3":"GBR","admin_name":"Sunderland","capital":"","population":"10484","id":"1826951829"},{"city":"Royston","city_ascii":"Royston","lat":"53.6100","lng":"-1.4500","country":"United Kingdom","iso2":"GB","iso3":"GBR","admin_name":"Barnsley","capital":"","population":"10728","id":"1826977688"},{"city":"Risca","city_ascii":"Risca","lat":"51.6080","lng":"-3.0910","country":"United Kingdom","iso2":"GB","iso3":"GBR","admin_name":"Caerphilly","capital":"","population":"11693","id":"1826115137"},{"city":"Roselle Park","city_ascii":"Roselle Park","lat":"40.6653","lng":"-74.2666","country":"United States","iso2":"US","iso3":"USA","admin_name":"New Jersey","capital":"","population":"13588","id":"1840001093"},{"city":"Río Grande","city_ascii":"Rio Grande","lat":"18.3789","lng":"-65.8388","country":"Puerto Rico","iso2":"PR","iso3":"PRI","admin_name":"Puerto Rico","capital":"","population":"12973","id":"1630023701"},{"city":"Ridgefield Park","city_ascii":"Ridgefield Park","lat":"40.8543","lng":"-74.0201","country":"United States","iso2":"US","iso3":"USA","admin_name":"New Jersey","capital":"","population":"12901","id":"1840000898"},{"city":"Rokiškis","city_ascii":"Rokiskis","lat":"55.9616","lng":"25.5807","country":"Lithuania","iso2":"LT","iso3":"LTU","admin_name":"Rokiškis","capital":"admin","population":"12738","id":"1440918695"},{"city":"Roby","city_ascii":"Roby","lat":"53.4130","lng":"-2.8520","country":"United Kingdom","iso2":"GB","iso3":"GBR","admin_name":"Knowsley","capital":"","population":"7254","id":"1826315331"},{"city":"Robertsport","city_ascii":"Robertsport","lat":"6.7533","lng":"-11.3686","country":"Liberia","iso2":"LR","iso3":"LBR","admin_name":"Grand Cape Mount","capital":"admin","population":"11969","id":"1430885010"},{"city":"Red Bank","city_ascii":"Red Bank","lat":"40.3481","lng":"-74.0672","country":"United States","iso2":"US","iso3":"USA","admin_name":"New Jersey","capital":"","population":"11966","id":"1840001358"},{"city":"Rosario","city_ascii":"Rosario","lat":"-34.3139","lng":"-57.3525","country":"Uruguay","iso2":"UY","iso3":"URY","admin_name":"Colonia","capital":"","population":"9311","id":"1858160603"},{"city":"Rosário","city_ascii":"Rosario","lat":"-2.9400","lng":"-44.2600","country":"Brazil","iso2":"BR","iso3":"BRA","admin_name":"Maranhão","capital":"","population":"6798","id":"1076804900"},{"city":"River Edge","city_ascii":"River Edge","lat":"40.9268","lng":"-74.0387","country":"United States","iso2":"US","iso3":"USA","admin_name":"New Jersey","capital":"","population":"11435","id":"1840000900"},{"city":"Richmond Heights","city_ascii":"Richmond Heights","lat":"25.6347","lng":"-80.3720","country":"United States","iso2":"US","iso3":"USA","admin_name":"Florida","capital":"","population":"11410","id":"1840014249"},{"city":"Rye","city_ascii":"Rye","lat":"50.9500","lng":"0.7300","country":"United Kingdom","iso2":"GB","iso3":"GBR","admin_name":"East Sussex","capital":"","population":"9041","id":"1826538056"},{"city":"Rossmoor","city_ascii":"Rossmoor","lat":"33.7886","lng":"-118.0803","country":"United States","iso2":"US","iso3":"USA","admin_name":"California","capital":"","population":"11160","id":"1840019320"},{"city":"Rezina","city_ascii":"Rezina","lat":"47.7492","lng":"28.9622","country":"Moldova","iso2":"MD","iso3":"MDA","admin_name":"Rezina","capital":"admin","population":"11032","id":"1498876065"},{"city":"Rothwell","city_ascii":"Rothwell","lat":"52.4254","lng":"-0.8029","country":"United Kingdom","iso2":"GB","iso3":"GBR","admin_name":"Northamptonshire","capital":"","population":"7694","id":"1826859422"},{"city":"Roatán","city_ascii":"Roatan","lat":"16.3300","lng":"-86.5190","country":"Honduras","iso2":"HN","iso3":"HND","admin_name":"Islas de la Bahía","capital":"admin","population":"7514","id":"1340163370"},{"city":"Radlett","city_ascii":"Radlett","lat":"51.6850","lng":"-0.3180","country":"United Kingdom","iso2":"GB","iso3":"GBR","admin_name":"Hertfordshire","capital":"","population":"8024","id":"1826850069"},{"city":"Rožaje","city_ascii":"Rozaje","lat":"42.8442","lng":"20.1679","country":"Montenegro","iso2":"ME","iso3":"MNE","admin_name":"Rožaje","capital":"admin","population":"9422","id":"1499854307"},{"city":"Rîşcani","city_ascii":"Riscani","lat":"47.9561","lng":"27.5536","country":"Moldova","iso2":"MD","iso3":"MDA","admin_name":"Rîşcani","capital":"admin","population":"9259","id":"1498650340"},{"city":"Riverside","city_ascii":"Riverside","lat":"40.0358","lng":"-74.9564","country":"United States","iso2":"US","iso3":"USA","admin_name":"New Jersey","capital":"","population":"7884","id":"1840081629"},{"city":"Rio Bravo","city_ascii":"Rio Bravo","lat":"27.3648","lng":"-99.4820","country":"United States","iso2":"US","iso3":"USA","admin_name":"Texas","capital":"","population":"7797","id":"1840021001"},{"city":"Radstock","city_ascii":"Radstock","lat":"51.2930","lng":"-2.4480","country":"United Kingdom","iso2":"GB","iso3":"GBR","admin_name":"Bath and North East Somerset","capital":"","population":"5620","id":"1826100157"},{"city":"Ruše","city_ascii":"Ruse","lat":"46.5383","lng":"15.5153","country":"Slovenia","iso2":"SI","iso3":"SVN","admin_name":"Ruše","capital":"admin","population":"7351","id":"1705417281"},{"city":"Ruyigi","city_ascii":"Ruyigi","lat":"-3.4667","lng":"30.2500","country":"Burundi","iso2":"BI","iso3":"BDI","admin_name":"Ruyigi","capital":"admin","population":"7139","id":"1108406902"},{"city":"Ridley Park","city_ascii":"Ridley Park","lat":"39.8785","lng":"-75.3251","country":"United States","iso2":"US","iso3":"USA","admin_name":"Pennsylvania","capital":"","population":"7065","id":"1840000708"},{"city":"Rapla","city_ascii":"Rapla","lat":"58.9944","lng":"24.8011","country":"Estonia","iso2":"EE","iso3":"EST","admin_name":"Raplamaa","capital":"admin","population":"5069","id":"1233013333"},{"city":"Ranillug","city_ascii":"Ranillug","lat":"42.4920","lng":"21.5590","country":"Kosovo","iso2":"XK","iso3":"XKS","admin_name":"Ranillug","capital":"admin","population":"5800","id":"1901029901"},{"city":"Rochelle Park","city_ascii":"Rochelle Park","lat":"40.9069","lng":"-74.0791","country":"United States","iso2":"US","iso3":"USA","admin_name":"New Jersey","capital":"","population":"5613","id":"1840081801"},{"city":"Ros Comáin","city_ascii":"Ros Comain","lat":"53.6333","lng":"-8.1833","country":"Ireland","iso2":"IE","iso3":"IRL","admin_name":"Roscommon","capital":"admin","population":"4860","id":"1372870384"},{"city":"Rumphi","city_ascii":"Rumphi","lat":"-11.0153","lng":"33.7722","country":"Malawi","iso2":"MW","iso3":"MWI","admin_name":"Rumphi","capital":"admin","population":"","id":"1454325221"},{"city":"Remich","city_ascii":"Remich","lat":"49.5444","lng":"6.3667","country":"Luxembourg","iso2":"LU","iso3":"LUX","admin_name":"Remich","capital":"admin","population":"3732","id":"1442971283"},{"city":"Rietavas","city_ascii":"Rietavas","lat":"55.7250","lng":"21.9278","country":"Lithuania","iso2":"LT","iso3":"LTU","admin_name":"Rietavo","capital":"admin","population":"3308","id":"1440780088"},{"city":"Rūjiena","city_ascii":"Rujiena","lat":"57.8969","lng":"25.3261","country":"Latvia","iso2":"LV","iso3":"LVA","admin_name":"Rūjienas Novads","capital":"admin","population":"2887","id":"1428387860"},{"city":"Rasdhoo","city_ascii":"Rasdhoo","lat":"4.2631","lng":"72.9919","country":"Maldives","iso2":"MV","iso3":"MDV","admin_name":"Ari Atholhu Uthuruburi","capital":"admin","population":"","id":"1462000003"},{"city":"Romblon","city_ascii":"Romblon","lat":"12.5751","lng":"122.2708","country":"Philippines","iso2":"PH","iso3":"PHL","admin_name":"Romblon","capital":"admin","population":"","id":"1608428749"},{"city":"Ravne na Koroškem","city_ascii":"Ravne na Koroskem","lat":"46.5437","lng":"14.9642","country":"Slovenia","iso2":"SI","iso3":"SVN","admin_name":"Ravne na Koroškem","capital":"admin","population":"","id":"1705757622"},{"city":"Radlje ob Dravi","city_ascii":"Radlje ob Dravi","lat":"46.6149","lng":"15.2226","country":"Slovenia","iso2":"SI","iso3":"SVN","admin_name":"Radlje ob Dravi","capital":"admin","population":"","id":"1705478193"},{"city":"Relizane","city_ascii":"Relizane","lat":"35.7373","lng":"0.5560","country":"Algeria","iso2":"DZ","iso3":"DZA","admin_name":"Relizane","capital":"admin","population":"","id":"1012939885"},{"city":"Radovljica","city_ascii":"Radovljica","lat":"46.3444","lng":"14.1744","country":"Slovenia","iso2":"SI","iso3":"SVN","admin_name":"Radovljica","capital":"admin","population":"","id":"1705488511"},{"city":"Rogaška Slatina","city_ascii":"Rogaska Slatina","lat":"46.2375","lng":"15.6397","country":"Slovenia","iso2":"SI","iso3":"SVN","admin_name":"Rogaška Slatina","capital":"admin","population":"","id":"1705772825"},{"city":"Ribeira Grande","city_ascii":"Ribeira Grande","lat":"17.1825","lng":"-25.0650","country":"Cabo Verde","iso2":"CV","iso3":"CPV","admin_name":"Ribeira Grande","capital":"admin","population":"","id":"1132061543"},{"city":"Rumonge","city_ascii":"Rumonge","lat":"-3.9736","lng":"29.4386","country":"Burundi","iso2":"BI","iso3":"BDI","admin_name":"Rumonge","capital":"admin","population":"","id":"1108641885"},{"city":"Rubirizi","city_ascii":"Rubirizi","lat":"-0.2989","lng":"30.1336","country":"Uganda","iso2":"UG","iso3":"UGA","admin_name":"Rubirizi","capital":"admin","population":"","id":"1800947890"},{"city":"Radenci","city_ascii":"Radenci","lat":"46.6472","lng":"16.0442","country":"Slovenia","iso2":"SI","iso3":"SVN","admin_name":"Radenci","capital":"admin","population":"","id":"1705609332"},{"city":"Rabat","city_ascii":"Rabat","lat":"35.8822","lng":"14.3981","country":"Malta","iso2":"MT","iso3":"MLT","admin_name":"Rabat","capital":"admin","population":"","id":"1470262687"},{"city":"Rače","city_ascii":"Race","lat":"46.4519","lng":"15.6814","country":"Slovenia","iso2":"SI","iso3":"SVN","admin_name":"Rače-Fram","capital":"admin","population":"","id":"1705643433"},{"city":"Rukungiri","city_ascii":"Rukungiri","lat":"-0.8411","lng":"29.9419","country":"Uganda","iso2":"UG","iso3":"UGA","admin_name":"Rukungiri","capital":"admin","population":"","id":"1800982268"},{"city":"Rubanda","city_ascii":"Rubanda","lat":"-1.1883","lng":"29.8461","country":"Uganda","iso2":"UG","iso3":"UGA","admin_name":"Kabale","capital":"admin","population":"","id":"1800066560"},{"city":"Ruggell","city_ascii":"Ruggell","lat":"47.2450","lng":"9.5332","country":"Liechtenstein","iso2":"LI","iso3":"LIE","admin_name":"Ruggell","capital":"admin","population":"","id":"1438787609"},{"city":"Rakai","city_ascii":"Rakai","lat":"-0.7200","lng":"31.4839","country":"Uganda","iso2":"UG","iso3":"UGA","admin_name":"Rakai","capital":"admin","population":"","id":"1800039440"},{"city":"Rečica","city_ascii":"Recica","lat":"46.3167","lng":"14.9167","country":"Slovenia","iso2":"SI","iso3":"SVN","admin_name":"Rečica ob Savinji","capital":"admin","population":"","id":"1705082644"},{"city":"Ramotswa","city_ascii":"Ramotswa","lat":"-24.8667","lng":"25.8167","country":"Botswana","iso2":"BW","iso3":"BWA","admin_name":"South East","capital":"admin","population":"","id":"1072070629"},{"city":"Rabak","city_ascii":"Rabak","lat":"13.1880","lng":"32.7437","country":"Sudan","iso2":"SD","iso3":"SDN","admin_name":"White Nile","capital":"admin","population":"","id":"1729452233"},{"city":"Radeče","city_ascii":"Radece","lat":"46.0659","lng":"15.1729","country":"Slovenia","iso2":"SI","iso3":"SVN","admin_name":"Radeče","capital":"admin","population":"","id":"1705420341"},{"city":"Rumuruti","city_ascii":"Rumuruti","lat":"0.2725","lng":"36.5381","country":"Kenya","iso2":"KE","iso3":"KEN","admin_name":"Laikipia","capital":"admin","population":"","id":"1404005234"},{"city":"Rogašovci","city_ascii":"Rogasovci","lat":"46.8000","lng":"16.0333","country":"Slovenia","iso2":"SI","iso3":"SVN","admin_name":"Rogašovci","capital":"admin","population":"","id":"1705970248"},{"city":"Ražanj","city_ascii":"Razanj","lat":"43.6744","lng":"21.5492","country":"Serbia","iso2":"RS","iso3":"SRB","admin_name":"Ražanj","capital":"admin","population":"","id":"1688323517"},{"city":"Ribnica","city_ascii":"Ribnica","lat":"45.7386","lng":"14.7275","country":"Slovenia","iso2":"SI","iso3":"SVN","admin_name":"Ribnica","capital":"admin","population":"","id":"1705675272"},{"city":"Redange-sur-Attert","city_ascii":"Redange-sur-Attert","lat":"49.7656","lng":"5.8908","country":"Luxembourg","iso2":"LU","iso3":"LUX","admin_name":"Redange","capital":"admin","population":"","id":"1442099691"},{"city":"Ribnica","city_ascii":"Ribnica","lat":"46.5350","lng":"15.2728","country":"Slovenia","iso2":"SI","iso3":"SVN","admin_name":"Ribnica na Pohorju","capital":"admin","population":"","id":"1705830999"},{"city":"Razkrižje","city_ascii":"Razkrizje","lat":"46.5217","lng":"16.2811","country":"Slovenia","iso2":"SI","iso3":"SVN","admin_name":"Razkrižje","capital":"admin","population":"","id":"1705276725"},{"city":"Rustavi","city_ascii":"Rustavi","lat":"42.2897","lng":"43.8543","country":"Georgia","iso2":"GE","iso3":"GEO","admin_name":"Kvemo Kartli","capital":"admin","population":"","id":"1268297743"},{"city":"Rogatec","city_ascii":"Rogatec","lat":"46.2294","lng":"15.7003","country":"Slovenia","iso2":"SI","iso3":"SVN","admin_name":"Rogatec","capital":"admin","population":"","id":"1705579021"},{"city":"Rača","city_ascii":"Raca","lat":"44.2333","lng":"20.9833","country":"Serbia","iso2":"RS","iso3":"SRB","admin_name":"Rača","capital":"admin","population":"","id":"1688403125"},{"city":"Rekovac","city_ascii":"Rekovac","lat":"43.8667","lng":"21.1333","country":"Serbia","iso2":"RS","iso3":"SRB","admin_name":"Rekovac","capital":"admin","population":"","id":"1688955843"},{"city":"Rio Claro","city_ascii":"Rio Claro","lat":"10.3059","lng":"-61.1756","country":"Trinidad And Tobago","iso2":"TT","iso3":"TTO","admin_name":"Mayaro/Rio Claro","capital":"admin","population":"","id":"1780883666"},{"city":"Raška","city_ascii":"Raska","lat":"43.2856","lng":"20.6092","country":"Serbia","iso2":"RS","iso3":"SRB","admin_name":"Raška","capital":"admin","population":"","id":"1688129790"},{"city":"Ruma","city_ascii":"Ruma","lat":"45.0031","lng":"19.8289","country":"Serbia","iso2":"RS","iso3":"SRB","admin_name":"Ruma","capital":"admin","population":"","id":"1688037789"},{"city":"Rosoman","city_ascii":"Rosoman","lat":"41.5167","lng":"21.9458","country":"Macedonia","iso2":"MK","iso3":"MKD","admin_name":"Rosoman","capital":"admin","population":"","id":"1807663389"},{"city":"Ribeira Brava","city_ascii":"Ribeira Brava","lat":"16.6158","lng":"-24.2983","country":"Cabo Verde","iso2":"CV","iso3":"CPV","admin_name":"Ribeira Brava","capital":"admin","population":"","id":"1132498214"},{"city":"Resen","city_ascii":"Resen","lat":"41.0893","lng":"21.0109","country":"Macedonia","iso2":"MK","iso3":"MKD","admin_name":"Resen","capital":"admin","population":"","id":"1807384915"},{"city":"Raseiniai","city_ascii":"Raseiniai","lat":"55.3797","lng":"23.1239","country":"Lithuania","iso2":"LT","iso3":"LTU","admin_name":"Raseiniai","capital":"admin","population":"","id":"1440481520"},{"city":"Roja","city_ascii":"Roja","lat":"57.5015","lng":"22.8088","country":"Latvia","iso2":"LV","iso3":"LVA","admin_name":"Rojas Novads","capital":"admin","population":"","id":"1428577367"},{"city":"Ropaži","city_ascii":"Ropazi","lat":"56.9747","lng":"24.6329","country":"Latvia","iso2":"LV","iso3":"LVA","admin_name":"Ropažu Novads","capital":"admin","population":"","id":"1428220999"},{"city":"Ragana","city_ascii":"Ragana","lat":"57.1821","lng":"24.7056","country":"Latvia","iso2":"LV","iso3":"LVA","admin_name":"Krimuldas Novads","capital":"admin","population":"","id":"1428990628"},{"city":"Rankovce","city_ascii":"Rankovce","lat":"42.1686","lng":"22.1166","country":"Macedonia","iso2":"MK","iso3":"MKD","admin_name":"Rankovce","capital":"admin","population":"","id":"1807575395"},{"city":"Rostuša","city_ascii":"Rostusa","lat":"41.6100","lng":"20.6000","country":"Macedonia","iso2":"MK","iso3":"MKD","admin_name":"Mavrovo i Rostuša","capital":"admin","population":"","id":"1807907483"},{"city":"Rauna","city_ascii":"Rauna","lat":"57.3337","lng":"25.6085","country":"Latvia","iso2":"LV","iso3":"LVA","admin_name":"Raunas Novads","capital":"admin","population":"","id":"1428987270"},{"city":"Riebiņi","city_ascii":"Riebini","lat":"56.3403","lng":"26.7999","country":"Latvia","iso2":"LV","iso3":"LVA","admin_name":"Riebiņu Novads","capital":"admin","population":"","id":"1428663476"},{"city":"Rugāji","city_ascii":"Rugaji","lat":"57.0033","lng":"27.1337","country":"Latvia","iso2":"LV","iso3":"LVA","admin_name":"Rugāju Novads","capital":"admin","population":"","id":"1428746884"},{"city":"Rucava","city_ascii":"Rucava","lat":"56.1640","lng":"21.1627","country":"Latvia","iso2":"LV","iso3":"LVA","admin_name":"Rucavas Novads","capital":"admin","population":"","id":"1428020890"},{"city":"Rio Rancho","city_ascii":"Rio Rancho","lat":"35.2872","lng":"-106.6981","country":"United States","iso2":"US","iso3":"USA","admin_name":"New Mexico","capital":"","population":"99178","id":"1840020387"},{"city":"Reyhanlı","city_ascii":"Reyhanli","lat":"36.2692","lng":"36.5672","country":"Turkey","iso2":"TR","iso3":"TUR","admin_name":"Hatay","capital":"minor","population":"98534","id":"1792253206"},{"city":"Rubio","city_ascii":"Rubio","lat":"7.7000","lng":"-72.3500","country":"Venezuela","iso2":"VE","iso3":"VEN","admin_name":"Táchira","capital":"minor","population":"95041","id":"1862078206"},{"city":"Roswell","city_ascii":"Roswell","lat":"34.0391","lng":"-84.3513","country":"United States","iso2":"US","iso3":"USA","admin_name":"Georgia","capital":"","population":"94763","id":"1840014741"},{"city":"Rafaela","city_ascii":"Rafaela","lat":"-31.2667","lng":"-61.4833","country":"Argentina","iso2":"AR","iso3":"ARG","admin_name":"Santa Fe","capital":"minor","population":"92945","id":"1032181625"},{"city":"Rāyachoti","city_ascii":"Rayachoti","lat":"14.0500","lng":"78.7500","country":"India","iso2":"IN","iso3":"IND","admin_name":"Andhra Pradesh","capital":"","population":"91234","id":"1356147853"},{"city":"Rapid City","city_ascii":"Rapid City","lat":"44.0716","lng":"-103.2204","country":"United States","iso2":"US","iso3":"USA","admin_name":"South Dakota","capital":"","population":"92664","id":"1840002180"},{"city":"Rongwo","city_ascii":"Rongwo","lat":"35.5165","lng":"102.0166","country":"China","iso2":"CN","iso3":"CHN","admin_name":"Qinghai","capital":"minor","population":"92601","id":"1156068157"},{"city":"Riverview","city_ascii":"Riverview","lat":"27.8227","lng":"-82.3023","country":"United States","iso2":"US","iso3":"USA","admin_name":"Florida","capital":"","population":"91190","id":"1840014158"},{"city":"Ratingen","city_ascii":"Ratingen","lat":"51.3000","lng":"6.8500","country":"Germany","iso2":"DE","iso3":"DEU","admin_name":"North Rhine-Westphalia","capital":"","population":"87297","id":"1276005433"},{"city":"Redwood City","city_ascii":"Redwood City","lat":"37.5026","lng":"-122.2252","country":"United States","iso2":"US","iso3":"USA","admin_name":"California","capital":"","population":"85925","id":"1840020304"},{"city":"Repentigny","city_ascii":"Repentigny","lat":"45.7333","lng":"-73.4667","country":"Canada","iso2":"CA","iso3":"CAN","admin_name":"Quebec","capital":"","population":"84965","id":"1124379778"},{"city":"Redditch","city_ascii":"Redditch","lat":"52.3069","lng":"-1.9492","country":"United Kingdom","iso2":"GB","iso3":"GBR","admin_name":"Worcestershire","capital":"","population":"81919","id":"1826205148"},{"city":"Rockhampton","city_ascii":"Rockhampton","lat":"-23.3750","lng":"150.5117","country":"Australia","iso2":"AU","iso3":"AUS","admin_name":"Queensland","capital":"","population":"78592","id":"1036768986"},{"city":"Ryūgasaki","city_ascii":"Ryugasaki","lat":"35.9167","lng":"140.1833","country":"Japan","iso2":"JP","iso3":"JPN","admin_name":"Ibaraki","capital":"","population":"76741","id":"1392150237"},{"city":"Rheine","city_ascii":"Rheine","lat":"52.2833","lng":"7.4333","country":"Germany","iso2":"DE","iso3":"DEU","admin_name":"North Rhine-Westphalia","capital":"","population":"76107","id":"1276882978"},{"city":"Rancho Cordova","city_ascii":"Rancho Cordova","lat":"38.5740","lng":"-121.2523","country":"United States","iso2":"US","iso3":"USA","admin_name":"California","capital":"","population":"75087","id":"1840020248"},{"city":"Rochester Hills","city_ascii":"Rochester Hills","lat":"42.6645","lng":"-83.1563","country":"United States","iso2":"US","iso3":"USA","admin_name":"Michigan","capital":"","population":"74516","id":"1840002429"},{"city":"Riberalta","city_ascii":"Riberalta","lat":"-10.9830","lng":"-66.1000","country":"Bolivia","iso2":"BO","iso3":"BOL","admin_name":"El Beni","capital":"","population":"74014","id":"1068951603"},{"city":"Redmond","city_ascii":"Redmond","lat":"47.6762","lng":"-122.1169","country":"United States","iso2":"US","iso3":"USA","admin_name":"Washington","capital":"","population":"71929","id":"1840019835"},{"city":"Redlands","city_ascii":"Redlands","lat":"34.0511","lng":"-117.1712","country":"United States","iso2":"US","iso3":"USA","admin_name":"California","capital":"","population":"71513","id":"1840020412"},{"city":"Rittō","city_ascii":"Ritto","lat":"35.0217","lng":"135.9981","country":"Japan","iso2":"JP","iso3":"JPN","admin_name":"Shiga","capital":"","population":"69294","id":"1392932001"},{"city":"Reconquista","city_ascii":"Reconquista","lat":"-29.1443","lng":"-59.6438","country":"Argentina","iso2":"AR","iso3":"ARG","admin_name":"Santa Fe","capital":"minor","population":"70549","id":"1032927391"},{"city":"Rosetta","city_ascii":"Rosetta","lat":"31.4014","lng":"30.4194","country":"Egypt","iso2":"EG","iso3":"EGY","admin_name":"Al Buḩayrah","capital":"","population":"68947","id":"1818868679"},{"city":"Ragusa","city_ascii":"Ragusa","lat":"36.9300","lng":"14.7300","country":"Italy","iso2":"IT","iso3":"ITA","admin_name":"Sicilia","capital":"minor","population":"68956","id":"1380117871"},{"city":"Rocklin","city_ascii":"Rocklin","lat":"38.8075","lng":"-121.2488","country":"United States","iso2":"US","iso3":"USA","admin_name":"California","capital":"","population":"68823","id":"1840020232"},{"city":"Rogers","city_ascii":"Rogers","lat":"36.3172","lng":"-94.1526","country":"United States","iso2":"US","iso3":"USA","admin_name":"Arkansas","capital":"","population":"68669","id":"1840014444"},{"city":"Rockville","city_ascii":"Rockville","lat":"39.0834","lng":"-77.1552","country":"United States","iso2":"US","iso3":"USA","admin_name":"Maryland","capital":"","population":"68079","id":"1840005849"},{"city":"Rowlett","city_ascii":"Rowlett","lat":"32.9157","lng":"-96.5488","country":"United States","iso2":"US","iso3":"USA","admin_name":"Texas","capital":"","population":"67339","id":"1840020711"},{"city":"Rio Negro","city_ascii":"Rio Negro","lat":"-26.1000","lng":"-49.7900","country":"Brazil","iso2":"BR","iso3":"BRA","admin_name":"Paraná","capital":"","population":"65597","id":"1076653242"},{"city":"Rosenheim","city_ascii":"Rosenheim","lat":"47.8561","lng":"12.1289","country":"Germany","iso2":"DE","iso3":"DEU","admin_name":"Bavaria","capital":"minor","population":"63324","id":"1276301675"},{"city":"Rafḩā","city_ascii":"Rafha","lat":"29.6202","lng":"43.4948","country":"Saudi Arabia","iso2":"SA","iso3":"SAU","admin_name":"Al Ḩudūd ash Shamālīyah","capital":"","population":"64755","id":"1682612877"},{"city":"Rahat","city_ascii":"Rahat","lat":"31.3925","lng":"34.7544","country":"Israel","iso2":"IL","iso3":"ISR","admin_name":"Southern","capital":"","population":"64462","id":"1376207828"},{"city":"Rocky Mount","city_ascii":"Rocky Mount","lat":"35.9676","lng":"-77.8048","country":"United States","iso2":"US","iso3":"USA","admin_name":"North Carolina","capital":"","population":"64018","id":"1840014490"},{"city":"Roeselare","city_ascii":"Roeselare","lat":"50.9447","lng":"3.1233","country":"Belgium","iso2":"BE","iso3":"BEL","admin_name":"Flanders","capital":"minor","population":"62301","id":"1056334112"},{"city":"Rhondda","city_ascii":"Rhondda","lat":"51.6159","lng":"-3.4175","country":"United Kingdom","iso2":"GB","iso3":"GBR","admin_name":"Rhondda Cynon Taff","capital":"","population":"62545","id":"1826659053"},{"city":"Rossosh’","city_ascii":"Rossosh'","lat":"50.1983","lng":"39.5672","country":"Russia","iso2":"RU","iso3":"RUS","admin_name":"Voronezhskaya Oblast’","capital":"minor","population":"62827","id":"1643115757"},{"city":"Revda","city_ascii":"Revda","lat":"56.8000","lng":"59.9167","country":"Russia","iso2":"RU","iso3":"RUS","admin_name":"Sverdlovskaya Oblast’","capital":"","population":"62687","id":"1643633975"},{"city":"Runcorn","city_ascii":"Runcorn","lat":"53.3410","lng":"-2.7290","country":"United Kingdom","iso2":"GB","iso3":"GBR","admin_name":"Halton","capital":"","population":"61789","id":"1826349439"},{"city":"Rubizhne","city_ascii":"Rubizhne","lat":"49.0167","lng":"38.3667","country":"Ukraine","iso2":"UA","iso3":"UKR","admin_name":"Luhans’ka Oblast’","capital":"","population":"59951","id":"1804246584"},{"city":"Rome","city_ascii":"Rome","lat":"34.2661","lng":"-85.1862","country":"United States","iso2":"US","iso3":"USA","admin_name":"Georgia","capital":"","population":"61537","id":"1840014681"},{"city":"Rzhev","city_ascii":"Rzhev","lat":"56.2656","lng":"34.3276","country":"Russia","iso2":"RU","iso3":"RUS","admin_name":"Tverskaya Oblast’","capital":"","population":"59422","id":"1643967736"},{"city":"Reston","city_ascii":"Reston","lat":"38.9497","lng":"-77.3461","country":"United States","iso2":"US","iso3":"USA","admin_name":"Virginia","capital":"","population":"60335","id":"1840006025"},{"city":"Royal Oak","city_ascii":"Royal Oak","lat":"42.5084","lng":"-83.1539","country":"United States","iso2":"US","iso3":"USA","admin_name":"Michigan","capital":"","population":"59277","id":"1840002430"},{"city":"Richland","city_ascii":"Richland","lat":"46.2824","lng":"-119.2938","country":"United States","iso2":"US","iso3":"USA","admin_name":"Washington","capital":"","population":"58225","id":"1840019889"},{"city":"Rîbniţa","city_ascii":"Ribnita","lat":"47.7664","lng":"29.0006","country":"Moldova","iso2":"MD","iso3":"MDA","admin_name":"Stînga Nistrului","capital":"","population":"56988","id":"1498197530"},{"city":"Registro","city_ascii":"Registro","lat":"-24.4878","lng":"-47.8439","country":"Brazil","iso2":"BR","iso3":"BRA","admin_name":"São Paulo","capital":"","population":"56280","id":"1076533111"},{"city":"Rotorua","city_ascii":"Rotorua","lat":"-38.1378","lng":"176.2514","country":"New Zealand","iso2":"NZ","iso3":"NZL","admin_name":"Bay of Plenty","capital":"","population":"54500","id":"1554000379"},{"city":"Ruteng","city_ascii":"Ruteng","lat":"-8.6118","lng":"120.4698","country":"Indonesia","iso2":"ID","iso3":"IDN","admin_name":"Nusa Tenggara Timur","capital":"minor","population":"53976","id":"1360084520"},{"city":"Repalle","city_ascii":"Repalle","lat":"16.0200","lng":"80.8500","country":"India","iso2":"IN","iso3":"IND","admin_name":"Andhra Pradesh","capital":"","population":"50866","id":"1356083696"},{"city":"Ravensburg","city_ascii":"Ravensburg","lat":"47.7831","lng":"9.6114","country":"Germany","iso2":"DE","iso3":"DEU","admin_name":"Baden-Württemberg","capital":"minor","population":"50623","id":"1276088263"},{"city":"Rastatt","city_ascii":"Rastatt","lat":"48.8572","lng":"8.2031","country":"Germany","iso2":"DE","iso3":"DEU","admin_name":"Baden-Württemberg","capital":"minor","population":"49783","id":"1276684629"},{"city":"Rowland Heights","city_ascii":"Rowland Heights","lat":"33.9716","lng":"-117.8911","country":"United States","iso2":"US","iso3":"USA","admin_name":"California","capital":"","population":"50602","id":"1840019211"},{"city":"Roslavl’","city_ascii":"Roslavl'","lat":"53.9492","lng":"32.8569","country":"Russia","iso2":"RU","iso3":"RUS","admin_name":"Smolenskaya Oblast’","capital":"","population":"50112","id":"1643356591"},{"city":"Rāmhormoz","city_ascii":"Ramhormoz","lat":"31.2783","lng":"49.6064","country":"Iran","iso2":"IR","iso3":"IRN","admin_name":"Khūzestān","capital":"minor","population":"49822","id":"1364637975"},{"city":"Ridder","city_ascii":"Ridder","lat":"50.3500","lng":"83.5167","country":"Kazakhstan","iso2":"KZ","iso3":"KAZ","admin_name":"Shyghys Qazaqstan","capital":"","population":"49695","id":"1398556139"},{"city":"Rheda-Wiedenbrück","city_ascii":"Rheda-Wiedenbruck","lat":"51.8417","lng":"8.3000","country":"Germany","iso2":"DE","iso3":"DEU","admin_name":"North Rhine-Westphalia","capital":"","population":"48505","id":"1276045371"},{"city":"Reedley","city_ascii":"Reedley","lat":"36.5987","lng":"-119.4473","country":"United States","iso2":"US","iso3":"USA","admin_name":"California","capital":"","population":"49042","id":"1840020320"},{"city":"Roswell","city_ascii":"Roswell","lat":"33.3730","lng":"-104.5294","country":"United States","iso2":"US","iso3":"USA","admin_name":"New Mexico","capital":"","population":"48889","id":"1840020549"},{"city":"Rimouski","city_ascii":"Rimouski","lat":"48.4500","lng":"-68.5300","country":"Canada","iso2":"CA","iso3":"CAN","admin_name":"Quebec","capital":"","population":"48664","id":"1124433645"},{"city":"Rio Grande City","city_ascii":"Rio Grande City","lat":"26.3808","lng":"-98.8215","country":"United States","iso2":"US","iso3":"USA","admin_name":"Texas","capital":"","population":"48610","id":"1840021016"},{"city":"Rumia","city_ascii":"Rumia","lat":"54.5667","lng":"18.4000","country":"Poland","iso2":"PL","iso3":"POL","admin_name":"Pomorskie","capital":"","population":"47148","id":"1616655416"},{"city":"Rio Grande da Serra","city_ascii":"Rio Grande da Serra","lat":"-23.7439","lng":"-46.3978","country":"Brazil","iso2":"BR","iso3":"BRA","admin_name":"São Paulo","capital":"","population":"48302","id":"1076473006"},{"city":"Rancho Santa Margarita","city_ascii":"Rancho Santa Margarita","lat":"33.6318","lng":"-117.5989","country":"United States","iso2":"US","iso3":"USA","admin_name":"California","capital":"","population":"47896","id":"1840020584"},{"city":"Roseville","city_ascii":"Roseville","lat":"42.5074","lng":"-82.9369","country":"United States","iso2":"US","iso3":"USA","admin_name":"Michigan","capital":"","population":"47018","id":"1840003092"},{"city":"Río Tercero","city_ascii":"Rio Tercero","lat":"-32.1768","lng":"-64.1130","country":"Argentina","iso2":"AR","iso3":"ARG","admin_name":"Córdoba","capital":"","population":"46421","id":"1032103221"},{"city":"Roseburg","city_ascii":"Roseburg","lat":"43.2232","lng":"-123.3518","country":"United States","iso2":"US","iso3":"USA","admin_name":"Oregon","capital":"","population":"46228","id":"1840020034"},{"city":"Roskilde","city_ascii":"Roskilde","lat":"55.6500","lng":"12.0833","country":"Denmark","iso2":"DK","iso3":"DNK","admin_name":"Sjælland","capital":"minor","population":"44285","id":"1208722269"},{"city":"Rodgau","city_ascii":"Rodgau","lat":"50.0256","lng":"8.8841","country":"Germany","iso2":"DE","iso3":"DEU","admin_name":"Hesse","capital":"","population":"45202","id":"1276173536"},{"city":"Rockwall","city_ascii":"Rockwall","lat":"32.9169","lng":"-96.4377","country":"United States","iso2":"US","iso3":"USA","admin_name":"Texas","capital":"","population":"45888","id":"1840020717"},{"city":"Rāmeswaram","city_ascii":"Rameswaram","lat":"9.2800","lng":"79.3000","country":"India","iso2":"IN","iso3":"IND","admin_name":"Tamil Nādu","capital":"","population":"44856","id":"1356465756"},{"city":"Radā‘","city_ascii":"Rada`","lat":"14.4295","lng":"44.8341","country":"Yemen","iso2":"YE","iso3":"YEM","admin_name":"Al Bayḑā’","capital":"minor","population":"45233","id":"1887090855"},{"city":"Ruzayevka","city_ascii":"Ruzayevka","lat":"54.0667","lng":"44.9500","country":"Russia","iso2":"RU","iso3":"RUS","admin_name":"Mordoviya","capital":"","population":"45248","id":"1643836574"},{"city":"Rasskazovo","city_ascii":"Rasskazovo","lat":"52.6667","lng":"41.8833","country":"Russia","iso2":"RU","iso3":"RUS","admin_name":"Tambovskaya Oblast’","capital":"","population":"43758","id":"1643014647"},{"city":"Riverton","city_ascii":"Riverton","lat":"40.5177","lng":"-111.9635","country":"United States","iso2":"US","iso3":"USA","admin_name":"Utah","capital":"","population":"44440","id":"1840020157"},{"city":"Rantepao","city_ascii":"Rantepao","lat":"-2.9690","lng":"119.9000","country":"Indonesia","iso2":"ID","iso3":"IDN","admin_name":"Sulawesi Selatan","capital":"minor","population":"43123","id":"1360797389"},{"city":"Richmond","city_ascii":"Richmond","lat":"39.8318","lng":"-84.8905","country":"United States","iso2":"US","iso3":"USA","admin_name":"Indiana","capital":"","population":"42373","id":"1840014176"},{"city":"Rājgīr","city_ascii":"Rajgir","lat":"25.0300","lng":"85.4200","country":"India","iso2":"IN","iso3":"IND","admin_name":"Bihār","capital":"","population":"41587","id":"1356823690"},{"city":"Rouyn-Noranda","city_ascii":"Rouyn-Noranda","lat":"48.2333","lng":"-79.0167","country":"Canada","iso2":"CA","iso3":"CAN","admin_name":"Quebec","capital":"","population":"42334","id":"1124267752"},{"city":"Rajaori","city_ascii":"Rajaori","lat":"33.3800","lng":"74.3000","country":"India","iso2":"IN","iso3":"IND","admin_name":"Jammu and Kashmīr","capital":"","population":"41552","id":"1356109150"},{"city":"Rancho Palos Verdes","city_ascii":"Rancho Palos Verdes","lat":"33.7554","lng":"-118.3637","country":"United States","iso2":"US","iso3":"USA","admin_name":"California","capital":"","population":"41530","id":"1840020508"},{"city":"Richmond","city_ascii":"Richmond","lat":"37.7306","lng":"-84.2926","country":"United States","iso2":"US","iso3":"USA","admin_name":"Kentucky","capital":"","population":"40972","id":"1840014341"},{"city":"Romny","city_ascii":"Romny","lat":"50.7428","lng":"33.4879","country":"Ukraine","iso2":"UA","iso3":"UKR","admin_name":"Sums’ka Oblast’","capital":"minor","population":"40316","id":"1804386942"},{"city":"Royal Palm Beach","city_ascii":"Royal Palm Beach","lat":"26.7038","lng":"-80.2241","country":"United States","iso2":"US","iso3":"USA","admin_name":"Florida","capital":"","population":"40396","id":"1840018309"},{"city":"Raub","city_ascii":"Raub","lat":"3.7931","lng":"101.8569","country":"Malaysia","iso2":"MY","iso3":"MYS","admin_name":"Pahang","capital":"","population":"40024","id":"1458881822"},{"city":"Rauma","city_ascii":"Rauma","lat":"61.1167","lng":"21.5000","country":"Finland","iso2":"FI","iso3":"FIN","admin_name":"Satakunta","capital":"minor","population":"39809","id":"1246262958"},{"city":"Romeoville","city_ascii":"Romeoville","lat":"41.6318","lng":"-88.0996","country":"United States","iso2":"US","iso3":"USA","admin_name":"Illinois","capital":"","population":"39746","id":"1840011489"},{"city":"Roy","city_ascii":"Roy","lat":"41.1715","lng":"-112.0485","country":"United States","iso2":"US","iso3":"USA","admin_name":"Utah","capital":"","population":"39613","id":"1840020132"},{"city":"Rtishchevo","city_ascii":"Rtishchevo","lat":"52.2500","lng":"43.7833","country":"Russia","iso2":"RU","iso3":"RUS","admin_name":"Saratovskaya Oblast’","capital":"","population":"39005","id":"1643692612"},{"city":"Reynoldsburg","city_ascii":"Reynoldsburg","lat":"39.9587","lng":"-82.7944","country":"United States","iso2":"US","iso3":"USA","admin_name":"Ohio","capital":"","population":"38327","id":"1840009473"},{"city":"Rosenberg","city_ascii":"Rosenberg","lat":"29.5460","lng":"-95.8220","country":"United States","iso2":"US","iso3":"USA","admin_name":"Texas","capital":"","population":"38307","id":"1840020948"},{"city":"Réo","city_ascii":"Reo","lat":"12.3335","lng":"-2.4669","country":"Burkina Faso","iso2":"BF","iso3":"BFA","admin_name":"Centre-Ouest","capital":"minor","population":"37535","id":"1854684997"},{"city":"Risalpur Cantonment","city_ascii":"Risalpur Cantonment","lat":"34.0049","lng":"71.9989","country":"Pakistan","iso2":"PK","iso3":"PAK","admin_name":"Khyber Pakhtunkhwa","capital":"","population":"36653","id":"1586844436"},{"city":"Rezh","city_ascii":"Rezh","lat":"57.3667","lng":"61.4000","country":"Russia","iso2":"RU","iso3":"RUS","admin_name":"Sverdlovskaya Oblast’","capital":"","population":"37152","id":"1643497489"},{"city":"Rock Island","city_ascii":"Rock Island","lat":"41.4699","lng":"-90.5827","country":"United States","iso2":"US","iso3":"USA","admin_name":"Illinois","capital":"","population":"37176","id":"1840009233"},{"city":"Roseville","city_ascii":"Roseville","lat":"45.0155","lng":"-93.1545","country":"United States","iso2":"US","iso3":"USA","admin_name":"Minnesota","capital":"","population":"36457","id":"1840008939"},{"city":"Rifu","city_ascii":"Rifu","lat":"38.3303","lng":"140.9756","country":"Japan","iso2":"JP","iso3":"JPN","admin_name":"Miyagi","capital":"","population":"35597","id":"1392894446"},{"city":"Riviera Beach","city_ascii":"Riviera Beach","lat":"26.7812","lng":"-80.0742","country":"United States","iso2":"US","iso3":"USA","admin_name":"Florida","capital":"","population":"35463","id":"1840015126"},{"city":"Radebeul","city_ascii":"Radebeul","lat":"51.1033","lng":"13.6700","country":"Germany","iso2":"DE","iso3":"DEU","admin_name":"Saxony","capital":"","population":"34008","id":"1276277969"},{"city":"Randallstown","city_ascii":"Randallstown","lat":"39.3723","lng":"-76.8024","country":"United States","iso2":"US","iso3":"USA","admin_name":"Maryland","capital":"","population":"34897","id":"1840005688"},{"city":"Randolph","city_ascii":"Randolph","lat":"42.1778","lng":"-71.0539","country":"United States","iso2":"US","iso3":"USA","admin_name":"Massachusetts","capital":"","population":"34362","id":"1840004675"},{"city":"Redmond","city_ascii":"Redmond","lat":"44.2631","lng":"-121.1798","country":"United States","iso2":"US","iso3":"USA","admin_name":"Oregon","capital":"","population":"34240","id":"1840020003"},{"city":"Russellville","city_ascii":"Russellville","lat":"35.2763","lng":"-93.1383","country":"United States","iso2":"US","iso3":"USA","admin_name":"Arkansas","capital":"","population":"34205","id":"1840014541"},{"city":"Romans-sur-Isère","city_ascii":"Romans-sur-Isere","lat":"45.0464","lng":"5.0517","country":"France","iso2":"FR","iso3":"FRA","admin_name":"Auvergne-Rhône-Alpes","capital":"","population":"33160","id":"1250668637"},{"city":"Ronda","city_ascii":"Ronda","lat":"36.7372","lng":"-5.1647","country":"Spain","iso2":"ES","iso3":"ESP","admin_name":"Andalusia","capital":"","population":"33877","id":"1724795472"},{"city":"Riverhead","city_ascii":"Riverhead","lat":"40.9409","lng":"-72.7095","country":"United States","iso2":"US","iso3":"USA","admin_name":"New York","capital":"","population":"33625","id":"1840058445"},{"city":"Rheinfelden (Baden)","city_ascii":"Rheinfelden (Baden)","lat":"47.5611","lng":"7.7917","country":"Germany","iso2":"DE","iso3":"DEU","admin_name":"Baden-Württemberg","capital":"","population":"33074","id":"1276547516"},{"city":"Reggane","city_ascii":"Reggane","lat":"26.7000","lng":"0.1666","country":"Algeria","iso2":"DZ","iso3":"DZA","admin_name":"Adrar","capital":"","population":"32974","id":"1012709576"},{"city":"Ridgecrest","city_ascii":"Ridgecrest","lat":"35.6308","lng":"-117.6621","country":"United States","iso2":"US","iso3":"USA","admin_name":"California","capital":"","population":"32684","id":"1840020417"},{"city":"Redcliff","city_ascii":"Redcliff","lat":"-19.0333","lng":"29.7833","country":"Zimbabwe","iso2":"ZW","iso3":"ZWE","admin_name":"Midlands","capital":"","population":"32346","id":"1716966753"},{"city":"Réthymno","city_ascii":"Rethymno","lat":"35.3667","lng":"24.4667","country":"Greece","iso2":"GR","iso3":"GRC","admin_name":"Kríti","capital":"minor","population":"32468","id":"1300036161"},{"city":"Redan","city_ascii":"Redan","lat":"33.7394","lng":"-84.1644","country":"United States","iso2":"US","iso3":"USA","admin_name":"Georgia","capital":"","population":"32357","id":"1840013706"},{"city":"Ra’s Ghārib","city_ascii":"Ra's Gharib","lat":"28.3597","lng":"33.0775","country":"Egypt","iso2":"EG","iso3":"EGY","admin_name":"Al Baḩr al Aḩmar","capital":"","population":"32318","id":"1818526915"},{"city":"Ribeira Grande","city_ascii":"Ribeira Grande","lat":"37.8167","lng":"-25.5167","country":"Portugal","iso2":"PT","iso3":"PRT","admin_name":"Azores","capital":"","population":"32112","id":"1620024564"},{"city":"Rome","city_ascii":"Rome","lat":"43.2260","lng":"-75.4909","country":"United States","iso2":"US","iso3":"USA","admin_name":"New York","capital":"","population":"31863","id":"1840000349"},{"city":"Radnor","city_ascii":"Radnor","lat":"40.0287","lng":"-75.3675","country":"United States","iso2":"US","iso3":"USA","admin_name":"Pennsylvania","capital":"","population":"31743","id":"1840152846"},{"city":"Radolfzell am Bodensee","city_ascii":"Radolfzell am Bodensee","lat":"47.7369","lng":"8.9697","country":"Germany","iso2":"DE","iso3":"DEU","admin_name":"Baden-Württemberg","capital":"","population":"31203","id":"1276934854"},{"city":"Rochester","city_ascii":"Rochester","lat":"43.2990","lng":"-70.9787","country":"United States","iso2":"US","iso3":"USA","admin_name":"New Hampshire","capital":"","population":"31526","id":"1840002809"},{"city":"Rheinberg","city_ascii":"Rheinberg","lat":"51.5467","lng":"6.6006","country":"Germany","iso2":"DE","iso3":"DEU","admin_name":"North Rhine-Westphalia","capital":"","population":"31097","id":"1276286236"},{"city":"Río Grande","city_ascii":"Rio Grande","lat":"-53.7914","lng":"-67.6990","country":"Argentina","iso2":"AR","iso3":"ARG","admin_name":"Tierra del Fuego, Antártida e Islas del Atlántico Sur","capital":"minor","population":"31095","id":"1032824067"},{"city":"Rexburg","city_ascii":"Rexburg","lat":"43.8224","lng":"-111.7920","country":"United States","iso2":"US","iso3":"USA","admin_name":"Idaho","capital":"","population":"30979","id":"1840020037"},{"city":"Rostov","city_ascii":"Rostov","lat":"57.1833","lng":"39.4167","country":"Russia","iso2":"RU","iso3":"RUS","admin_name":"Yaroslavskaya Oblast’","capital":"","population":"30943","id":"1643848937"},{"city":"Radcliffe","city_ascii":"Radcliffe","lat":"53.5615","lng":"-2.3268","country":"United Kingdom","iso2":"GB","iso3":"GBR","admin_name":"Bury","capital":"","population":"29950","id":"1826622636"},{"city":"Ross Township","city_ascii":"Ross Township","lat":"40.5256","lng":"-80.0243","country":"United States","iso2":"US","iso3":"USA","admin_name":"Pennsylvania","capital":"","population":"30728","id":"1840149299"},{"city":"Riesa","city_ascii":"Riesa","lat":"51.3081","lng":"13.2939","country":"Germany","iso2":"DE","iso3":"DEU","admin_name":"Saxony","capital":"","population":"30054","id":"1276381687"},{"city":"Rushden","city_ascii":"Rushden","lat":"52.2880","lng":"-0.6010","country":"United Kingdom","iso2":"GB","iso3":"GBR","admin_name":"Northamptonshire","capital":"","population":"29272","id":"1826167520"},{"city":"Rancharia","city_ascii":"Rancharia","lat":"-22.2289","lng":"-50.8928","country":"Brazil","iso2":"BR","iso3":"BRA","admin_name":"São Paulo","capital":"","population":"29778","id":"1076007180"},{"city":"Rietberg","city_ascii":"Rietberg","lat":"51.8000","lng":"8.4333","country":"Germany","iso2":"DE","iso3":"DEU","admin_name":"North Rhine-Westphalia","capital":"","population":"29466","id":"1276651074"},{"city":"Rendsburg","city_ascii":"Rendsburg","lat":"54.3044","lng":"9.6644","country":"Germany","iso2":"DE","iso3":"DEU","admin_name":"Schleswig-Holstein","capital":"minor","population":"28470","id":"1276159889"},{"city":"Riihimäki","city_ascii":"Riihimaki","lat":"60.7333","lng":"24.7667","country":"Finland","iso2":"FI","iso3":"FIN","admin_name":"Kanta-Häme","capital":"minor","population":"29269","id":"1246263977"},{"city":"Rotterdam","city_ascii":"Rotterdam","lat":"42.8133","lng":"-74.0129","country":"United States","iso2":"US","iso3":"USA","admin_name":"New York","capital":"","population":"29448","id":"1840058454"},{"city":"Rösrath","city_ascii":"Rosrath","lat":"50.9000","lng":"7.1833","country":"Germany","iso2":"DE","iso3":"DEU","admin_name":"North Rhine-Westphalia","capital":"","population":"28693","id":"1276492557"},{"city":"Ra’s al ‘Ayn","city_ascii":"Ra's al `Ayn","lat":"36.8503","lng":"40.0706","country":"Syria","iso2":"SY","iso3":"SYR","admin_name":"Al Ḩasakah","capital":"minor","population":"29347","id":"1760030804"},{"city":"Raytown","city_ascii":"Raytown","lat":"38.9944","lng":"-94.4641","country":"United States","iso2":"US","iso3":"USA","admin_name":"Missouri","capital":"","population":"28991","id":"1840009681"},{"city":"Rosa Zarate","city_ascii":"Rosa Zarate","lat":"0.3272","lng":"-79.4689","country":"Ecuador","iso2":"EC","iso3":"ECU","admin_name":"Esmeraldas","capital":"","population":"28928","id":"1218721040"},{"city":"Reinbek","city_ascii":"Reinbek","lat":"53.5089","lng":"10.2483","country":"Germany","iso2":"DE","iso3":"DEU","admin_name":"Schleswig-Holstein","capital":"","population":"27649","id":"1276939131"},{"city":"Rockledge","city_ascii":"Rockledge","lat":"28.3201","lng":"-80.7320","country":"United States","iso2":"US","iso3":"USA","admin_name":"Florida","capital":"","population":"28227","id":"1840015095"},{"city":"Rapperswil-Jona","city_ascii":"Rapperswil-Jona","lat":"47.2286","lng":"8.8317","country":"Switzerland","iso2":"CH","iso3":"CHE","admin_name":"Sankt Gallen","capital":"minor","population":"26989","id":"1756219797"},{"city":"Ramsey","city_ascii":"Ramsey","lat":"45.2617","lng":"-93.4494","country":"United States","iso2":"US","iso3":"USA","admin_name":"Minnesota","capital":"","population":"27721","id":"1840008904"},{"city":"Ruston","city_ascii":"Ruston","lat":"32.5329","lng":"-92.6363","country":"United States","iso2":"US","iso3":"USA","admin_name":"Louisiana","capital":"","population":"27717","id":"1840014878"},{"city":"Rambouillet","city_ascii":"Rambouillet","lat":"48.6444","lng":"1.8308","country":"France","iso2":"FR","iso3":"FRA","admin_name":"Île-de-France","capital":"minor","population":"26736","id":"1250752872"},{"city":"Rheinbach","city_ascii":"Rheinbach","lat":"50.6256","lng":"6.9491","country":"Germany","iso2":"DE","iso3":"DEU","admin_name":"North Rhine-Westphalia","capital":"","population":"27063","id":"1276000657"},{"city":"Ronse","city_ascii":"Ronse","lat":"50.7500","lng":"3.6000","country":"Belgium","iso2":"BE","iso3":"BEL","admin_name":"Flanders","capital":"","population":"26337","id":"1056897548"},{"city":"Ružomberok","city_ascii":"Ruzomberok","lat":"49.0786","lng":"19.3083","country":"Slovakia","iso2":"SK","iso3":"SVK","admin_name":"Žilinský","capital":"minor","population":"26854","id":"1703510980"},{"city":"Rock Springs","city_ascii":"Rock Springs","lat":"41.5951","lng":"-109.2238","country":"United States","iso2":"US","iso3":"USA","admin_name":"Wyoming","capital":"","population":"25913","id":"1840020101"},{"city":"Roth","city_ascii":"Roth","lat":"49.2461","lng":"11.0911","country":"Germany","iso2":"DE","iso3":"DEU","admin_name":"Bavaria","capital":"","population":"25593","id":"1276856142"},{"city":"Rinteln","city_ascii":"Rinteln","lat":"52.1906","lng":"9.0814","country":"Germany","iso2":"DE","iso3":"DEU","admin_name":"Lower Saxony","capital":"","population":"25484","id":"1276137941"},{"city":"Randolph","city_ascii":"Randolph","lat":"40.8434","lng":"-74.5818","country":"United States","iso2":"US","iso3":"USA","admin_name":"New Jersey","capital":"","population":"25651","id":"1840081731"},{"city":"Rottweil","city_ascii":"Rottweil","lat":"48.1681","lng":"8.6247","country":"Germany","iso2":"DE","iso3":"DEU","admin_name":"Baden-Württemberg","capital":"minor","population":"25274","id":"1276117708"},{"city":"Rudolstadt","city_ascii":"Rudolstadt","lat":"50.7169","lng":"11.3275","country":"Germany","iso2":"DE","iso3":"DEU","admin_name":"Thuringia","capital":"","population":"25115","id":"1276466405"},{"city":"Rochefort","city_ascii":"Rochefort","lat":"45.9421","lng":"-0.9588","country":"France","iso2":"FR","iso3":"FRA","admin_name":"Nouvelle-Aquitaine","capital":"minor","population":"24151","id":"1250215806"},{"city":"Rosemount","city_ascii":"Rosemount","lat":"44.7465","lng":"-93.0662","country":"United States","iso2":"US","iso3":"USA","admin_name":"Minnesota","capital":"","population":"25207","id":"1840008951"},{"city":"Raahe","city_ascii":"Raahe","lat":"64.6847","lng":"24.4792","country":"Finland","iso2":"FI","iso3":"FIN","admin_name":"Pohjois-Pohjanmaa","capital":"minor","population":"25165","id":"1246712185"},{"city":"Riverside","city_ascii":"Riverside","lat":"39.7836","lng":"-84.1219","country":"United States","iso2":"US","iso3":"USA","admin_name":"Ohio","capital":"","population":"25133","id":"1840012490"},{"city":"Reading","city_ascii":"Reading","lat":"42.5351","lng":"-71.1056","country":"United States","iso2":"US","iso3":"USA","admin_name":"Massachusetts","capital":"","population":"25100","id":"1840053484"},{"city":"Ridgefield","city_ascii":"Ridgefield","lat":"41.3065","lng":"-73.5023","country":"United States","iso2":"US","iso3":"USA","admin_name":"Connecticut","capital":"","population":"25070","id":"1840035559"},{"city":"Ridgewood","city_ascii":"Ridgewood","lat":"40.9822","lng":"-74.1128","country":"United States","iso2":"US","iso3":"USA","admin_name":"New Jersey","capital":"","population":"25056","id":"1840000899"},{"city":"Ronnenberg","city_ascii":"Ronnenberg","lat":"52.3194","lng":"9.6556","country":"Germany","iso2":"DE","iso3":"DEU","admin_name":"Lower Saxony","capital":"","population":"24347","id":"1276210070"},{"city":"Rockaway","city_ascii":"Rockaway","lat":"40.9602","lng":"-74.4988","country":"United States","iso2":"US","iso3":"USA","admin_name":"New Jersey","capital":"","population":"24792","id":"1840000951"},{"city":"Raisio","city_ascii":"Raisio","lat":"60.4861","lng":"22.1694","country":"Finland","iso2":"FI","iso3":"FIN","admin_name":"Varsinais-Suomi","capital":"minor","population":"24290","id":"1246206941"},{"city":"Roissy-en-Brie","city_ascii":"Roissy-en-Brie","lat":"48.7906","lng":"2.6519","country":"France","iso2":"FR","iso3":"FRA","admin_name":"Île-de-France","capital":"","population":"22994","id":"1250233189"},{"city":"Rickmansworth","city_ascii":"Rickmansworth","lat":"51.6383","lng":"-0.4659","country":"United Kingdom","iso2":"GB","iso3":"GBR","admin_name":"Hertfordshire","capital":"","population":"23973","id":"1826881978"},{"city":"Rathenow","city_ascii":"Rathenow","lat":"52.6000","lng":"12.3333","country":"Germany","iso2":"DE","iso3":"DEU","admin_name":"Brandenburg","capital":"minor","population":"24309","id":"1276833446"},{"city":"Rodniki","city_ascii":"Rodniki","lat":"57.1000","lng":"41.7333","country":"Russia","iso2":"RU","iso3":"RUS","admin_name":"Ivanovskaya Oblast’","capital":"","population":"24335","id":"1643416659"},{"city":"Rimavská Sobota","city_ascii":"Rimavska Sobota","lat":"48.3814","lng":"20.0200","country":"Slovakia","iso2":"SK","iso3":"SVK","admin_name":"Banskobystrický","capital":"minor","population":"24010","id":"1703980891"},{"city":"Rugeley","city_ascii":"Rugeley","lat":"52.7599","lng":"-1.9388","country":"United Kingdom","iso2":"GB","iso3":"GBR","admin_name":"Staffordshire","capital":"","population":"24033","id":"1826009668"},{"city":"Ridgeland","city_ascii":"Ridgeland","lat":"32.4236","lng":"-90.1481","country":"United States","iso2":"US","iso3":"USA","admin_name":"Mississippi","capital":"","population":"24104","id":"1840014873"},{"city":"Romulus","city_ascii":"Romulus","lat":"42.2237","lng":"-83.3660","country":"United States","iso2":"US","iso3":"USA","admin_name":"Michigan","capital":"","population":"23573","id":"1840003963"},{"city":"Rolling Meadows","city_ascii":"Rolling Meadows","lat":"42.0747","lng":"-88.0252","country":"United States","iso2":"US","iso3":"USA","admin_name":"Illinois","capital":"","population":"23532","id":"1840009185"},{"city":"Ruskin","city_ascii":"Ruskin","lat":"27.7065","lng":"-82.4209","country":"United States","iso2":"US","iso3":"USA","admin_name":"Florida","capital":"","population":"23477","id":"1840014159"},{"city":"Riehen","city_ascii":"Riehen","lat":"47.5794","lng":"7.6512","country":"Switzerland","iso2":"CH","iso3":"CHE","admin_name":"Basel-Stadt","capital":"","population":"21448","id":"1756991792"},{"city":"Ruwa","city_ascii":"Ruwa","lat":"-17.8897","lng":"31.2447","country":"Zimbabwe","iso2":"ZW","iso3":"ZWE","admin_name":"Mashonaland East","capital":"","population":"22038","id":"1716489136"},{"city":"Rawtenstall","city_ascii":"Rawtenstall","lat":"53.6990","lng":"-2.2910","country":"United Kingdom","iso2":"GB","iso3":"GBR","admin_name":"Lancashire","capital":"","population":"22000","id":"1826204769"},{"city":"Roxbury","city_ascii":"Roxbury","lat":"40.8822","lng":"-74.6522","country":"United States","iso2":"US","iso3":"USA","admin_name":"New Jersey","capital":"","population":"23136","id":"1840081733"},{"city":"Rockingham","city_ascii":"Rockingham","lat":"34.9386","lng":"-79.7608","country":"United States","iso2":"US","iso3":"USA","admin_name":"North Carolina","capital":"","population":"23016","id":"1840014617"},{"city":"Radcliff","city_ascii":"Radcliff","lat":"37.8206","lng":"-85.9366","country":"United States","iso2":"US","iso3":"USA","admin_name":"Kentucky","capital":"","population":"22914","id":"1840014329"},{"city":"Rixensart","city_ascii":"Rixensart","lat":"50.7167","lng":"4.5333","country":"Belgium","iso2":"BE","iso3":"BEL","admin_name":"Wallonia","capital":"","population":"22401","id":"1056643005"},{"city":"Radevormwald","city_ascii":"Radevormwald","lat":"51.2000","lng":"7.3500","country":"Germany","iso2":"DE","iso3":"DEU","admin_name":"North Rhine-Westphalia","capital":"","population":"22107","id":"1276941483"},