[{"city":"Vancouver","city_ascii":"Vancouver","lat":"49.2500","lng":"-123.1000","country":"Canada","iso2":"CA","iso3":"CAN","admin_name":"British Columbia","capital":"","population":"2264823","id":"1124825478"},{"city":"Vadodara","city_ascii":"Vadodara","lat":"22.3000","lng":"73.2000","country":"India","iso2":"IN","iso3":"IND","admin_name":"Gujarāt","capital":"","population":"2065771","id":"1356705249"},{"city":"Vishākhapatnam","city_ascii":"Vishakhapatnam","lat":"17.7333","lng":"83.3167","country":"India","iso2":"IN","iso3":"IND","admin_name":"Andhra Pradesh","capital":"","population":"2035922","id":"1356692563"},{"city":"Vienna","city_ascii":"Vienna","lat":"48.2083","lng":"16.3731","country":"Austria","iso2":"AT","iso3":"AUT","admin_name":"Wien","capital":"primary","population":"1840573","id":"1040261752"},{"city":"Vitória","city_ascii":"Vitoria","lat":"-20.3240","lng":"-40.3660","country":"Brazil","iso2":"BR","iso3":"BRA","admin_name":"Espírito Santo","capital":"admin","population":"1704000","id":"1076376829"},{"city":"Valencia","city_ascii":"Valencia","lat":"10.1667","lng":"-68.0000","country":"Venezuela","iso2":"VE","iso3":"VEN","admin_name":"Carabobo","capital":"admin","population":"1484430","id":"1862309871"},{"city":"Virginia Beach","city_ascii":"Virginia Beach","lat":"36.7335","lng":"-76.0435","country":"United States","iso2":"US","iso3":"USA","admin_name":"Virginia","capital":"","population":"1478868","id":"1840003871"},{"city":"Vila Velha","city_ascii":"Vila Velha","lat":"3.2167","lng":"-51.2167","country":"Brazil","iso2":"BR","iso3":"BRA","admin_name":"Amapá","capital":"","population":"1209091","id":"1076575691"},{"city":"Vārānasi","city_ascii":"Varanasi","lat":"25.3189","lng":"83.0128","country":"India","iso2":"IN","iso3":"IND","admin_name":"Uttar Pradesh","capital":"","population":"1198491","id":"1356145782"},{"city":"Vereeniging","city_ascii":"Vereeniging","lat":"-26.6736","lng":"27.9319","country":"South Africa","iso2":"ZA","iso3":"ZAF","admin_name":"Gauteng","capital":"","population":"1074000","id":"1710271883"},{"city":"Voronezh","city_ascii":"Voronezh","lat":"51.6717","lng":"39.2106","country":"Russia","iso2":"RU","iso3":"RUS","admin_name":"Voronezhskaya Oblast’","capital":"admin","population":"1047549","id":"1643811064"},{"city":"Volgograd","city_ascii":"Volgograd","lat":"48.7000","lng":"44.4833","country":"Russia","iso2":"RU","iso3":"RUS","admin_name":"Volgogradskaya Oblast’","capital":"admin","population":"1015586","id":"1643577201"},{"city":"Vientiane","city_ascii":"Vientiane","lat":"17.9667","lng":"102.6000","country":"Laos","iso2":"LA","iso3":"LAO","admin_name":"Viangchan","capital":"primary","population":"760000","id":"1418732714"},{"city":"Vilnius","city_ascii":"Vilnius","lat":"54.6833","lng":"25.2833","country":"Lithuania","iso2":"LT","iso3":"LTU","admin_name":"Vilniaus Miestas","capital":"primary","population":"574147","id":"1440887149"},{"city":"Victoria","city_ascii":"Victoria","lat":"48.4283","lng":"-123.3647","country":"Canada","iso2":"CA","iso3":"CAN","admin_name":"British Columbia","capital":"","population":"335696","id":"1124147219"},{"city":"Vaduz","city_ascii":"Vaduz","lat":"47.1415","lng":"9.5215","country":"Liechtenstein","iso2":"LI","iso3":"LIE","admin_name":"Vaduz","capital":"primary","population":"36281","id":"1438317747"},{"city":"Victoria","city_ascii":"Victoria","lat":"-4.6236","lng":"55.4544","country":"Seychelles","iso2":"SC","iso3":"SYC","admin_name":"English River","capital":"primary","population":"26450","id":"1690193579"},{"city":"Valletta","city_ascii":"Valletta","lat":"35.8978","lng":"14.5125","country":"Malta","iso2":"MT","iso3":"MLT","admin_name":"Valletta","capital":"primary","population":"6444","id":"1470574399"},{"city":"Valencia","city_ascii":"Valencia","lat":"39.4667","lng":"-0.3750","country":"Spain","iso2":"ES","iso3":"ESP","admin_name":"Valencia","capital":"admin","population":"794288","id":"1724981666"},{"city":"Villahermosa","city_ascii":"Villahermosa","lat":"17.9892","lng":"-92.9281","country":"Mexico","iso2":"MX","iso3":"MEX","admin_name":"Tabasco","capital":"admin","population":"640359","id":"1484460894"},{"city":"Valenzuela","city_ascii":"Valenzuela","lat":"14.7000","lng":"120.9833","country":"Philippines","iso2":"PH","iso3":"PHL","admin_name":"Valenzuela","capital":"admin","population":"620422","id":"1608492120"},{"city":"Vladivostok","city_ascii":"Vladivostok","lat":"43.1167","lng":"131.9000","country":"Russia","iso2":"RU","iso3":"RUS","admin_name":"Primorskiy Kray","capital":"admin","population":"606589","id":"1643832017"},{"city":"Veracruz","city_ascii":"Veracruz","lat":"19.1903","lng":"-96.1533","country":"Mexico","iso2":"MX","iso3":"MEX","admin_name":"Veracruz","capital":"minor","population":"552156","id":"1484992153"},{"city":"Villavicencio","city_ascii":"Villavicencio","lat":"4.1425","lng":"-73.6294","country":"Colombia","iso2":"CO","iso3":"COL","admin_name":"Meta","capital":"admin","population":"527668","id":"1170426927"},{"city":"Vinh","city_ascii":"Vinh","lat":"18.6733","lng":"105.6922","country":"Vietnam","iso2":"VN","iso3":"VNM","admin_name":"Nghệ An","capital":"admin","population":"490000","id":"1704960059"},{"city":"Valledupar","city_ascii":"Valledupar","lat":"10.4603","lng":"-73.2597","country":"Colombia","iso2":"CO","iso3":"COL","admin_name":"Cesar","capital":"admin","population":"490075","id":"1170481949"},{"city":"Vila Velha","city_ascii":"Vila Velha","lat":"-20.3364","lng":"-40.2936","country":"Brazil","iso2":"BR","iso3":"BRA","admin_name":"Espírito Santo","capital":"","population":"472762","id":"1076404077"},{"city":"Volta Redonda","city_ascii":"Volta Redonda","lat":"-22.5196","lng":"-44.0950","country":"Brazil","iso2":"BR","iso3":"BRA","admin_name":"Rio de Janeiro","capital":"","population":"456362","id":"1076343513"},{"city":"Vinnytsia","city_ascii":"Vinnytsia","lat":"49.2372","lng":"28.4672","country":"Ukraine","iso2":"UA","iso3":"UKR","admin_name":"Vinnyts’ka Oblast’","capital":"admin","population":"371855","id":"1804658571"},{"city":"Varna","city_ascii":"Varna","lat":"43.2078","lng":"27.9169","country":"Bulgaria","iso2":"BG","iso3":"BGR","admin_name":"Varna","capital":"admin","population":"369162","id":"1100789115"},{"city":"Vitsyebsk","city_ascii":"Vitsyebsk","lat":"55.1833","lng":"30.1667","country":"Belarus","iso2":"BY","iso3":"BLR","admin_name":"Vitsyebskaya Voblasts’","capital":"admin","population":"364800","id":"1112480679"},{"city":"Vladimir","city_ascii":"Vladimir","lat":"56.1333","lng":"40.4167","country":"Russia","iso2":"RU","iso3":"RUS","admin_name":"Vladimirskaya Oblast’","capital":"admin","population":"356168","id":"1643712167"},{"city":"Van","city_ascii":"Van","lat":"38.5019","lng":"43.4167","country":"Turkey","iso2":"TR","iso3":"TUR","admin_name":"Van","capital":"admin","population":"353419","id":"1792940471"},{"city":"Victorville","city_ascii":"Victorville","lat":"34.5277","lng":"-117.3536","country":"United States","iso2":"US","iso3":"USA","admin_name":"California","capital":"","population":"346789","id":"1840021731"},{"city":"Viña del Mar","city_ascii":"Vina del Mar","lat":"-33.0244","lng":"-71.5517","country":"Chile","iso2":"CL","iso3":"CHL","admin_name":"Valparaíso","capital":"","population":"332875","id":"1152898644"},{"city":"Vũng Tàu","city_ascii":"Vung Tau","lat":"10.4042","lng":"107.1417","country":"Vietnam","iso2":"VN","iso3":"VNM","admin_name":"Bà Rịa-Vũng Tàu","capital":"admin","population":"327000","id":"1704581438"},{"city":"Volzhskiy","city_ascii":"Volzhskiy","lat":"48.7833","lng":"44.7667","country":"Russia","iso2":"RU","iso3":"RUS","admin_name":"Volgogradskaya Oblast’","capital":"","population":"326055","id":"1643875527"},{"city":"Vologda","city_ascii":"Vologda","lat":"59.2167","lng":"39.9000","country":"Russia","iso2":"RU","iso3":"RUS","admin_name":"Vologodskaya Oblast’","capital":"admin","population":"313012","id":"1643013685"},{"city":"Vitória da Conquista","city_ascii":"Vitoria da Conquista","lat":"-14.8661","lng":"-40.8394","country":"Brazil","iso2":"BR","iso3":"BRA","admin_name":"Bahia","capital":"","population":"308204","id":"1076812020"},{"city":"Vladikavkaz","city_ascii":"Vladikavkaz","lat":"43.0167","lng":"44.6500","country":"Russia","iso2":"RU","iso3":"RUS","admin_name":"North Ossetia","capital":"admin","population":"306978","id":"1643438348"},{"city":"Vaughan","city_ascii":"Vaughan","lat":"43.8333","lng":"-79.5000","country":"Canada","iso2":"CA","iso3":"CAN","admin_name":"Ontario","capital":"","population":"306233","id":"1124000141"},{"city":"Vila Nova de Gaia","city_ascii":"Vila Nova de Gaia","lat":"41.1333","lng":"-8.6167","country":"Portugal","iso2":"PT","iso3":"PRT","admin_name":"Porto","capital":"minor","population":"302295","id":"1620040225"},{"city":"Valladolid","city_ascii":"Valladolid","lat":"41.6520","lng":"-4.7286","country":"Spain","iso2":"ES","iso3":"ESP","admin_name":"Castille-Leon","capital":"admin","population":"298412","id":"1724133771"},{"city":"Vigo","city_ascii":"Vigo","lat":"42.2358","lng":"-8.7267","country":"Spain","iso2":"ES","iso3":"ESP","admin_name":"Galicia","capital":"","population":"295364","id":"1724045676"},{"city":"Valparaíso","city_ascii":"Valparaiso","lat":"-33.0458","lng":"-71.6197","country":"Chile","iso2":"CL","iso3":"CHL","admin_name":"Valparaíso","capital":"admin","population":"296655","id":"1152337970"},{"city":"Việt Trì","city_ascii":"Viet Tri","lat":"21.3228","lng":"105.4019","country":"Vietnam","iso2":"VN","iso3":"VNM","admin_name":"Phú Thọ","capital":"admin","population":"277539","id":"1704332956"},{"city":"Venice","city_ascii":"Venice","lat":"45.4397","lng":"12.3319","country":"Italy","iso2":"IT","iso3":"ITA","admin_name":"Veneto","capital":"admin","population":"261905","id":"1380660414"},{"city":"Verona","city_ascii":"Verona","lat":"45.4386","lng":"10.9928","country":"Italy","iso2":"IT","iso3":"ITA","admin_name":"Veneto","capital":"minor","population":"252520","id":"1380324879"},{"city":"Vitoria-Gasteiz","city_ascii":"Vitoria-Gasteiz","lat":"42.8467","lng":"-2.6731","country":"Spain","iso2":"ES","iso3":"ESP","admin_name":"Basque Country","capital":"admin","population":"251774","id":"1724975338"},{"city":"Várzea Grande","city_ascii":"Varzea Grande","lat":"-15.6500","lng":"-56.1400","country":"Brazil","iso2":"BR","iso3":"BRA","admin_name":"Mato Grosso","capital":"","population":"249752","id":"1076359879"},{"city":"Visalia","city_ascii":"Visalia","lat":"36.3276","lng":"-119.3269","country":"United States","iso2":"US","iso3":"USA","admin_name":"California","capital":"","population":"237386","id":"1840021639"},{"city":"Vizianagaram","city_ascii":"Vizianagaram","lat":"18.1167","lng":"83.4167","country":"India","iso2":"IN","iso3":"IND","admin_name":"Andhra Pradesh","capital":"","population":"228720","id":"1356212761"},{"city":"Varāmīn","city_ascii":"Varamin","lat":"35.2714","lng":"51.6511","country":"Iran","iso2":"IR","iso3":"IRN","admin_name":"Tehrān","capital":"minor","population":"225628","id":"1364275103"},{"city":"Velikiy Novgorod","city_ascii":"Velikiy Novgorod","lat":"58.5210","lng":"31.2758","country":"Russia","iso2":"RU","iso3":"RUS","admin_name":"Novgorodskaya Oblast’","capital":"admin","population":"222594","id":"1643774241"},{"city":"Vantaa","city_ascii":"Vantaa","lat":"60.3000","lng":"25.0333","country":"Finland","iso2":"FI","iso3":"FIN","admin_name":"Uusimaa","capital":"minor","population":"214605","id":"1246957545"},{"city":"Viranşehir","city_ascii":"Viransehir","lat":"37.2306","lng":"39.7653","country":"Turkey","iso2":"TR","iso3":"TUR","admin_name":"Şanlıurfa","capital":"minor","population":"195910","id":"1792566461"},{"city":"Valencia","city_ascii":"Valencia","lat":"7.9000","lng":"125.0833","country":"Philippines","iso2":"PH","iso3":"PHL","admin_name":"Bukidnon","capital":"","population":"192993","id":"1608418474"},{"city":"Valera","city_ascii":"Valera","lat":"9.3200","lng":"-70.6200","country":"Venezuela","iso2":"VE","iso3":"VEN","admin_name":"Trujillo","capital":"minor","population":"191167","id":"1862735261"},{"city":"Vancouver","city_ascii":"Vancouver","lat":"45.6366","lng":"-122.5967","country":"United States","iso2":"US","iso3":"USA","admin_name":"Washington","capital":"","population":"184463","id":"1840021189"},{"city":"Vellore","city_ascii":"Vellore","lat":"12.9204","lng":"79.1500","country":"India","iso2":"IN","iso3":"IND","admin_name":"Tamil Nādu","capital":"","population":"177081","id":"1356977661"},{"city":"Vallejo","city_ascii":"Vallejo","lat":"38.1133","lng":"-122.2358","country":"United States","iso2":"US","iso3":"USA","admin_name":"California","capital":"","population":"173256","id":"1840021499"},{"city":"Volgodonsk","city_ascii":"Volgodonsk","lat":"47.5167","lng":"42.1500","country":"Russia","iso2":"RU","iso3":"RUS","admin_name":"Rostovskaya Oblast’","capital":"","population":"171471","id":"1643784914"},{"city":"Villanueva","city_ascii":"Villanueva","lat":"15.3167","lng":"-88.0167","country":"Honduras","iso2":"HN","iso3":"HND","admin_name":"Cortés","capital":"","population":"157615","id":"1340079427"},{"city":"Villeurbanne","city_ascii":"Villeurbanne","lat":"45.7667","lng":"4.8803","country":"France","iso2":"FR","iso3":"FRA","admin_name":"Auvergne-Rhône-Alpes","capital":"","population":"147712","id":"1250002615"},{"city":"Vidisha","city_ascii":"Vidisha","lat":"23.5239","lng":"77.8061","country":"India","iso2":"IN","iso3":"IND","admin_name":"Madhya Pradesh","capital":"","population":"155959","id":"1356299932"},{"city":"Vryheid","city_ascii":"Vryheid","lat":"-27.7694","lng":"30.7914","country":"South Africa","iso2":"ZA","iso3":"ZAF","admin_name":"KwaZulu-Natal","capital":"","population":"150012","id":"1710716158"},{"city":"Valdivia","city_ascii":"Valdivia","lat":"-39.8142","lng":"-73.2459","country":"Chile","iso2":"CL","iso3":"CHL","admin_name":"Los Ríos","capital":"admin","population":"150048","id":"1152201132"},{"city":"Villa de Cura","city_ascii":"Villa de Cura","lat":"10.0386","lng":"-67.4894","country":"Venezuela","iso2":"VE","iso3":"VEN","admin_name":"Aragua","capital":"minor","population":"145098","id":"1862979204"},{"city":"Vlorë","city_ascii":"Vlore","lat":"40.4500","lng":"19.4833","country":"Albania","iso2":"AL","iso3":"ALB","admin_name":"Vlorë","capital":"admin","population":"130827","id":"1008276050"},{"city":"Vila Franca de Xira","city_ascii":"Vila Franca de Xira","lat":"38.9500","lng":"-8.9833","country":"Portugal","iso2":"PT","iso3":"PRT","admin_name":"Lisboa","capital":"minor","population":"136886","id":"1620859041"},{"city":"Västerås","city_ascii":"Vasteras","lat":"59.6173","lng":"16.5422","country":"Sweden","iso2":"SE","iso3":"SWE","admin_name":"Västmanland","capital":"admin","population":"127799","id":"1752826955"},{"city":"Villa Alemana","city_ascii":"Villa Alemana","lat":"-33.0428","lng":"-71.3744","country":"Chile","iso2":"CL","iso3":"CHL","admin_name":"Valparaíso","capital":"","population":"125140","id":"1152839066"},{"city":"Vihari","city_ascii":"Vihari","lat":"30.0419","lng":"72.3528","country":"Pakistan","iso2":"PK","iso3":"PAK","admin_name":"Punjab","capital":"minor","population":"128034","id":"1586888846"},{"city":"Villa de Álvarez","city_ascii":"Villa de Alvarez","lat":"19.2500","lng":"-103.7333","country":"Mexico","iso2":"MX","iso3":"MEX","admin_name":"Colima","capital":"minor","population":"117600","id":"1484653806"},{"city":"Valinhos","city_ascii":"Valinhos","lat":"-22.9708","lng":"-46.9958","country":"Brazil","iso2":"BR","iso3":"BRA","admin_name":"São Paulo","capital":"","population":"120258","id":"1076809155"},{"city":"Várzea Paulista","city_ascii":"Varzea Paulista","lat":"-23.2108","lng":"-46.8278","country":"Brazil","iso2":"BR","iso3":"BRA","admin_name":"São Paulo","capital":"","population":"116601","id":"1076046083"},{"city":"Valle de La Pascua","city_ascii":"Valle de La Pascua","lat":"9.2033","lng":"-66.0103","country":"Venezuela","iso2":"VE","iso3":"VEN","admin_name":"Guárico","capital":"minor","population":"115902","id":"1862904072"},{"city":"Vālpārai","city_ascii":"Valparai","lat":"10.3204","lng":"76.9700","country":"India","iso2":"IN","iso3":"IND","admin_name":"Tamil Nādu","capital":"","population":"114308","id":"1356065507"},{"city":"Vicenza","city_ascii":"Vicenza","lat":"45.5500","lng":"11.5500","country":"Italy","iso2":"IT","iso3":"ITA","admin_name":"Veneto","capital":"minor","population":"112408","id":"1380072199"},{"city":"Villa Mercedes","city_ascii":"Villa Mercedes","lat":"-33.6667","lng":"-65.4667","country":"Argentina","iso2":"AR","iso3":"ARG","admin_name":"San Luis","capital":"minor","population":"111391","id":"1032858021"},{"city":"Vĩnh Long","city_ascii":"Vinh Long","lat":"10.2550","lng":"105.9753","country":"Vietnam","iso2":"VN","iso3":"VNM","admin_name":"Vĩnh Long","capital":"admin","population":"103314","id":"1704262419"},{"city":"Villa Luzuriaga","city_ascii":"Villa Luzuriaga","lat":"-34.6667","lng":"-58.5833","country":"Argentina","iso2":"AR","iso3":"ARG","admin_name":"Buenos Aires","capital":"","population":"94403","id":"1032092344"},{"city":"Vista","city_ascii":"Vista","lat":"33.1896","lng":"-117.2386","country":"United States","iso2":"US","iso3":"USA","admin_name":"California","capital":"","population":"101638","id":"1840021994"},{"city":"Vitry-sur-Seine","city_ascii":"Vitry-sur-Seine","lat":"48.7875","lng":"2.3928","country":"France","iso2":"FR","iso3":"FRA","admin_name":"Île-de-France","capital":"","population":"93557","id":"1250115605"},{"city":"Vacaville","city_ascii":"Vacaville","lat":"38.3590","lng":"-121.9680","country":"United States","iso2":"US","iso3":"USA","admin_name":"California","capital":"","population":"101444","id":"1840021498"},{"city":"Viseu","city_ascii":"Viseu","lat":"40.6667","lng":"-7.9167","country":"Portugal","iso2":"PT","iso3":"PRT","admin_name":"Viseu","capital":"admin","population":"99274","id":"1620291266"},{"city":"Vị Thanh","city_ascii":"Vi Thanh","lat":"9.7833","lng":"105.4708","country":"Vietnam","iso2":"VN","iso3":"VNM","admin_name":"Hậu Giang","capital":"admin","population":"97200","id":"1704210026"},{"city":"Vanadzor","city_ascii":"Vanadzor","lat":"40.8128","lng":"44.4883","country":"Armenia","iso2":"AM","iso3":"ARM","admin_name":"Lorri","capital":"admin","population":"90525","id":"1051691929"},{"city":"Valjevo","city_ascii":"Valjevo","lat":"44.2667","lng":"19.8833","country":"Serbia","iso2":"RS","iso3":"SRB","admin_name":"Valjevo","capital":"admin","population":"90312","id":"1688926375"},{"city":"Versailles","city_ascii":"Versailles","lat":"48.8053","lng":"2.1350","country":"France","iso2":"FR","iso3":"FRA","admin_name":"Île-de-France","capital":"minor","population":"85862","id":"1250143827"},{"city":"Vólos","city_ascii":"Volos","lat":"39.3611","lng":"22.9425","country":"Greece","iso2":"GR","iso3":"GRC","admin_name":"Thessalía","capital":"minor","population":"86046","id":"1300109851"},{"city":"Viana do Castelo","city_ascii":"Viana do Castelo","lat":"41.7000","lng":"-8.8333","country":"Portugal","iso2":"PT","iso3":"PRT","admin_name":"Viana do Castelo","capital":"admin","population":"88725","id":"1620680440"},{"city":"Vincennes","city_ascii":"Vincennes","lat":"48.8478","lng":"2.4392","country":"France","iso2":"FR","iso3":"FRA","admin_name":"Île-de-France","capital":"","population":"49891","id":"1250087809"},{"city":"Veliko Tarnovo","city_ascii":"Veliko Tarnovo","lat":"43.0822","lng":"25.6317","country":"Bulgaria","iso2":"BG","iso3":"BGR","admin_name":"Veliko Tarnovo","capital":"admin","population":"72207","id":"1100134696"},{"city":"Valle Hermoso","city_ascii":"Valle Hermoso","lat":"25.6736","lng":"-97.8144","country":"Mexico","iso2":"MX","iso3":"MEX","admin_name":"Tamaulipas","capital":"minor","population":"68573","id":"1484479299"},{"city":"Vushtrri","city_ascii":"Vushtrri","lat":"42.8222","lng":"20.9694","country":"Kosovo","iso2":"XK","iso3":"XKS","admin_name":"Vushtrri","capital":"admin","population":"69870","id":"1901107642"},{"city":"Vénissieux","city_ascii":"Venissieux","lat":"45.6978","lng":"4.8867","country":"France","iso2":"FR","iso3":"FRA","admin_name":"Auvergne-Rhône-Alpes","capital":"","population":"65894","id":"1250755963"},{"city":"Valença","city_ascii":"Valenca","lat":"-13.3703","lng":"-39.0731","country":"Brazil","iso2":"BR","iso3":"BRA","admin_name":"Bahia","capital":"","population":"63231","id":"1076455406"},{"city":"Vratsa","city_ascii":"Vratsa","lat":"43.2000","lng":"23.5500","country":"Bulgaria","iso2":"BG","iso3":"BGR","admin_name":"Vratsa","capital":"admin","population":"69493","id":"1100261281"},{"city":"Villa Domínico","city_ascii":"Villa Dominico","lat":"-34.6917","lng":"-58.3333","country":"Argentina","iso2":"AR","iso3":"ARG","admin_name":"Buenos Aires","capital":"","population":"62315","id":"1032866743"},{"city":"Vaasa","city_ascii":"Vaasa","lat":"63.1000","lng":"21.6167","country":"Finland","iso2":"FI","iso3":"FIN","admin_name":"Pohjanmaa","capital":"admin","population":"67619","id":"1246734710"},{"city":"Valle de Bravo","city_ascii":"Valle de Bravo","lat":"19.1925","lng":"-100.1306","country":"Mexico","iso2":"MX","iso3":"MEX","admin_name":"México","capital":"minor","population":"61559","id":"1484105173"},{"city":"Villejuif","city_ascii":"Villejuif","lat":"48.7919","lng":"2.3636","country":"France","iso2":"FR","iso3":"FRA","admin_name":"Île-de-France","capital":"","population":"54753","id":"1250637012"},{"city":"Vilhena","city_ascii":"Vilhena","lat":"-12.7166","lng":"-60.1166","country":"Brazil","iso2":"BR","iso3":"BRA","admin_name":"Rondônia","capital":"","population":"63231","id":"1076196581"},{"city":"Vacaria","city_ascii":"Vacaria","lat":"-28.5122","lng":"-50.9339","country":"Brazil","iso2":"BR","iso3":"BRA","admin_name":"Rio Grande do Sul","capital":"","population":"56765","id":"1076001152"},{"city":"Växjö","city_ascii":"Vaxjo","lat":"56.8837","lng":"14.8167","country":"Sweden","iso2":"SE","iso3":"SWE","admin_name":"Kronoberg","capital":"admin","population":"59600","id":"1752263370"},{"city":"Veszprém","city_ascii":"Veszprem","lat":"47.1000","lng":"17.9167","country":"Hungary","iso2":"HU","iso3":"HUN","admin_name":"Veszprém","capital":"admin","population":"59738","id":"1348279762"},{"city":"Viedma","city_ascii":"Viedma","lat":"-40.8000","lng":"-63.0000","country":"Argentina","iso2":"AR","iso3":"ARG","admin_name":"Río Negro","capital":"admin","population":"59122","id":"1032613063"},{"city":"Vidin","city_ascii":"Vidin","lat":"43.9853","lng":"22.8764","country":"Bulgaria","iso2":"BG","iso3":"BGR","admin_name":"Vidin","capital":"admin","population":"58018","id":"1100463536"},{"city":"Vaslui","city_ascii":"Vaslui","lat":"46.6383","lng":"27.7292","country":"Romania","iso2":"RO","iso3":"ROU","admin_name":"Vaslui","capital":"admin","population":"55407","id":"1642644428"},{"city":"Vigan","city_ascii":"Vigan","lat":"17.5747","lng":"120.3869","country":"Philippines","iso2":"PH","iso3":"PHL","admin_name":"Ilocos Sur","capital":"admin","population":"53879","id":"1608368724"},{"city":"Villagrán","city_ascii":"Villagran","lat":"20.5170","lng":"-100.9830","country":"Mexico","iso2":"MX","iso3":"MEX","admin_name":"Guanajuato","capital":"minor","population":"45941","id":"1484237393"},{"city":"Vranje","city_ascii":"Vranje","lat":"42.5542","lng":"21.8972","country":"Serbia","iso2":"RS","iso3":"SRB","admin_name":"Vranje","capital":"admin","population":"55138","id":"1688474456"},{"city":"Vejle","city_ascii":"Vejle","lat":"55.7090","lng":"9.5350","country":"Denmark","iso2":"DK","iso3":"DNK","admin_name":"Syddanmark","capital":"admin","population":"51177","id":"1208585023"},{"city":"Valladolid","city_ascii":"Valladolid","lat":"20.6894","lng":"-88.2017","country":"Mexico","iso2":"MX","iso3":"MEX","admin_name":"Yucatán","capital":"","population":"48973","id":"1484332013"},{"city":"Vila Real","city_ascii":"Vila Real","lat":"41.3002","lng":"-7.7398","country":"Portugal","iso2":"PT","iso3":"PRT","admin_name":"Vila Real","capital":"admin","population":"51850","id":"1620292123"},{"city":"Vaulx-en-Velin","city_ascii":"Vaulx-en-Velin","lat":"45.7768","lng":"4.9186","country":"France","iso2":"FR","iso3":"FRA","admin_name":"Auvergne-Rhône-Alpes","capital":"","population":"49658","id":"1250814472"},{"city":"Vryburg","city_ascii":"Vryburg","lat":"-26.9500","lng":"24.7333","country":"South Africa","iso2":"ZA","iso3":"ZAF","admin_name":"North West","capital":"","population":"49588","id":"1710969597"},{"city":"Villa Alsina","city_ascii":"Villa Alsina","lat":"-34.6667","lng":"-58.4167","country":"Argentina","iso2":"AR","iso3":"ARG","admin_name":"Buenos Aires","capital":"","population":"41155","id":"1032506308"},{"city":"Viti","city_ascii":"Viti","lat":"42.3167","lng":"21.3500","country":"Kosovo","iso2":"XK","iso3":"XKS","admin_name":"Viti","capital":"admin","population":"46987","id":"1901328795"},{"city":"Valenciennes","city_ascii":"Valenciennes","lat":"50.3580","lng":"3.5233","country":"France","iso2":"FR","iso3":"FRA","admin_name":"Hauts-de-France","capital":"minor","population":"43336","id":"1250025032"},{"city":"Vilvoorde","city_ascii":"Vilvoorde","lat":"50.9281","lng":"4.4245","country":"Belgium","iso2":"BE","iso3":"BEL","admin_name":"Flanders","capital":"minor","population":"44015","id":"1056838834"},{"city":"Vanves","city_ascii":"Vanves","lat":"48.8208","lng":"2.2897","country":"France","iso2":"FR","iso3":"FRA","admin_name":"Île-de-France","capital":"","population":"27729","id":"1250321790"},{"city":"Veles","city_ascii":"Veles","lat":"41.7153","lng":"21.7753","country":"Macedonia","iso2":"MK","iso3":"MKD","admin_name":"Veles","capital":"admin","population":"45037","id":"1807468155"},{"city":"Villa Adelina","city_ascii":"Villa Adelina","lat":"-34.5175","lng":"-58.5475","country":"Argentina","iso2":"AR","iso3":"ARG","admin_name":"Buenos Aires","capital":"","population":"35307","id":"1032929712"},{"city":"Villarrica","city_ascii":"Villarrica","lat":"-25.7500","lng":"-56.4333","country":"Paraguay","iso2":"PY","iso3":"PRY","admin_name":"Guairá","capital":"admin","population":"41157","id":"1600446518"},{"city":"Vredenburg","city_ascii":"Vredenburg","lat":"-32.9000","lng":"17.9833","country":"South Africa","iso2":"ZA","iso3":"ZAF","admin_name":"Western Cape","capital":"","population":"38382","id":"1710121734"},{"city":"Villefranche-sur-Saône","city_ascii":"Villefranche-sur-Saone","lat":"45.9833","lng":"4.7167","country":"France","iso2":"FR","iso3":"FRA","admin_name":"Auvergne-Rhône-Alpes","capital":"minor","population":"36857","id":"1250969422"},{"city":"Villepinte","city_ascii":"Villepinte","lat":"48.9550","lng":"2.5410","country":"France","iso2":"FR","iso3":"FRA","admin_name":"Île-de-France","capital":"","population":"36830","id":"1250274181"},{"city":"Vernier","city_ascii":"Vernier","lat":"46.2000","lng":"6.1000","country":"Switzerland","iso2":"CH","iso3":"CHE","admin_name":"Genève","capital":"","population":"35132","id":"1756335917"},{"city":"Valley Stream","city_ascii":"Valley Stream","lat":"40.6647","lng":"-73.7044","country":"United States","iso2":"US","iso3":"USA","admin_name":"New York","capital":"","population":"37431","id":"1840005331"},{"city":"Villeneuve-Saint-Georges","city_ascii":"Villeneuve-Saint-Georges","lat":"48.7325","lng":"2.4497","country":"France","iso2":"FR","iso3":"FRA","admin_name":"Île-de-France","capital":"","population":"33545","id":"1250985976"},{"city":"Villemomble","city_ascii":"Villemomble","lat":"48.8833","lng":"2.5000","country":"France","iso2":"FR","iso3":"FRA","admin_name":"Île-de-France","capital":"","population":"29964","id":"1250831662"},{"city":"Viry-Châtillon","city_ascii":"Viry-Chatillon","lat":"48.6713","lng":"2.3750","country":"France","iso2":"FR","iso3":"FRA","admin_name":"Île-de-France","capital":"","population":"31093","id":"1250498232"},{"city":"Viborg","city_ascii":"Viborg","lat":"56.4333","lng":"9.4000","country":"Denmark","iso2":"DK","iso3":"DNK","admin_name":"Midtjylland","capital":"admin","population":"34831","id":"1208606810"},{"city":"Ventspils","city_ascii":"Ventspils","lat":"57.3897","lng":"21.5644","country":"Latvia","iso2":"LV","iso3":"LVA","admin_name":"Ventspils","capital":"admin","population":"35362","id":"1428112098"},{"city":"Vršac","city_ascii":"Vrsac","lat":"45.1206","lng":"21.2986","country":"Serbia","iso2":"RS","iso3":"SRB","admin_name":"Vršac","capital":"admin","population":"35701","id":"1688560040"},{"city":"Villanueva","city_ascii":"Villanueva","lat":"22.3536","lng":"-102.8831","country":"Mexico","iso2":"MX","iso3":"MEX","admin_name":"Zacatecas","capital":"minor","population":"32835","id":"1484244113"},{"city":"Villiers-sur-Marne","city_ascii":"Villiers-sur-Marne","lat":"48.8275","lng":"2.5447","country":"France","iso2":"FR","iso3":"FRA","admin_name":"Île-de-France","capital":"","population":"28456","id":"1250966526"},{"city":"Vigneux-sur-Seine","city_ascii":"Vigneux-sur-Seine","lat":"48.7001","lng":"2.4170","country":"France","iso2":"FR","iso3":"FRA","admin_name":"Île-de-France","capital":"","population":"31574","id":"1250005644"},{"city":"Villa Celina","city_ascii":"Villa Celina","lat":"-34.7006","lng":"-58.4825","country":"Argentina","iso2":"AR","iso3":"ARG","admin_name":"Buenos Aires, Ciudad Autónoma de","capital":"","population":"30000","id":"1032320584"},{"city":"Vandœuvre-lès-Nancy","city_ascii":"Vandoeuvre-les-Nancy","lat":"48.6567","lng":"6.1683","country":"France","iso2":"FR","iso3":"FRA","admin_name":"Grand Est","capital":"","population":"30002","id":"1250981193"},{"city":"Villiers-le-Bel","city_ascii":"Villiers-le-Bel","lat":"49.0094","lng":"2.3911","country":"France","iso2":"FR","iso3":"FRA","admin_name":"Île-de-France","capital":"","population":"27676","id":"1250001397"},{"city":"Viana","city_ascii":"Viana","lat":"-3.2096","lng":"-45.0000","country":"Brazil","iso2":"BR","iso3":"BRA","admin_name":"Maranhão","capital":"","population":"26689","id":"1076423280"},{"city":"Vicente López","city_ascii":"Vicente Lopez","lat":"-34.5333","lng":"-58.4750","country":"Argentina","iso2":"AR","iso3":"ARG","admin_name":"Buenos Aires","capital":"","population":"22419","id":"1032549688"},{"city":"Villeparisis","city_ascii":"Villeparisis","lat":"48.9503","lng":"2.6025","country":"France","iso2":"FR","iso3":"FRA","admin_name":"Île-de-France","capital":"","population":"26322","id":"1250133123"},{"city":"Vallauris","city_ascii":"Vallauris","lat":"43.5805","lng":"7.0538","country":"France","iso2":"FR","iso3":"FRA","admin_name":"Provence-Alpes-Côte d’Azur","capital":"","population":"26672","id":"1250016351"},{"city":"Villeneuve-la-Garenne","city_ascii":"Villeneuve-la-Garenne","lat":"48.9372","lng":"2.3278","country":"France","iso2":"FR","iso3":"FRA","admin_name":"Île-de-France","capital":"","population":"23771","id":"1250937070"},{"city":"Vichy","city_ascii":"Vichy","lat":"46.1278","lng":"3.4267","country":"France","iso2":"FR","iso3":"FRA","admin_name":"Auvergne-Rhône-Alpes","capital":"minor","population":"24166","id":"1250084403"},{"city":"Vevey","city_ascii":"Vevey","lat":"46.4667","lng":"6.8500","country":"Switzerland","iso2":"CH","iso3":"CHE","admin_name":"Vaud","capital":"","population":"19891","id":"1756579162"},{"city":"Velenje","city_ascii":"Velenje","lat":"46.3667","lng":"15.1167","country":"Slovenia","iso2":"SI","iso3":"SVN","admin_name":"Velenje","capital":"admin","population":"25333","id":"1705929589"},{"city":"Voinjama","city_ascii":"Voinjama","lat":"8.4167","lng":"-9.7500","country":"Liberia","iso2":"LR","iso3":"LBR","admin_name":"Lofa","capital":"admin","population":"26594","id":"1430858471"},{"city":"Valmiera","city_ascii":"Valmiera","lat":"57.5381","lng":"25.4231","country":"Latvia","iso2":"LV","iso3":"LVA","admin_name":"Valmiera","capital":"admin","population":"25093","id":"1428524787"},{"city":"Viseu","city_ascii":"Viseu","lat":"-1.1965","lng":"-46.1400","country":"Brazil","iso2":"BR","iso3":"BRA","admin_name":"Pará","capital":"","population":"18958","id":"1076429547"},{"city":"Valinda","city_ascii":"Valinda","lat":"34.0401","lng":"-117.9300","country":"United States","iso2":"US","iso3":"USA","admin_name":"California","capital":"","population":"25296","id":"1840019213"},{"city":"Visby","city_ascii":"Visby","lat":"57.6290","lng":"18.3071","country":"Sweden","iso2":"SE","iso3":"SWE","admin_name":"Gotland","capital":"admin","population":"24693","id":"1752027172"},{"city":"Vukovar","city_ascii":"Vukovar","lat":"45.3500","lng":"19.0033","country":"Croatia","iso2":"HR","iso3":"HRV","admin_name":"Vukovarsko-Srijemska Županija","capital":"admin","population":"24938","id":"1191345427"},{"city":"Villa Sarmiento","city_ascii":"Villa Sarmiento","lat":"-34.6333","lng":"-58.5667","country":"Argentina","iso2":"AR","iso3":"ARG","admin_name":"Buenos Aires","capital":"","population":"17481","id":"1032961945"},{"city":"Vélizy-Villacoublay","city_ascii":"Velizy-Villacoublay","lat":"48.7834","lng":"2.1834","country":"France","iso2":"FR","iso3":"FRA","admin_name":"Île-de-France","capital":"","population":"22036","id":"1250075648"},{"city":"Vrbas","city_ascii":"Vrbas","lat":"45.5697","lng":"19.6378","country":"Serbia","iso2":"RS","iso3":"SRB","admin_name":"Vrbas","capital":"admin","population":"24112","id":"1688145915"},{"city":"Villeneuve-le-Roi","city_ascii":"Villeneuve-le-Roi","lat":"48.7333","lng":"2.4167","country":"France","iso2":"FR","iso3":"FRA","admin_name":"Île-de-France","capital":"","population":"21384","id":"1250314073"},{"city":"Virovitica","city_ascii":"Virovitica","lat":"45.8333","lng":"17.3833","country":"Croatia","iso2":"HR","iso3":"HRV","admin_name":"Virovitičko-Podravska Županija","capital":"admin","population":"21291","id":"1191128636"},{"city":"Visaginas","city_ascii":"Visaginas","lat":"55.6000","lng":"26.4333","country":"Lithuania","iso2":"LT","iso3":"LTU","admin_name":"Visaginas","capital":"admin","population":"18514","id":"1440984232"},{"city":"Vicente Guerrero","city_ascii":"Vicente Guerrero","lat":"23.7500","lng":"-103.9833","country":"Mexico","iso2":"MX","iso3":"MEX","admin_name":"Durango","capital":"minor","population":"15982","id":"1484862775"},{"city":"Viljandi","city_ascii":"Viljandi","lat":"58.3633","lng":"25.5956","country":"Estonia","iso2":"EE","iso3":"EST","admin_name":"Viljandimaa","capital":"admin","population":"17407","id":"1233067368"},{"city":"Valparaíso","city_ascii":"Valparaiso","lat":"22.7667","lng":"-103.5667","country":"Mexico","iso2":"MX","iso3":"MEX","admin_name":"Zacatecas","capital":"minor","population":"12919","id":"1484885454"},{"city":"Villa Unión","city_ascii":"Villa Union","lat":"23.1883","lng":"-106.2158","country":"Mexico","iso2":"MX","iso3":"MEX","admin_name":"Sinaloa","capital":"","population":"13404","id":"1484310975"},{"city":"Verwood","city_ascii":"Verwood","lat":"50.8815","lng":"-1.8785","country":"United Kingdom","iso2":"GB","iso3":"GBR","admin_name":"Dorset","capital":"","population":"13969","id":"1826274475"},{"city":"Vincent","city_ascii":"Vincent","lat":"34.0982","lng":"-117.9238","country":"United States","iso2":"US","iso3":"USA","admin_name":"California","capital":"","population":"17008","id":"1840074687"},{"city":"Vicente Guerrero","city_ascii":"Vicente Guerrero","lat":"30.7264","lng":"-115.9903","country":"Mexico","iso2":"MX","iso3":"MEX","admin_name":"Baja California","capital":"","population":"12829","id":"1484159343"},{"city":"Villa Hayes","city_ascii":"Villa Hayes","lat":"-25.0900","lng":"-57.5300","country":"Paraguay","iso2":"PY","iso3":"PRY","admin_name":"Presidente Hayes","capital":"admin","population":"15643","id":"1600405064"},{"city":"Villa Unión","city_ascii":"Villa Union","lat":"23.9667","lng":"-104.0333","country":"Mexico","iso2":"MX","iso3":"MEX","admin_name":"Durango","capital":"minor","population":"10753","id":"1484796365"},{"city":"Villars-sur-Glâne","city_ascii":"Villars-sur-Glane","lat":"46.7833","lng":"7.1167","country":"Switzerland","iso2":"CH","iso3":"CHE","admin_name":"Fribourg","capital":"","population":"12092","id":"1756439374"},{"city":"Villa de Etla","city_ascii":"Villa de Etla","lat":"17.2062","lng":"-96.7989","country":"Mexico","iso2":"MX","iso3":"MEX","admin_name":"Oaxaca","capital":"","population":"10737","id":"1484285081"},{"city":"Valga","city_ascii":"Valga","lat":"57.7769","lng":"26.0311","country":"Estonia","iso2":"EE","iso3":"EST","admin_name":"Valgamaa","capital":"admin","population":"12182","id":"1233406308"},{"city":"Valadares","city_ascii":"Valadares","lat":"41.0997","lng":"-8.6403","country":"Portugal","iso2":"PT","iso3":"PRT","admin_name":"Porto","capital":"","population":"10678","id":"1620413494"},{"city":"Võru","city_ascii":"Voru","lat":"57.8486","lng":"26.9928","country":"Estonia","iso2":"EE","iso3":"EST","admin_name":"Võrumaa","capital":"admin","population":"11859","id":"1233754374"},{"city":"View Park-Windsor Hills","city_ascii":"View Park-Windsor Hills","lat":"33.9955","lng":"-118.3484","country":"United States","iso2":"US","iso3":"USA","admin_name":"California","capital":"","population":"11580","id":"1840074686"},{"city":"Vanimo","city_ascii":"Vanimo","lat":"-2.6817","lng":"141.3014","country":"Papua New Guinea","iso2":"PG","iso3":"PNG","admin_name":"West Sepik","capital":"admin","population":"11204","id":"1598892363"},{"city":"Vinica","city_ascii":"Vinica","lat":"41.8828","lng":"22.5092","country":"Macedonia","iso2":"MK","iso3":"MKD","admin_name":"Vinica","capital":"admin","population":"10863","id":"1807665568"},{"city":"Vrnjačka Banja","city_ascii":"Vrnjacka Banja","lat":"43.6167","lng":"20.9000","country":"Serbia","iso2":"RS","iso3":"SRB","admin_name":"Vrnjačka Banja","capital":"admin","population":"10065","id":"1688549018"},{"city":"Vilkaviškis","city_ascii":"Vilkaviskis","lat":"54.6667","lng":"23.0333","country":"Lithuania","iso2":"LT","iso3":"LTU","admin_name":"Vilkaviškis","capital":"admin","population":"9855","id":"1440557692"},{"city":"Varėna","city_ascii":"Varena","lat":"54.2111","lng":"24.5722","country":"Lithuania","iso2":"LT","iso3":"LTU","admin_name":"Varėna","capital":"admin","population":"8477","id":"1440933251"},{"city":"Virac","city_ascii":"Virac","lat":"13.5848","lng":"124.2374","country":"Philippines","iso2":"PH","iso3":"PHL","admin_name":"Catanduanes","capital":"admin","population":"","id":"1608265120"},{"city":"Viqueque","city_ascii":"Viqueque","lat":"-8.8500","lng":"126.3667","country":"Timor-Leste","iso2":"TL","iso3":"TLS","admin_name":"Viqueque","capital":"admin","population":"6078","id":"1626768340"},{"city":"Valka","city_ascii":"Valka","lat":"57.7753","lng":"26.0214","country":"Latvia","iso2":"LV","iso3":"LVA","admin_name":"Valkas Novads","capital":"admin","population":"4573","id":"1428763918"},{"city":"Valandovo","city_ascii":"Valandovo","lat":"41.3169","lng":"22.5611","country":"Macedonia","iso2":"MK","iso3":"MKD","admin_name":"Valandovo","capital":"admin","population":"4442","id":"1807423601"},{"city":"Vittoriosa","city_ascii":"Vittoriosa","lat":"35.8922","lng":"14.5183","country":"Malta","iso2":"MT","iso3":"MLT","admin_name":"Birgu","capital":"admin","population":"","id":"1470805169"},{"city":"Viļāni","city_ascii":"Vilani","lat":"56.5528","lng":"26.9253","country":"Latvia","iso2":"LV","iso3":"LVA","admin_name":"Viļānu Novads","capital":"admin","population":"2938","id":"1428636034"},{"city":"Viligili","city_ascii":"Viligili","lat":"0.7539","lng":"73.4353","country":"Maldives","iso2":"MV","iso3":"MDV","admin_name":"Huvadhu Atholhu Uthuruburi","capital":"admin","population":"","id":"1462034411"},{"city":"Victoria","city_ascii":"Victoria","lat":"36.0444","lng":"14.2397","country":"Malta","iso2":"MT","iso3":"MLT","admin_name":"Rabat (Ghawdex)","capital":"admin","population":"","id":"1470128499"},{"city":"Varakļāni","city_ascii":"Varaklani","lat":"56.6078","lng":"26.7550","country":"Latvia","iso2":"LV","iso3":"LVA","admin_name":"Varakļānu Novads","capital":"admin","population":"1853","id":"1428435689"},{"city":"Vĩnh Yên","city_ascii":"Vinh Yen","lat":"21.3100","lng":"105.5967","country":"Vietnam","iso2":"VN","iso3":"VNM","admin_name":"Vĩnh Phúc","capital":"admin","population":"","id":"1704905946"},{"city":"Veymandoo","city_ascii":"Veymandoo","lat":"2.1878","lng":"73.0950","country":"Maldives","iso2":"MV","iso3":"MDV","admin_name":"Kolhumadulu","capital":"admin","population":"","id":"1462464790"},{"city":"Viesīte","city_ascii":"Viesite","lat":"56.3453","lng":"25.5569","country":"Latvia","iso2":"LV","iso3":"LVA","admin_name":"Viesītes Novads","capital":"admin","population":"1580","id":"1428998036"},{"city":"Vreed-en-Hoop","city_ascii":"Vreed-en-Hoop","lat":"6.8000","lng":"-58.1833","country":"Guyana","iso2":"GY","iso3":"GUY","admin_name":"Essequibo Islands-West Demerara","capital":"admin","population":"","id":"1328178268"},{"city":"Viļaka","city_ascii":"Vilaka","lat":"57.1842","lng":"27.6722","country":"Latvia","iso2":"LV","iso3":"LVA","admin_name":"Viļakas Novads","capital":"admin","population":"1309","id":"1428268339"},{"city":"Vladičin Han","city_ascii":"Vladicin Han","lat":"42.7000","lng":"22.0667","country":"Serbia","iso2":"RS","iso3":"SRB","admin_name":"Vladičin Han","capital":"admin","population":"","id":"1688664018"},{"city":"Varaždin","city_ascii":"Varazdin","lat":"46.3000","lng":"16.3333","country":"Croatia","iso2":"HR","iso3":"HRV","admin_name":"Varaždinska Županija","capital":"admin","population":"","id":"1191291148"},{"city":"Vuzenica","city_ascii":"Vuzenica","lat":"46.5992","lng":"15.1669","country":"Slovenia","iso2":"SI","iso3":"SVN","admin_name":"Vuzenica","capital":"admin","population":"","id":"1705639122"},{"city":"Vwawa","city_ascii":"Vwawa","lat":"-9.1081","lng":"32.9347","country":"Tanzania","iso2":"TZ","iso3":"TZA","admin_name":"Mbeya","capital":"admin","population":"","id":"1834695780"},{"city":"Vrhnika","city_ascii":"Vrhnika","lat":"45.9622","lng":"14.2936","country":"Slovenia","iso2":"SI","iso3":"SVN","admin_name":"Vrhnika","capital":"admin","population":"","id":"1705071756"},{"city":"Vlasotince","city_ascii":"Vlasotince","lat":"42.9667","lng":"22.1333","country":"Serbia","iso2":"RS","iso3":"SRB","admin_name":"Vlasotince","capital":"admin","population":"","id":"1688116678"},{"city":"Vojnik","city_ascii":"Vojnik","lat":"46.2931","lng":"15.3028","country":"Slovenia","iso2":"SI","iso3":"SVN","admin_name":"Vojnik","capital":"admin","population":"","id":"1705662463"},{"city":"Vitanje","city_ascii":"Vitanje","lat":"46.3817","lng":"15.2958","country":"Slovenia","iso2":"SI","iso3":"SVN","admin_name":"Vitanje","capital":"admin","population":"","id":"1705925648"},{"city":"Velika Plana","city_ascii":"Velika Plana","lat":"44.3333","lng":"21.0833","country":"Serbia","iso2":"RS","iso3":"SRB","admin_name":"Velika Plana","capital":"admin","population":"","id":"1688536735"},{"city":"Vodice","city_ascii":"Vodice","lat":"46.2000","lng":"14.5000","country":"Slovenia","iso2":"SI","iso3":"SVN","admin_name":"Vodice","capital":"admin","population":"","id":"1705728443"},{"city":"Vransko","city_ascii":"Vransko","lat":"46.2439","lng":"14.9514","country":"Slovenia","iso2":"SI","iso3":"SVN","admin_name":"Vransko","capital":"admin","population":"","id":"1705616966"},{"city":"Volčja Draga","city_ascii":"Volcja Draga","lat":"45.9069","lng":"13.6775","country":"Slovenia","iso2":"SI","iso3":"SVN","admin_name":"Renče-Vogrsko","capital":"admin","population":"","id":"1705547222"},{"city":"Videm","city_ascii":"Videm","lat":"45.8500","lng":"14.6942","country":"Slovenia","iso2":"SI","iso3":"SVN","admin_name":"Dobrepolje","capital":"admin","population":"","id":"1705074870"},{"city":"Vrapčište","city_ascii":"Vrapciste","lat":"41.8344","lng":"20.8856","country":"Macedonia","iso2":"MK","iso3":"MKD","admin_name":"Vrapčište","capital":"admin","population":"","id":"1807187187"},{"city":"Vianden","city_ascii":"Vianden","lat":"49.9350","lng":"6.2089","country":"Luxembourg","iso2":"LU","iso3":"LUX","admin_name":"Vianden","capital":"admin","population":"","id":"1442979391"},{"city":"Veržej","city_ascii":"Verzej","lat":"46.5836","lng":"16.1653","country":"Slovenia","iso2":"SI","iso3":"SVN","admin_name":"Veržej","capital":"admin","population":"","id":"1705529436"},{"city":"Vipava","city_ascii":"Vipava","lat":"45.8463","lng":"13.9622","country":"Slovenia","iso2":"SI","iso3":"SVN","admin_name":"Vipava","capital":"admin","population":"","id":"1705864633"},{"city":"Velike Lašče","city_ascii":"Velike Lasce","lat":"45.8322","lng":"14.6364","country":"Slovenia","iso2":"SI","iso3":"SVN","admin_name":"Velike Lašče","capital":"admin","population":"","id":"1705618557"},{"city":"Velika Polana","city_ascii":"Velika Polana","lat":"46.5719","lng":"16.3469","country":"Slovenia","iso2":"SI","iso3":"SVN","admin_name":"Velika Polana","capital":"admin","population":"","id":"1705627212"},{"city":"Varvarin","city_ascii":"Varvarin","lat":"43.7167","lng":"21.3667","country":"Serbia","iso2":"RS","iso3":"SRB","admin_name":"Varvarin","capital":"admin","population":"","id":"1688871979"},{"city":"Videm pri Ptuju","city_ascii":"Videm pri Ptuju","lat":"46.3686","lng":"15.9064","country":"Slovenia","iso2":"SI","iso3":"SVN","admin_name":"Videm","capital":"admin","population":"","id":"1705681768"},{"city":"Vevčani","city_ascii":"Vevcani","lat":"41.2406","lng":"20.5933","country":"Macedonia","iso2":"MK","iso3":"MKD","admin_name":"Vevčani","capital":"admin","population":"","id":"1807108428"},{"city":"Vitomarci","city_ascii":"Vitomarci","lat":"46.5275","lng":"15.9394","country":"Slovenia","iso2":"SI","iso3":"SVN","admin_name":"Sveti Andraž v Slovenskih Goricah","capital":"admin","population":"","id":"1705653481"},{"city":"Vágur","city_ascii":"Vagur","lat":"61.4733","lng":"-6.8175","country":"Faroe Islands","iso2":"FO","iso3":"FRO","admin_name":"","capital":"admin","population":"","id":"1234642477"},{"city":"Vasilevo","city_ascii":"Vasilevo","lat":"41.4741","lng":"22.6430","country":"Macedonia","iso2":"MK","iso3":"MKD","admin_name":"Vasilevo","capital":"admin","population":"","id":"1807855424"},{"city":"Vladimirci","city_ascii":"Vladimirci","lat":"44.6158","lng":"19.7843","country":"Serbia","iso2":"RS","iso3":"SRB","admin_name":"Vladimirci","capital":"admin","population":"","id":"1688070989"},{"city":"Vailoa","city_ascii":"Vailoa","lat":"-13.7555","lng":"-172.3070","country":"Samoa","iso2":"WS","iso3":"WSM","admin_name":"Palauli","capital":"admin","population":"","id":"1882047846"},{"city":"Veliko Gradište","city_ascii":"Veliko Gradiste","lat":"44.7500","lng":"21.5167","country":"Serbia","iso2":"RS","iso3":"SRB","admin_name":"Veliko Gradište","capital":"admin","population":"","id":"1688050059"},{"city":"Vestmanna","city_ascii":"Vestmanna","lat":"62.1548","lng":"-7.1690","country":"Faroe Islands","iso2":"FO","iso3":"FRO","admin_name":"","capital":"admin","population":"","id":"1234694837"},{"city":"Viðareiði","city_ascii":"Vidhareidhi","lat":"62.3600","lng":"-6.5313","country":"Faroe Islands","iso2":"FO","iso3":"FRO","admin_name":"","capital":"admin","population":"","id":"1234512915"},{"city":"Vecumnieki","city_ascii":"Vecumnieki","lat":"56.6061","lng":"24.5223","country":"Latvia","iso2":"LV","iso3":"LVA","admin_name":"Vecumnieku Novads","capital":"admin","population":"","id":"1428888119"},{"city":"Vaiņode","city_ascii":"Vainode","lat":"56.4185","lng":"21.8541","country":"Latvia","iso2":"LV","iso3":"LVA","admin_name":"Vaiņodes Novads","capital":"admin","population":"","id":"1428647067"},{"city":"Vecpiebalga","city_ascii":"Vecpiebalga","lat":"57.0618","lng":"25.8179","country":"Latvia","iso2":"LV","iso3":"LVA","admin_name":"Vecpiebalgas Novads","capital":"admin","population":"","id":"1428633596"},{"city":"Vecvārkava","city_ascii":"Vecvarkava","lat":"56.1984","lng":"26.5081","country":"Latvia","iso2":"LV","iso3":"LVA","admin_name":"Vārkavas Novads","capital":"admin","population":"","id":"1428075811"},{"city":"Votkinsk","city_ascii":"Votkinsk","lat":"57.0500","lng":"54.0000","country":"Russia","iso2":"RU","iso3":"RUS","admin_name":"Udmurtiya","capital":"","population":"97550","id":"1643007991"},{"city":"Vanderbijlpark","city_ascii":"Vanderbijlpark","lat":"-26.6992","lng":"27.8356","country":"South Africa","iso2":"ZA","iso3":"ZAF","admin_name":"Gauteng","capital":"","population":"95840","id":"1710733212"},{"city":"Valongo","city_ascii":"Valongo","lat":"41.1833","lng":"-8.5000","country":"Portugal","iso2":"PT","iso3":"PRT","admin_name":"Porto","capital":"minor","population":"93858","id":"1620725806"},{"city":"Voskresensk","city_ascii":"Voskresensk","lat":"55.3167","lng":"38.6833","country":"Russia","iso2":"RU","iso3":"RUS","admin_name":"Moskovskaya Oblast’","capital":"","population":"93565","id":"1643351541"},{"city":"Vineland","city_ascii":"Vineland","lat":"39.4653","lng":"-74.9981","country":"United States","iso2":"US","iso3":"USA","admin_name":"New Jersey","capital":"","population":"93239","id":"1840001551"},{"city":"Velikiye Luki","city_ascii":"Velikiye Luki","lat":"56.3500","lng":"30.5167","country":"Russia","iso2":"RU","iso3":"RUS","admin_name":"Pskovskaya Oblast’","capital":"","population":"91435","id":"1643622811"},{"city":"Votuporanga","city_ascii":"Votuporanga","lat":"-20.4228","lng":"-49.9728","country":"Brazil","iso2":"BR","iso3":"BRA","admin_name":"São Paulo","capital":"","population":"91278","id":"1076423091"},{"city":"Victorias","city_ascii":"Victorias","lat":"10.9000","lng":"123.0833","country":"Philippines","iso2":"PH","iso3":"PHL","admin_name":"Negros Occidental","capital":"","population":"87933","id":"1608236440"},{"city":"Villingen-Schwenningen","city_ascii":"Villingen-Schwenningen","lat":"48.0603","lng":"8.4586","country":"Germany","iso2":"DE","iso3":"DEU","admin_name":"Baden-Württemberg","capital":"minor","population":"85181","id":"1276450523"},{"city":"Velbert","city_ascii":"Velbert","lat":"51.3400","lng":"7.0416","country":"Germany","iso2":"DE","iso3":"DEU","admin_name":"North Rhine-Westphalia","capital":"","population":"81984","id":"1276896645"},{"city":"Varese","city_ascii":"Varese","lat":"45.8167","lng":"8.8333","country":"Italy","iso2":"IT","iso3":"ITA","admin_name":"Lombardy","capital":"minor","population":"80629","id":"1380137214"},{"city":"Vila do Conde","city_ascii":"Vila do Conde","lat":"41.3500","lng":"-8.7500","country":"Portugal","iso2":"PT","iso3":"PRT","admin_name":"Porto","capital":"minor","population":"79533","id":"1620584469"},{"city":"Valdosta","city_ascii":"Valdosta","lat":"30.8502","lng":"-83.2788","country":"United States","iso2":"US","iso3":"USA","admin_name":"Georgia","capital":"","population":"79820","id":"1840015894"},{"city":"Villa María","city_ascii":"Villa Maria","lat":"-32.4103","lng":"-63.2314","country":"Argentina","iso2":"AR","iso3":"ARG","admin_name":"Córdoba","capital":"minor","population":"79356","id":"1032987787"},{"city":"Vyborg","city_ascii":"Vyborg","lat":"60.7092","lng":"28.7442","country":"Russia","iso2":"RU","iso3":"RUS","admin_name":"Leningradskaya Oblast’","capital":"","population":"78457","id":"1643778472"},{"city":"Villa Victoria","city_ascii":"Villa Victoria","lat":"19.4333","lng":"-100.0000","country":"Mexico","iso2":"MX","iso3":"MEX","admin_name":"México","capital":"minor","population":"77819","id":"1484528358"},{"city":"Viersen","city_ascii":"Viersen","lat":"51.2556","lng":"6.3917","country":"Germany","iso2":"DE","iso3":"DEU","admin_name":"North Rhine-Westphalia","capital":"minor","population":"76905","id":"1276629059"},{"city":"Venado Tuerto","city_ascii":"Venado Tuerto","lat":"-33.7500","lng":"-61.9667","country":"Argentina","iso2":"AR","iso3":"ARG","admin_name":"Santa Fe","capital":"","population":"76432","id":"1032284763"},{"city":"Valle Alto","city_ascii":"Valle Alto","lat":"25.5667","lng":"-100.2500","country":"Mexico","iso2":"MX","iso3":"MEX","admin_name":"Nuevo León","capital":"","population":"75000","id":"1484080034"},{"city":"Vinhedo","city_ascii":"Vinhedo","lat":"-23.0300","lng":"-46.9750","country":"Brazil","iso2":"BR","iso3":"BRA","admin_name":"São Paulo","capital":"","population":"72550","id":"1076383405"},{"city":"Vsevolozhsk","city_ascii":"Vsevolozhsk","lat":"60.0160","lng":"30.6663","country":"Russia","iso2":"RU","iso3":"RUS","admin_name":"Leningradskaya Oblast’","capital":"","population":"72864","id":"1643253701"},{"city":"Villa Tunari","city_ascii":"Villa Tunari","lat":"-16.9725","lng":"-65.4200","country":"Bolivia","iso2":"BO","iso3":"BOL","admin_name":"Cochabamba","capital":"","population":"71386","id":"1068987267"},{"city":"Verkhnyaya Pyshma","city_ascii":"Verkhnyaya Pyshma","lat":"56.9667","lng":"60.5833","country":"Russia","iso2":"RU","iso3":"RUS","admin_name":"Sverdlovskaya Oblast’","capital":"","population":"71241","id":"1643491878"},{"city":"Villa del Rosario","city_ascii":"Villa del Rosario","lat":"7.8353","lng":"-72.4736","country":"Colombia","iso2":"CO","iso3":"COL","admin_name":"Norte de Santander","capital":"minor","population":"69833","id":"1170700232"},{"city":"Villanueva y Geltrú","city_ascii":"Villanueva y Geltru","lat":"41.2243","lng":"1.7259","country":"Spain","iso2":"ES","iso3":"ESP","admin_name":"Catalonia","capital":"","population":"67086","id":"1724482160"},{"city":"Victoria","city_ascii":"Victoria","lat":"28.8285","lng":"-96.9850","country":"United States","iso2":"US","iso3":"USA","admin_name":"Texas","capital":"","population":"68078","id":"1840023044"},{"city":"Vidnoye","city_ascii":"Vidnoye","lat":"55.5500","lng":"37.7000","country":"Russia","iso2":"RU","iso3":"RUS","admin_name":"Moskovskaya Oblast’","capital":"","population":"66158","id":"1643052393"},{"city":"Valence","city_ascii":"Valence","lat":"44.9333","lng":"4.8917","country":"France","iso2":"FR","iso3":"FRA","admin_name":"Auvergne-Rhône-Alpes","capital":"minor","population":"63714","id":"1250486068"},{"city":"Velika Gorica","city_ascii":"Velika Gorica","lat":"45.7000","lng":"16.0667","country":"Croatia","iso2":"HR","iso3":"HRV","admin_name":"Zagrebačka Županija","capital":"minor","population":"63517","id":"1191113594"},{"city":"Vol’sk","city_ascii":"Vol'sk","lat":"52.0500","lng":"47.3833","country":"Russia","iso2":"RU","iso3":"RUS","admin_name":"Saratovskaya Oblast’","capital":"","population":"63212","id":"1643293120"},{"city":"Villa Carlos Paz","city_ascii":"Villa Carlos Paz","lat":"-31.4000","lng":"-64.5167","country":"Argentina","iso2":"AR","iso3":"ARG","admin_name":"Córdoba","capital":"","population":"62423","id":"1032854975"},{"city":"Villach","city_ascii":"Villach","lat":"46.6167","lng":"13.8333","country":"Austria","iso2":"AT","iso3":"AUT","admin_name":"Kärnten","capital":"minor","population":"61879","id":"1040202364"},{"city":"Vinukonda","city_ascii":"Vinukonda","lat":"16.0500","lng":"79.7500","country":"India","iso2":"IN","iso3":"IND","admin_name":"Andhra Pradesh","capital":"","population":"59725","id":"1356819642"},{"city":"Vrindāvan","city_ascii":"Vrindavan","lat":"27.5806","lng":"77.7006","country":"India","iso2":"IN","iso3":"IND","admin_name":"Uttar Pradesh","capital":"","population":"56618","id":"1356168243"},{"city":"Vranjak","city_ascii":"Vranjak","lat":"42.3994","lng":"20.6547","country":"Kosovo","iso2":"XK","iso3":"XKS","admin_name":"Rahovec","capital":"","population":"56208","id":"1901861427"},{"city":"Vorkuta","city_ascii":"Vorkuta","lat":"67.5000","lng":"64.0333","country":"Russia","iso2":"RU","iso3":"RUS","admin_name":"Komi","capital":"","population":"56088","id":"1643002916"},{"city":"Volzhsk","city_ascii":"Volzhsk","lat":"55.8667","lng":"48.3500","country":"Russia","iso2":"RU","iso3":"RUS","admin_name":"Mariy-El","capital":"","population":"54519","id":"1643457067"},{"city":"Vannes","city_ascii":"Vannes","lat":"47.6559","lng":"-2.7603","country":"France","iso2":"FR","iso3":"FRA","admin_name":"Bretagne","capital":"minor","population":"53352","id":"1250939385"},{"city":"Vikārābād","city_ascii":"Vikarabad","lat":"17.3300","lng":"77.9000","country":"India","iso2":"IN","iso3":"IND","admin_name":"Telangana","capital":"","population":"53143","id":"1356904767"},{"city":"Vyksa","city_ascii":"Vyksa","lat":"55.3194","lng":"42.1731","country":"Russia","iso2":"RU","iso3":"RUS","admin_name":"Nizhegorodskaya Oblast’","capital":"","population":"53219","id":"1643006557"},{"city":"Venkatagiri","city_ascii":"Venkatagiri","lat":"13.9667","lng":"79.5833","country":"India","iso2":"IN","iso3":"IND","admin_name":"Andhra Pradesh","capital":"","population":"52688","id":"1356644043"},{"city":"Vyaz’ma","city_ascii":"Vyaz'ma","lat":"55.2103","lng":"34.2850","country":"Russia","iso2":"RU","iso3":"RUS","admin_name":"Smolenskaya Oblast’","capital":"","population":"52506","id":"1643507171"},{"city":"Villareal","city_ascii":"Villareal","lat":"39.9378","lng":"-0.1014","country":"Spain","iso2":"ES","iso3":"ESP","admin_name":"Valencia","capital":"","population":"50893","id":"1724206895"},{"city":"Villaguay","city_ascii":"Villaguay","lat":"-31.8500","lng":"-59.0167","country":"Argentina","iso2":"AR","iso3":"ARG","admin_name":"Entre Ríos","capital":"minor","population":"49445","id":"1032112502"},{"city":"Vila Verde","city_ascii":"Vila Verde","lat":"41.6500","lng":"-8.4333","country":"Portugal","iso2":"PT","iso3":"PRT","admin_name":"Braga","capital":"minor","population":"47888","id":"1620759791"},{"city":"Vyshniy Volochëk","city_ascii":"Vyshniy Volochek","lat":"57.5913","lng":"34.5645","country":"Russia","iso2":"RU","iso3":"RUS","admin_name":"Tverskaya Oblast’","capital":"","population":"46908","id":"1643616804"},{"city":"Villa Constitución","city_ascii":"Villa Constitucion","lat":"-33.2333","lng":"-60.3333","country":"Argentina","iso2":"AR","iso3":"ARG","admin_name":"Santa Fe","capital":"minor","population":"47374","id":"1032793574"},{"city":"Victoriaville","city_ascii":"Victoriaville","lat":"46.0500","lng":"-71.9667","country":"Canada","iso2":"CA","iso3":"CAN","admin_name":"Quebec","capital":"","population":"45309","id":"1124149787"},{"city":"Vallenar","city_ascii":"Vallenar","lat":"-28.5700","lng":"-70.7600","country":"Chile","iso2":"CL","iso3":"CHL","admin_name":"Atacama","capital":"minor","population":"44895","id":"1152000009"},{"city":"Volkhov","city_ascii":"Volkhov","lat":"59.9167","lng":"32.3500","country":"Russia","iso2":"RU","iso3":"RUS","admin_name":"Leningradskaya Oblast’","capital":"","population":"44868","id":"1643547178"},{"city":"Vernon","city_ascii":"Vernon","lat":"50.2670","lng":"-119.2720","country":"Canada","iso2":"CA","iso3":"CAN","admin_name":"British Columbia","capital":"","population":"44600","id":"1124553338"},{"city":"Volksrust","city_ascii":"Volksrust","lat":"-27.3667","lng":"29.8833","country":"South Africa","iso2":"ZA","iso3":"ZAF","admin_name":"Mpumalanga","capital":"","population":"43378","id":"1710664906"},{"city":"Voluntari","city_ascii":"Voluntari","lat":"44.4925","lng":"26.1914","country":"Romania","iso2":"RO","iso3":"ROU","admin_name":"Bucureşti","capital":"","population":"42944","id":"1642832091"},{"city":"Véroia","city_ascii":"Veroia","lat":"40.5203","lng":"22.2019","country":"Greece","iso2":"GR","iso3":"GRC","admin_name":"Kentrikí Makedonía","capital":"minor","population":"43158","id":"1300354522"},{"city":"Vawkavysk","city_ascii":"Vawkavysk","lat":"53.1667","lng":"24.4667","country":"Belarus","iso2":"BY","iso3":"BLR","admin_name":"Hrodzyenskaya Voblasts’","capital":"minor","population":"42600","id":"1112164201"},{"city":"Verkhnyaya Salda","city_ascii":"Verkhnyaya Salda","lat":"58.0500","lng":"60.5500","country":"Russia","iso2":"RU","iso3":"RUS","admin_name":"Sverdlovskaya Oblast’","capital":"","population":"41484","id":"1643609151"},{"city":"Vyshneve","city_ascii":"Vyshneve","lat":"50.3833","lng":"30.3667","country":"Ukraine","iso2":"UA","iso3":"UKR","admin_name":"Kyyivs’ka Oblast’","capital":"","population":"40919","id":"1804783746"},{"city":"Vahdat","city_ascii":"Vahdat","lat":"38.5531","lng":"69.0197","country":"Tajikistan","iso2":"TJ","iso3":"TJK","admin_name":"Nohiyahoi Tobei Jumhurí","capital":"minor","population":"40600","id":"1762043986"},{"city":"Völklingen","city_ascii":"Volklingen","lat":"49.2500","lng":"6.8333","country":"Germany","iso2":"DE","iso3":"DEU","admin_name":"Saarland","capital":"","population":"39374","id":"1276052749"},{"city":"Villamontes","city_ascii":"Villamontes","lat":"-21.2647","lng":"-63.4586","country":"Bolivia","iso2":"BO","iso3":"BOL","admin_name":"Tarija","capital":"","population":"39800","id":"1068626988"},{"city":"Villa del Carbón","city_ascii":"Villa del Carbon","lat":"19.7272","lng":"-99.5417","country":"Mexico","iso2":"MX","iso3":"MEX","admin_name":"México","capital":"minor","population":"39587","id":"1484004677"},{"city":"Volodymyr-Volyns’kyy","city_ascii":"Volodymyr-Volyns'kyy","lat":"50.8481","lng":"24.3222","country":"Ukraine","iso2":"UA","iso3":"UKR","admin_name":"Volyns’ka Oblast’","capital":"minor","population":"38901","id":"1804155195"},{"city":"Vasyl’kiv","city_ascii":"Vasyl'kiv","lat":"50.1775","lng":"30.3217","country":"Ukraine","iso2":"UA","iso3":"UKR","admin_name":"Kyyivs’ka Oblast’","capital":"minor","population":"37696","id":"1804342314"},{"city":"Ventanas","city_ascii":"Ventanas","lat":"-1.4500","lng":"-79.4700","country":"Ecuador","iso2":"EC","iso3":"ECU","admin_name":"Los Ríos","capital":"","population":"38168","id":"1218067203"},{"city":"Valrico","city_ascii":"Valrico","lat":"27.9193","lng":"-82.2293","country":"United States","iso2":"US","iso3":"USA","admin_name":"Florida","capital":"","population":"38169","id":"1840028790"},{"city":"Vaudreuil-Dorion","city_ascii":"Vaudreuil-Dorion","lat":"45.4000","lng":"-74.0333","country":"Canada","iso2":"CA","iso3":"CAN","admin_name":"Quebec","capital":"","population":"38117","id":"1124618618"},{"city":"Visconde do Rio Branco","city_ascii":"Visconde do Rio Branco","lat":"-21.0103","lng":"-42.8406","country":"Brazil","iso2":"BR","iso3":"BRA","admin_name":"Minas Gerais","capital":"","population":"37942","id":"1076854756"},{"city":"Voi","city_ascii":"Voi","lat":"-3.3696","lng":"38.5700","country":"Kenya","iso2":"KE","iso3":"KEN","admin_name":"Taita/Taveta","capital":"","population":"36487","id":"1404504656"},{"city":"Virú","city_ascii":"Viru","lat":"-8.4143","lng":"-78.7524","country":"Peru","iso2":"PE","iso3":"PER","admin_name":"La Libertad","capital":"","population":"36029","id":"1604901046"},{"city":"Velasco Ibarra","city_ascii":"Velasco Ibarra","lat":"-1.0439","lng":"-79.6383","country":"Ecuador","iso2":"EC","iso3":"ECU","admin_name":"Guayas","capital":"","population":"35686","id":"1218000005"},{"city":"Vyazniki","city_ascii":"Vyazniki","lat":"56.2433","lng":"42.1292","country":"Russia","iso2":"RU","iso3":"RUS","admin_name":"Vladimirskaya Oblast’","capital":"","population":"35865","id":"1643016775"},{"city":"Vichuga","city_ascii":"Vichuga","lat":"57.2000","lng":"41.9167","country":"Russia","iso2":"RU","iso3":"RUS","admin_name":"Ivanovskaya Oblast’","capital":"","population":"34394","id":"1643107407"},{"city":"Villenave-d’Ornon","city_ascii":"Villenave-d'Ornon","lat":"44.7806","lng":"-0.5658","country":"France","iso2":"FR","iso3":"FRA","admin_name":"Nouvelle-Aquitaine","capital":"","population":"34090","id":"1250296432"},{"city":"Voznesens’k","city_ascii":"Voznesens'k","lat":"47.5725","lng":"31.3119","country":"Ukraine","iso2":"UA","iso3":"UKR","admin_name":"Mykolayivs’ka Oblast’","capital":"minor","population":"35243","id":"1804117559"},{"city":"Vibo Valentia","city_ascii":"Vibo Valentia","lat":"38.6666","lng":"16.1000","country":"Italy","iso2":"IT","iso3":"ITA","admin_name":"Calabria","capital":"minor","population":"33957","id":"1380359147"},{"city":"Vestavia Hills","city_ascii":"Vestavia Hills","lat":"33.4518","lng":"-86.7438","country":"United States","iso2":"US","iso3":"USA","admin_name":"Alabama","capital":"","population":"34413","id":"1840015673"},{"city":"Vitrolles","city_ascii":"Vitrolles","lat":"43.4600","lng":"5.2486","country":"France","iso2":"FR","iso3":"FRA","admin_name":"Provence-Alpes-Côte d’Azur","capital":"","population":"33310","id":"1250199358"},{"city":"Valuyki","city_ascii":"Valuyki","lat":"50.1833","lng":"38.1167","country":"Russia","iso2":"RU","iso3":"RUS","admin_name":"Belgorodskaya Oblast’","capital":"","population":"34193","id":"1643337970"},{"city":"Viernheim","city_ascii":"Viernheim","lat":"49.5380","lng":"8.5792","country":"Germany","iso2":"DE","iso3":"DEU","admin_name":"Hesse","capital":"","population":"34175","id":"1276924320"},{"city":"Victoria Falls","city_ascii":"Victoria Falls","lat":"-17.9333","lng":"25.8333","country":"Zimbabwe","iso2":"ZW","iso3":"ZWE","admin_name":"Matabeleland North","capital":"","population":"33060","id":"1716149447"},{"city":"Villena","city_ascii":"Villena","lat":"38.6350","lng":"-0.8658","country":"Spain","iso2":"ES","iso3":"ESP","admin_name":"Valencia","capital":"","population":"33964","id":"1724638080"},{"city":"Valparaiso","city_ascii":"Valparaiso","lat":"41.4782","lng":"-87.0507","country":"United States","iso2":"US","iso3":"USA","admin_name":"Indiana","capital":"","population":"33897","id":"1840014674"},{"city":"Vyatskiye Polyany","city_ascii":"Vyatskiye Polyany","lat":"56.2184","lng":"51.0686","country":"Russia","iso2":"RU","iso3":"RUS","admin_name":"Kirovskaya Oblast’","capital":"","population":"32562","id":"1643642329"},{"city":"Vác","city_ascii":"Vac","lat":"47.7753","lng":"19.1311","country":"Hungary","iso2":"HU","iso3":"HUN","admin_name":"Pest","capital":"minor","population":"32828","id":"1348810997"},{"city":"Vechta","city_ascii":"Vechta","lat":"52.7306","lng":"8.2886","country":"Germany","iso2":"DE","iso3":"DEU","admin_name":"Lower Saxony","capital":"minor","population":"32433","id":"1276147280"},{"city":"Val-d’Or","city_ascii":"Val-d'Or","lat":"48.1000","lng":"-77.7833","country":"Canada","iso2":"CA","iso3":"CAN","admin_name":"Quebec","capital":"","population":"31862","id":"1124239138"},{"city":"Velikiy Ustyug","city_ascii":"Velikiy Ustyug","lat":"60.7589","lng":"46.3039","country":"Russia","iso2":"RU","iso3":"RUS","admin_name":"Vologodskaya Oblast’","capital":"","population":"31806","id":"1643173653"},{"city":"Villarrica","city_ascii":"Villarrica","lat":"-39.2800","lng":"-72.2300","country":"Chile","iso2":"CL","iso3":"CHL","admin_name":"Araucanía","capital":"","population":"31602","id":"1152280288"},{"city":"Victoria","city_ascii":"Victoria","lat":"-32.6167","lng":"-60.1667","country":"Argentina","iso2":"AR","iso3":"ARG","admin_name":"Entre Ríos","capital":"minor","population":"30623","id":"1032557014"},{"city":"Villa Donato Guerra","city_ascii":"Villa Donato Guerra","lat":"19.3083","lng":"-100.1422","country":"Mexico","iso2":"MX","iso3":"MEX","admin_name":"México","capital":"minor","population":"29621","id":"1484701900"},{"city":"Vinces","city_ascii":"Vinces","lat":"-1.5500","lng":"-79.7333","country":"Ecuador","iso2":"EC","iso3":"ECU","admin_name":"Los Ríos","capital":"","population":"30241","id":"1218211679"},{"city":"Vienne","city_ascii":"Vienne","lat":"45.5242","lng":"4.8781","country":"France","iso2":"FR","iso3":"FRA","admin_name":"Auvergne-Rhône-Alpes","capital":"minor","population":"29306","id":"1250052124"},{"city":"Villa Ángela","city_ascii":"Villa Angela","lat":"-27.5833","lng":"-60.7167","country":"Argentina","iso2":"AR","iso3":"ARG","admin_name":"Chaco","capital":"minor","population":"30051","id":"1032039944"},{"city":"Villa Regina","city_ascii":"Villa Regina","lat":"-39.1000","lng":"-67.0667","country":"Argentina","iso2":"AR","iso3":"ARG","admin_name":"Río Negro","capital":"","population":"30028","id":"1032583314"},{"city":"Vaihingen an der Enz","city_ascii":"Vaihingen an der Enz","lat":"48.9328","lng":"8.9564","country":"Germany","iso2":"DE","iso3":"DEU","admin_name":"Baden-Württemberg","capital":"","population":"29467","id":"1276306973"},{"city":"Viacha","city_ascii":"Viacha","lat":"-16.6333","lng":"-68.2833","country":"Bolivia","iso2":"BO","iso3":"BOL","admin_name":"La Paz","capital":"","population":"29108","id":"1068833754"},{"city":"Voorhees","city_ascii":"Voorhees","lat":"39.8450","lng":"-74.9550","country":"United States","iso2":"US","iso3":"USA","admin_name":"New Jersey","capital":"","population":"29217","id":"1840081683"},{"city":"Vernon","city_ascii":"Vernon","lat":"41.8364","lng":"-72.4606","country":"United States","iso2":"US","iso3":"USA","admin_name":"Connecticut","capital":"","population":"29157","id":"1840035637"},{"city":"Vineyard","city_ascii":"Vineyard","lat":"38.4744","lng":"-121.3190","country":"United States","iso2":"US","iso3":"USA","admin_name":"California","capital":"","population":"28315","id":"1840018846"},{"city":"Villa Luvianos","city_ascii":"Villa Luvianos","lat":"18.9200","lng":"-100.2983","country":"Mexico","iso2":"MX","iso3":"MEX","admin_name":"México","capital":"minor","population":"28215","id":"1484500757"},{"city":"Vestal","city_ascii":"Vestal","lat":"42.0492","lng":"-76.0260","country":"United States","iso2":"US","iso3":"USA","admin_name":"New York","capital":"","population":"28162","id":"1840058562"},{"city":"Villazón","city_ascii":"Villazon","lat":"-22.0910","lng":"-65.5960","country":"Bolivia","iso2":"BO","iso3":"BOL","admin_name":"Potosí","capital":"","population":"28045","id":"1068163517"},{"city":"Vyshhorod","city_ascii":"Vyshhorod","lat":"50.5833","lng":"30.5000","country":"Ukraine","iso2":"UA","iso3":"UKR","admin_name":"Kyyivs’ka Oblast’","capital":"minor","population":"27825","id":"1804392856"},{"city":"Verkhniy Ufaley","city_ascii":"Verkhniy Ufaley","lat":"56.0500","lng":"60.2333","country":"Russia","iso2":"RU","iso3":"RUS","admin_name":"Chelyabinskaya Oblast’","capital":"","population":"27498","id":"1643894211"},{"city":"Vilyeyka","city_ascii":"Vilyeyka","lat":"54.4833","lng":"26.9167","country":"Belarus","iso2":"BY","iso3":"BLR","admin_name":"Minskaya Voblasts’","capital":"minor","population":"27400","id":"1112405572"},{"city":"Vernon Hills","city_ascii":"Vernon Hills","lat":"42.2340","lng":"-87.9608","country":"United States","iso2":"US","iso3":"USA","admin_name":"Illinois","capital":"","population":"26521","id":"1840011181"},{"city":"Vsetín","city_ascii":"Vsetin","lat":"49.3387","lng":"17.9962","country":"Czechia","iso2":"CZ","iso3":"CZE","admin_name":"Zlínský Kraj","capital":"","population":"25974","id":"1203549413"},{"city":"Vicksburg","city_ascii":"Vicksburg","lat":"32.3173","lng":"-90.8868","country":"United States","iso2":"US","iso3":"USA","admin_name":"Mississippi","capital":"","population":"26340","id":"1840015802"},{"city":"Vierzon","city_ascii":"Vierzon","lat":"47.2225","lng":"2.0694","country":"France","iso2":"FR","iso3":"FRA","admin_name":"Centre-Val de Loire","capital":"minor","population":"25903","id":"1250535432"},{"city":"Verl","city_ascii":"Verl","lat":"51.8831","lng":"8.5167","country":"Germany","iso2":"DE","iso3":"DEU","admin_name":"North Rhine-Westphalia","capital":"","population":"25498","id":"1276182306"},{"city":"Villanueva de la Serena","city_ascii":"Villanueva de la Serena","lat":"38.9739","lng":"-5.8003","country":"Spain","iso2":"ES","iso3":"ESP","admin_name":"Extremadura","capital":"","population":"25667","id":"1724363816"},{"city":"Velingrad","city_ascii":"Velingrad","lat":"42.0267","lng":"23.9910","country":"Bulgaria","iso2":"BG","iso3":"BGR","admin_name":"Pazardzhik","capital":"minor","population":"25764","id":"1100145292"},{"city":"Vynohradiv","city_ascii":"Vynohradiv","lat":"48.1397","lng":"23.0331","country":"Ukraine","iso2":"UA","iso3":"UKR","admin_name":"Zakarpats’ka Oblast’","capital":"minor","population":"25403","id":"1804673048"},{"city":"Villarrobledo","city_ascii":"Villarrobledo","lat":"39.2667","lng":"-2.6000","country":"Spain","iso2":"ES","iso3":"ESP","admin_name":"Castille-La Mancha","capital":"","population":"25184","id":"1724704168"},{"city":"Vertou","city_ascii":"Vertou","lat":"47.1689","lng":"-1.4697","country":"France","iso2":"FR","iso3":"FRA","admin_name":"Pays de la Loire","capital":"","population":"24219","id":"1250277528"},{"city":"Vizela","city_ascii":"Vizela","lat":"41.3833","lng":"-8.3000","country":"Portugal","iso2":"PT","iso3":"PRT","admin_name":"Porto","capital":"","population":"23736","id":"1620166206"},{"city":"Victoria","city_ascii":"Victoria","lat":"-38.2395","lng":"-72.3400","country":"Chile","iso2":"CL","iso3":"CHL","admin_name":"Araucanía","capital":"","population":"24555","id":"1152078114"},{"city":"Vernon","city_ascii":"Vernon","lat":"49.0900","lng":"1.4900","country":"France","iso2":"FR","iso3":"FRA","admin_name":"Normandie","capital":"","population":"23872","id":"1250890405"},{"city":"Varel","city_ascii":"Varel","lat":"53.3969","lng":"8.1361","country":"Germany","iso2":"DE","iso3":"DEU","admin_name":"Lower Saxony","capital":"","population":"24001","id":"1276834869"},{"city":"Vero Beach South","city_ascii":"Vero Beach South","lat":"27.6164","lng":"-80.4130","country":"United States","iso2":"US","iso3":"USA","admin_name":"Florida","capital":"","population":"24082","id":"1840073853"},{"city":"Ventimiglia","city_ascii":"Ventimiglia","lat":"43.7903","lng":"7.6083","country":"Italy","iso2":"IT","iso3":"ITA","admin_name":"Liguria","capital":"","population":"24065","id":"1380716377"},{"city":"Venice","city_ascii":"Venice","lat":"27.1163","lng":"-82.4135","country":"United States","iso2":"US","iso3":"USA","admin_name":"Florida","capital":"","population":"23985","id":"1840015989"},{"city":"Van Buren","city_ascii":"Van Buren","lat":"35.4480","lng":"-94.3528","country":"United States","iso2":"US","iso3":"USA","admin_name":"Arkansas","capital":"","population":"23683","id":"1840015397"},{"city":"Veinticinco de Mayo","city_ascii":"Veinticinco de Mayo","lat":"-35.4167","lng":"-60.1667","country":"Argentina","iso2":"AR","iso3":"ARG","admin_name":"Buenos Aires","capital":"minor","population":"23408","id":"1032801782"},{"city":"Vil’nohirs’k","city_ascii":"Vil'nohirs'k","lat":"48.4824","lng":"34.0189","country":"Ukraine","iso2":"UA","iso3":"UKR","admin_name":"Dnipropetrovs’ka Oblast’","capital":"","population":"23235","id":"1804164194"},{"city":"Vranov nad Topľou","city_ascii":"Vranov nad Topl'ou","lat":"48.8806","lng":"21.6731","country":"Slovakia","iso2":"SK","iso3":"SVK","admin_name":"Prešovský","capital":"minor","population":"22589","id":"1703513512"},{"city":"Vale de Cambra","city_ascii":"Vale de Cambra","lat":"40.8500","lng":"-8.4000","country":"Portugal","iso2":"PT","iso3":"PRT","admin_name":"Aveiro","capital":"minor","population":"22864","id":"1620033828"},{"city":"Valašské Meziříčí","city_ascii":"Valasske Mezirici","lat":"49.4718","lng":"17.9712","country":"Czechia","iso2":"CZ","iso3":"CZE","admin_name":"Zlínský Kraj","capital":"","population":"22306","id":"1203786401"},{"city":"Vega Baja","city_ascii":"Vega Baja","lat":"18.4410","lng":"-66.3993","country":"Puerto Rico","iso2":"PR","iso3":"PRI","admin_name":"Puerto Rico","capital":"","population":"22815","id":"1630023572"},{"city":"Vreden","city_ascii":"Vreden","lat":"52.0331","lng":"6.8331","country":"Germany","iso2":"DE","iso3":"DEU","admin_name":"North Rhine-Westphalia","capital":"","population":"22641","id":"1276296218"},{"city":"Vel’sk","city_ascii":"Vel'sk","lat":"61.0667","lng":"42.1000","country":"Russia","iso2":"RU","iso3":"RUS","admin_name":"Arkhangel’skaya Oblast’","capital":"","population":"22776","id":"1643373817"},{"city":"Vernon","city_ascii":"Vernon","lat":"41.1973","lng":"-74.4859","country":"United States","iso2":"US","iso3":"USA","admin_name":"New Jersey","capital":"","population":"22369","id":"1840081777"},{"city":"Villeneuve-sur-Lot","city_ascii":"Villeneuve-sur-Lot","lat":"44.4081","lng":"0.7050","country":"France","iso2":"FR","iso3":"FRA","admin_name":"Nouvelle-Aquitaine","capital":"minor","population":"22064","id":"1250450976"},{"city":"Vänersborg","city_ascii":"Vanersborg","lat":"58.3630","lng":"12.3300","country":"Sweden","iso2":"SE","iso3":"SWE","admin_name":"Västra Götaland","capital":"minor","population":"21835","id":"1752467593"},{"city":"Vilyuchinsk","city_ascii":"Vilyuchinsk","lat":"52.9333","lng":"158.4000","country":"Russia","iso2":"RU","iso3":"RUS","admin_name":"Kamchatskiy Kray","capital":"","population":"21973","id":"1643675061"},{"city":"Vereshchagino","city_ascii":"Vereshchagino","lat":"58.0667","lng":"54.6500","country":"Russia","iso2":"RU","iso3":"RUS","admin_name":"Permskiy Kray","capital":"","population":"21969","id":"1643676991"},{"city":"Versmold","city_ascii":"Versmold","lat":"52.0436","lng":"8.1500","country":"Germany","iso2":"DE","iso3":"DEU","admin_name":"North Rhine-Westphalia","capital":"","population":"21468","id":"1276482608"},{"city":"Vecsés","city_ascii":"Vecses","lat":"47.4108","lng":"19.2722","country":"Hungary","iso2":"HU","iso3":"HUN","admin_name":"Pest","capital":"minor","population":"20935","id":"1348714695"},{"city":"Villa Park","city_ascii":"Villa Park","lat":"41.8864","lng":"-87.9779","country":"United States","iso2":"US","iso3":"USA","admin_name":"Illinois","capital":"","population":"21483","id":"1840011412"},{"city":"Valkeakoski","city_ascii":"Valkeakoski","lat":"61.2667","lng":"24.0306","country":"Finland","iso2":"FI","iso3":"FIN","admin_name":"Pirkanmaa","capital":"minor","population":"21332","id":"1246028934"},{"city":"Varadero","city_ascii":"Varadero","lat":"23.1394","lng":"-81.2861","country":"Cuba","iso2":"CU","iso3":"CUB","admin_name":"Matanzas","capital":"","population":"21170","id":"1192203270"},{"city":"Vyškov","city_ascii":"Vyskov","lat":"49.2775","lng":"16.9990","country":"Czechia","iso2":"CZ","iso3":"CZE","admin_name":"Jihomoravský Kraj","capital":"","population":"20807","id":"1203012353"},{"city":"Varkaus","city_ascii":"Varkaus","lat":"62.3167","lng":"27.8833","country":"Finland","iso2":"FI","iso3":"FIN","admin_name":"Pohjois-Savo","capital":"minor","population":"21155","id":"1246449573"},{"city":"Vikhorevka","city_ascii":"Vikhorevka","lat":"56.1167","lng":"101.1667","country":"Russia","iso2":"RU","iso3":"RUS","admin_name":"Irkutskaya Oblast’","capital":"","population":"21118","id":"1643023865"},{"city":"Voiron","city_ascii":"Voiron","lat":"45.3642","lng":"5.5906","country":"France","iso2":"FR","iso3":"FRA","admin_name":"Auvergne-Rhône-Alpes","capital":"","population":"20108","id":"1250058509"},{"city":"Varennes","city_ascii":"Varennes","lat":"45.6833","lng":"-73.4333","country":"Canada","iso2":"CA","iso3":"CAN","admin_name":"Quebec","capital":"","population":"20994","id":"1124232101"},{"city":"Viesca","city_ascii":"Viesca","lat":"25.3500","lng":"-102.8000","country":"Mexico","iso2":"MX","iso3":"MEX","admin_name":"Coahuila de Zaragoza","capital":"minor","population":"19328","id":"1484294846"},{"city":"Volketswil","city_ascii":"Volketswil","lat":"47.3906","lng":"8.6953","country":"Switzerland","iso2":"CH","iso3":"CHE","admin_name":"Zürich","capital":"","population":"18615","id":"1756554999"},{"city":"Valley","city_ascii":"Valley","lat":"32.8088","lng":"-85.1809","country":"United States","iso2":"US","iso3":"USA","admin_name":"Alabama","capital":"","population":"19926","id":"1840015760"},{"city":"Vernal","city_ascii":"Vernal","lat":"40.4517","lng":"-109.5379","country":"United States","iso2":"US","iso3":"USA","admin_name":"Utah","capital":"","population":"19893","id":"1840021391"},{"city":"Volokolamsk","city_ascii":"Volokolamsk","lat":"56.0333","lng":"35.9500","country":"Russia","iso2":"RU","iso3":"RUS","admin_name":"Moskovskaya Oblast’","capital":"","population":"19824","id":"1643346099"},{"city":"Várpalota","city_ascii":"Varpalota","lat":"47.1972","lng":"18.1394","country":"Hungary","iso2":"HU","iso3":"HUN","admin_name":"Veszprém","capital":"minor","population":"19484","id":"1348052599"},{"city":"Vincennes","city_ascii":"Vincennes","lat":"38.6760","lng":"-87.5102","country":"United States","iso2":"US","iso3":"USA","admin_name":"Indiana","capital":"","population":"19498","id":"1840010730"},{"city":"Vila Real de Santo António","city_ascii":"Vila Real de Santo Antonio","lat":"37.2000","lng":"-7.4167","country":"Portugal","iso2":"PT","iso3":"PRT","admin_name":"Faro","capital":"minor","population":"19156","id":"1620662816"},{"city":"Vellmar","city_ascii":"Vellmar","lat":"51.3588","lng":"9.4677","country":"Germany","iso2":"DE","iso3":"DEU","admin_name":"Hesse","capital":"","population":"18134","id":"1276293369"},{"city":"Veresegyház","city_ascii":"Veresegyhaz","lat":"47.6569","lng":"19.2847","country":"Hungary","iso2":"HU","iso3":"HUN","admin_name":"Pest","capital":"","population":"18654","id":"1348362703"},{"city":"Victoria","city_ascii":"Victoria","lat":"21.2122","lng":"-100.2144","country":"Mexico","iso2":"MX","iso3":"MEX","admin_name":"Guanajuato","capital":"minor","population":"17764","id":"1484434699"},{"city":"Vovchansk","city_ascii":"Vovchansk","lat":"50.2881","lng":"36.9461","country":"Ukraine","iso2":"UA","iso3":"UKR","admin_name":"Kharkivs’ka Oblast’","capital":"minor","population":"18644","id":"1804820380"},{"city":"Vlotho","city_ascii":"Vlotho","lat":"52.1667","lng":"8.8497","country":"Germany","iso2":"DE","iso3":"DEU","admin_name":"North Rhine-Westphalia","capital":"","population":"18429","id":"1276438597"},{"city":"Vanino","city_ascii":"Vanino","lat":"49.0873","lng":"140.2425","country":"Russia","iso2":"RU","iso3":"RUS","admin_name":"Khabarovskiy Kray","capital":"","population":"18618","id":"1643490098"},{"city":"Vero Beach","city_ascii":"Vero Beach","lat":"27.6463","lng":"-80.3930","country":"United States","iso2":"US","iso3":"USA","admin_name":"Florida","capital":"","population":"17503","id":"1840015985"},{"city":"Volgorechensk","city_ascii":"Volgorechensk","lat":"57.4333","lng":"41.1667","country":"Russia","iso2":"RU","iso3":"RUS","admin_name":"Kostromskaya Oblast’","capital":"","population":"16539","id":"1643892465"},{"city":"Veinticinco de Mayo","city_ascii":"Veinticinco de Mayo","lat":"-37.8000","lng":"-67.6833","country":"Argentina","iso2":"AR","iso3":"ARG","admin_name":"La Pampa","capital":"minor","population":"17430","id":"1032912712"},{"city":"Versailles","city_ascii":"Versailles","lat":"38.0487","lng":"-84.7259","country":"United States","iso2":"US","iso3":"USA","admin_name":"Kentucky","capital":"","population":"17298","id":"1840015212"},{"city":"Valencia","city_ascii":"Valencia","lat":"-0.9525","lng":"-79.3531","country":"Ecuador","iso2":"EC","iso3":"ECU","admin_name":"Los Ríos","capital":"","population":"16983","id":"1218923469"},{"city":"Vatutine","city_ascii":"Vatutine","lat":"49.0167","lng":"31.0667","country":"Ukraine","iso2":"UA","iso3":"UKR","admin_name":"Cherkas’ka Oblast’","capital":"","population":"16888","id":"1804033648"},{"city":"Valle Vista","city_ascii":"Valle Vista","lat":"33.7436","lng":"-116.8872","country":"United States","iso2":"US","iso3":"USA","admin_name":"California","capital":"","population":"16879","id":"1840019292"},{"city":"Vallegrande","city_ascii":"Vallegrande","lat":"-18.4894","lng":"-64.1083","country":"Bolivia","iso2":"BO","iso3":"BOL","admin_name":"Santa Cruz","capital":"","population":"16837","id":"1068162149"},{"city":"Vienna","city_ascii":"Vienna","lat":"38.8996","lng":"-77.2597","country":"United States","iso2":"US","iso3":"USA","admin_name":"Virginia","capital":"","population":"16485","id":"1840003829"},{"city":"Verkhivtseve","city_ascii":"Verkhivtseve","lat":"48.4812","lng":"34.2488","country":"Ukraine","iso2":"UA","iso3":"UKR","admin_name":"Dnipropetrovs’ka Oblast’","capital":"","population":"16364","id":"1804209032"},{"city":"Villa Rica","city_ascii":"Villa Rica","lat":"33.7305","lng":"-84.9170","country":"United States","iso2":"US","iso3":"USA","admin_name":"Georgia","capital":"","population":"16058","id":"1840015679"},{"city":"Vinnichki","city_ascii":"Vinnichki","lat":"49.8156","lng":"24.1297","country":"Ukraine","iso2":"UA","iso3":"UKR","admin_name":"L’vivs’ka Oblast’","capital":"","population":"15723","id":"1804573396"},{"city":"Varnsdorf","city_ascii":"Varnsdorf","lat":"50.9116","lng":"14.6184","country":"Czechia","iso2":"CZ","iso3":"CZE","admin_name":"Liberecký Kraj","capital":"","population":"15193","id":"1203159316"},{"city":"Vil’nyans’k","city_ascii":"Vil'nyans'k","lat":"47.9445","lng":"35.4331","country":"Ukraine","iso2":"UA","iso3":"UKR","admin_name":"Zaporiz’ka Oblast’","capital":"minor","population":"15044","id":"1804823848"},{"city":"Vişeu de Sus","city_ascii":"Viseu de Sus","lat":"47.7111","lng":"24.4264","country":"Romania","iso2":"RO","iso3":"ROU","admin_name":"Maramureş","capital":"","population":"15037","id":"1642452297"},{"city":"Vandalia","city_ascii":"Vandalia","lat":"39.8790","lng":"-84.1930","country":"United States","iso2":"US","iso3":"USA","admin_name":"Ohio","capital":"","population":"14997","id":"1840003786"},{"city":"Vrbovec","city_ascii":"Vrbovec","lat":"45.8833","lng":"16.4333","country":"Croatia","iso2":"HR","iso3":"HRV","admin_name":"Zagrebačka Županija","capital":"minor","population":"14797","id":"1191484288"},{"city":"Victor","city_ascii":"Victor","lat":"42.9894","lng":"-77.4277","country":"United States","iso2":"US","iso3":"USA","admin_name":"New York","capital":"","population":"14790","id":"1840004414"},{"city":"Versoix","city_ascii":"Versoix","lat":"46.2833","lng":"6.1667","country":"Switzerland","iso2":"CH","iso3":"CHE","admin_name":"Genève","capital":"","population":"13422","id":"1756526224"},{"city":"Villa Yapacaní","city_ascii":"Villa Yapacani","lat":"-17.4028","lng":"-63.8850","country":"Bolivia","iso2":"BO","iso3":"BOL","admin_name":"Santa Cruz","capital":"","population":"14589","id":"1068932083"},{"city":"Valday","city_ascii":"Valday","lat":"57.9667","lng":"33.2500","country":"Russia","iso2":"RU","iso3":"RUS","admin_name":"Novgorodskaya Oblast’","capital":"","population":"14379","id":"1643697222"},{"city":"Vinto","city_ascii":"Vinto","lat":"-17.3972","lng":"-66.3136","country":"Bolivia","iso2":"BO","iso3":"BOL","admin_name":"Cochabamba","capital":"","population":"14180","id":"1068969654"},{"city":"Venëv","city_ascii":"Venev","lat":"54.3500","lng":"38.2667","country":"Russia","iso2":"RU","iso3":"RUS","admin_name":"Tul’skaya Oblast’","capital":"","population":"14211","id":"1643092677"},{"city":"Vöhringen","city_ascii":"Vohringen","lat":"48.2833","lng":"10.0833","country":"Germany","iso2":"DE","iso3":"DEU","admin_name":"Bavaria","capital":"","population":"13557","id":"1276392768"},{"city":"Vicovu de Sus","city_ascii":"Vicovu de Sus","lat":"47.9258","lng":"25.6800","country":"Romania","iso2":"RO","iso3":"ROU","admin_name":"Suceava","capital":"","population":"13308","id":"1642275762"},{"city":"Vadnais Heights","city_ascii":"Vadnais Heights","lat":"45.0570","lng":"-93.0748","country":"United States","iso2":"US","iso3":"USA","admin_name":"Minnesota","capital":"","population":"13607","id":"1840010004"},{"city":"Vicuña","city_ascii":"Vicuna","lat":"-30.0295","lng":"-70.7400","country":"Chile","iso2":"CL","iso3":"CHL","admin_name":"Coquimbo","capital":"","population":"13496","id":"1152771899"},{"city":"Verona","city_ascii":"Verona","lat":"40.8323","lng":"-74.2430","country":"United States","iso2":"US","iso3":"USA","admin_name":"New Jersey","capital":"","population":"13413","id":"1840131594"},{"city":"Vidalia","city_ascii":"Vidalia","lat":"32.2125","lng":"-82.4019","country":"United States","iso2":"US","iso3":"USA","admin_name":"Georgia","capital":"","population":"13350","id":"1840015820"},{"city":"Van Buren","city_ascii":"Van Buren","lat":"43.1211","lng":"-76.3591","country":"United States","iso2":"US","iso3":"USA","admin_name":"New York","capital":"","population":"13328","id":"1840058558"},{"city":"Velen","city_ascii":"Velen","lat":"51.8939","lng":"6.9897","country":"Germany","iso2":"DE","iso3":"DEU","admin_name":"North Rhine-Westphalia","capital":"","population":"13130","id":"1276638227"},{"city":"Verona","city_ascii":"Verona","lat":"42.9893","lng":"-89.5383","country":"United States","iso2":"US","iso3":"USA","admin_name":"Wisconsin","capital":"","population":"13233","id":"1840002903"},{"city":"Vila Pouca de Aguiar","city_ascii":"Vila Pouca de Aguiar","lat":"41.4833","lng":"-7.6333","country":"Portugal","iso2":"PT","iso3":"PRT","admin_name":"Vila Real","capital":"minor","population":"13187","id":"1620331126"},{"city":"Vasylivka","city_ascii":"Vasylivka","lat":"47.4344","lng":"35.2808","country":"Ukraine","iso2":"UA","iso3":"UKR","admin_name":"Zaporiz’ka Oblast’","capital":"minor","population":"13166","id":"1804609243"},{"city":"Vinings","city_ascii":"Vinings","lat":"33.8608","lng":"-84.4686","country":"United States","iso2":"US","iso3":"USA","admin_name":"Georgia","capital":"","population":"13086","id":"1840013687"},{"city":"Vieira do Minho","city_ascii":"Vieira do Minho","lat":"41.6333","lng":"-8.1333","country":"Portugal","iso2":"PT","iso3":"PRT","admin_name":"Braga","capital":"minor","population":"12997","id":"1620164873"},{"city":"Vöcklabruck","city_ascii":"Vocklabruck","lat":"48.0086","lng":"13.6558","country":"Austria","iso2":"AT","iso3":"AUT","admin_name":"Oberösterreich","capital":"minor","population":"12179","id":"1040721177"},{"city":"Veľký Krtíš","city_ascii":"Vel'ky Krtis","lat":"48.2150","lng":"19.3381","country":"Slovakia","iso2":"SK","iso3":"SVK","admin_name":"Banskobystrický","capital":"minor","population":"12115","id":"1703541479"},{"city":"Vyazemskiy","city_ascii":"Vyazemskiy","lat":"47.5333","lng":"134.7500","country":"Russia","iso2":"RU","iso3":"RUS","admin_name":"Khabarovskiy Kray","capital":"","population":"12889","id":"1643608053"},{"city":"Vrchlabí","city_ascii":"Vrchlabi","lat":"50.6270","lng":"15.6095","country":"Czechia","iso2":"CZ","iso3":"CZE","admin_name":"Královéhradecký Kraj","capital":"","population":"12340","id":"1203953730"},{"city":"Vakhrusheve","city_ascii":"Vakhrusheve","lat":"48.1606","lng":"38.8389","country":"Ukraine","iso2":"UA","iso3":"UKR","admin_name":"Luhans’ka Oblast’","capital":"","population":"12197","id":"1804986291"},{"city":"Vysoké Mýto","city_ascii":"Vysoke Myto","lat":"49.9532","lng":"16.1618","country":"Czechia","iso2":"CZ","iso3":"CZE","admin_name":"Pardubický Kraj","capital":"","population":"12288","id":"1203435938"},{"city":"Velten","city_ascii":"Velten","lat":"52.6833","lng":"13.1833","country":"Germany","iso2":"DE","iso3":"DEU","admin_name":"Brandenburg","capital":"","population":"11965","id":"1276342323"},{"city":"Verde Village","city_ascii":"Verde Village","lat":"34.7122","lng":"-111.9943","country":"United States","iso2":"US","iso3":"USA","admin_name":"Arizona","capital":"","population":"12473","id":"1840017843"},{"city":"Vardenis","city_ascii":"Vardenis","lat":"40.1800","lng":"45.7200","country":"Armenia","iso2":"AM","iso3":"ARM","admin_name":"Geghark’unik’","capital":"","population":"12363","id":"1051776950"},{"city":"Vobkent Shahri","city_ascii":"Vobkent Shahri","lat":"40.0233","lng":"64.5139","country":"Uzbekistan","iso2":"UZ","iso3":"UZB","admin_name":"Buxoro","capital":"minor","population":"12351","id":"1860136901"},{"city":"Virginia","city_ascii":"Virginia","lat":"47.5169","lng":"-92.5128","country":"United States","iso2":"US","iso3":"USA","admin_name":"Minnesota","capital":"","population":"12381","id":"1840009954"},{"city":"Velddrif","city_ascii":"Velddrif","lat":"-32.7667","lng":"18.1667","country":"South Africa","iso2":"ZA","iso3":"ZAF","admin_name":"Western Cape","capital":"","population":"11017","id":"1710031295"},{"city":"Vulcăneşti","city_ascii":"Vulcanesti","lat":"45.6842","lng":"28.4028","country":"Moldova","iso2":"MD","iso3":"MDA","admin_name":"Găgăuzia","capital":"","population":"12185","id":"1498275011"},{"city":"Vilsbiburg","city_ascii":"Vilsbiburg","lat":"48.4475","lng":"12.3475","country":"Germany","iso2":"DE","iso3":"DEU","admin_name":"Bavaria","capital":"","population":"12074","id":"1276843205"},{"city":"Vălenii de Munte","city_ascii":"Valenii de Munte","lat":"45.1856","lng":"26.0397","country":"Romania","iso2":"RO","iso3":"ROU","admin_name":"Prahova","capital":"","population":"11707","id":"1642303389"},{"city":"Vail","city_ascii":"Vail","lat":"32.0217","lng":"-110.6937","country":"United States","iso2":"US","iso3":"USA","admin_name":"Arizona","capital":"","population":"12044","id":"1840019487"},{"city":"Villas","city_ascii":"Villas","lat":"26.5504","lng":"-81.8679","country":"United States","iso2":"US","iso3":"USA","admin_name":"Florida","capital":"","population":"12036","id":"1840029092"},{"city":"Volosovo","city_ascii":"Volosovo","lat":"59.4500","lng":"29.4833","country":"Russia","iso2":"RU","iso3":"RUS","admin_name":"Leningradskaya Oblast’","capital":"minor","population":"11987","id":"1643898126"},{"city":"Valencia West","city_ascii":"Valencia West","lat":"32.1355","lng":"-111.1123","country":"United States","iso2":"US","iso3":"USA","admin_name":"Arizona","capital":"","population":"11919","id":"1840074666"},{"city":"Veurne","city_ascii":"Veurne","lat":"51.0722","lng":"2.6622","country":"Belgium","iso2":"BE","iso3":"BEL","admin_name":"Flanders","capital":"minor","population":"11790","id":"1056727573"},{"city":"Vendas Novas","city_ascii":"Vendas Novas","lat":"38.6833","lng":"-8.4500","country":"Portugal","iso2":"PT","iso3":"PRT","admin_name":"Évora","capital":"minor","population":"11846","id":"1620891430"},{"city":"Vineyard","city_ascii":"Vineyard","lat":"40.3059","lng":"-111.7545","country":"United States","iso2":"US","iso3":"USA","admin_name":"Utah","capital":"","population":"11866","id":"1840022419"},{"city":"Vlašim","city_ascii":"Vlasim","lat":"49.7064","lng":"14.8989","country":"Czechia","iso2":"CZ","iso3":"CZE","admin_name":"Středočeský Kraj","capital":"","population":"11550","id":"1203658512"},{"city":"Valley Falls","city_ascii":"Valley Falls","lat":"41.9234","lng":"-71.3923","country":"United States","iso2":"US","iso3":"USA","admin_name":"Rhode Island","capital":"","population":"11828","id":"1840003295"},{"city":"Velké Meziříčí","city_ascii":"Velke Mezirici","lat":"49.3553","lng":"16.0123","country":"Czechia","iso2":"CZ","iso3":"CZE","admin_name":"Vysočina","capital":"","population":"11498","id":"1203943102"},{"city":"Varzaneh","city_ascii":"Varzaneh","lat":"32.4194","lng":"52.6481","country":"Iran","iso2":"IR","iso3":"IRN","admin_name":"Eşfahān","capital":"","population":"11506","id":"1364732883"},{"city":"Videle","city_ascii":"Videle","lat":"44.2833","lng":"25.5333","country":"Romania","iso2":"RO","iso3":"ROU","admin_name":"Teleorman","capital":"","population":"11508","id":"1642959308"},{"city":"Val-des-Monts","city_ascii":"Val-des-Monts","lat":"45.6500","lng":"-75.6667","country":"Canada","iso2":"CA","iso3":"CAN","admin_name":"Quebec","capital":"","population":"11582","id":"1124001051"},{"city":"Valdez","city_ascii":"Valdez","lat":"1.2671","lng":"-78.9855","country":"Ecuador","iso2":"EC","iso3":"ECU","admin_name":"Esmeraldas","capital":"","population":"11441","id":"1218064465"},{"city":"Veselí nad Moravou","city_ascii":"Veseli nad Moravou","lat":"48.9536","lng":"17.3765","country":"Czechia","iso2":"CZ","iso3":"CZE","admin_name":"Jihomoravský Kraj","capital":"","population":"10889","id":"1203951522"},{"city":"Viera East","city_ascii":"Viera East","lat":"28.2610","lng":"-80.7150","country":"United States","iso2":"US","iso3":"USA","admin_name":"Florida","capital":"","population":"11183","id":"1840039118"},{"city":"Vorë","city_ascii":"Vore","lat":"41.3939","lng":"19.6544","country":"Albania","iso2":"AL","iso3":"ALB","admin_name":"Tiranë","capital":"","population":"10901","id":"1008893438"},{"city":"Viera West","city_ascii":"Viera West","lat":"28.2430","lng":"-80.7368","country":"United States","iso2":"US","iso3":"USA","admin_name":"Florida","capital":"","population":"11116","id":"1840039133"},{"city":"Vilyuysk","city_ascii":"Vilyuysk","lat":"63.7500","lng":"121.6167","country":"Russia","iso2":"RU","iso3":"RUS","admin_name":"Sakha (Yakutiya)","capital":"","population":"11095","id":"1643430483"},{"city":"Völkermarkt","city_ascii":"Volkermarkt","lat":"46.6622","lng":"14.6344","country":"Austria","iso2":"AT","iso3":"AUT","admin_name":"Kärnten","capital":"minor","population":"10946","id":"1040264683"},{"city":"Verkhniy Tagil","city_ascii":"Verkhniy Tagil","lat":"57.3833","lng":"59.9333","country":"Russia","iso2":"RU","iso3":"RUS","admin_name":"Sverdlovskaya Oblast’","capital":"","population":"10962","id":"1643392209"},{"city":"Vermillion","city_ascii":"Vermillion","lat":"42.7811","lng":"-96.9255","country":"United States","iso2":"US","iso3":"USA","admin_name":"South Dakota","capital":"","population":"10844","id":"1840003082"},{"city":"Villiersdorp","city_ascii":"Villiersdorp","lat":"-33.9833","lng":"19.2833","country":"South Africa","iso2":"ZA","iso3":"ZAF","admin_name":"Western Cape","capital":"","population":"10004","id":"1710014567"},{"city":"Vladimirescu","city_ascii":"Vladimirescu","lat":"46.1674","lng":"21.4616","country":"Romania","iso2":"RO","iso3":"ROU","admin_name":"Arad","capital":"","population":"10710","id":"1642446879"},{"city":"Vysokovsk","city_ascii":"Vysokovsk","lat":"56.3167","lng":"36.5500","country":"Russia","iso2":"RU","iso3":"RUS","admin_name":"Moskovskaya Oblast’","capital":"","population":"10586","id":"1643011226"},{"city":"Vorsma","city_ascii":"Vorsma","lat":"55.9833","lng":"43.2667","country":"Russia","iso2":"RU","iso3":"RUS","admin_name":"Nizhegorodskaya Oblast’","capital":"","population":"10491","id":"1643536345"},{"city":"Van Wert","city_ascii":"Van Wert","lat":"40.8650","lng":"-84.5879","country":"United States","iso2":"US","iso3":"USA","admin_name":"Ohio","capital":"","population":"10579","id":"1840010350"},{"city":"View Royal","city_ascii":"View Royal","lat":"48.4517","lng":"-123.4339","country":"Canada","iso2":"CA","iso3":"CAN","admin_name":"British Columbia","capital":"","population":"10408","id":"1124001985"},{"city":"Vidor","city_ascii":"Vidor","lat":"30.1291","lng":"-93.9967","country":"United States","iso2":"US","iso3":"USA","admin_name":"Texas","capital":"","population":"10403","id":"1840022193"},{"city":"Vermilion","city_ascii":"Vermilion","lat":"41.4103","lng":"-82.3214","country":"United States","iso2":"US","iso3":"USA","admin_name":"Ohio","capital":"","population":"10394","id":"1840010234"},{"city":"Verkhn’odniprovs’k","city_ascii":"Verkhn'odniprovs'k","lat":"48.6561","lng":"34.3283","country":"Ukraine","iso2":"UA","iso3":"UKR","admin_name":"Dnipropetrovs’ka Oblast’","capital":"minor","population":"10314","id":"1804265302"},{"city":"Vytegra","city_ascii":"Vytegra","lat":"61.0000","lng":"36.4500","country":"Russia","iso2":"RU","iso3":"RUS","admin_name":"Vologodskaya Oblast’","capital":"","population":"10324","id":"1643014673"},{"city":"Victoria","city_ascii":"Victoria","lat":"44.8634","lng":"-93.6586","country":"United States","iso2":"US","iso3":"USA","admin_name":"Minnesota","capital":"","population":"10206","id":"1840010007"},{"city":"Vienna","city_ascii":"Vienna","lat":"39.3240","lng":"-81.5383","country":"United States","iso2":"US","iso3":"USA","admin_name":"West Virginia","capital":"","population":"10124","id":"1840005787"},{"city":"Valea lui Mihai","city_ascii":"Valea lui Mihai","lat":"47.5200","lng":"22.1300","country":"Romania","iso2":"RO","iso3":"ROU","admin_name":"Bihor","capital":"","population":"9902","id":"1642733254"},{"city":"Vashon","city_ascii":"Vashon","lat":"47.4122","lng":"-122.4726","country":"United States","iso2":"US","iso3":"USA","admin_name":"Washington","capital":"","population":"10036","id":"1840018414"},{"city":"Volodarsk","city_ascii":"Volodarsk","lat":"56.2333","lng":"43.2000","country":"Russia","iso2":"RU","iso3":"RUS","admin_name":"Nizhegorodskaya Oblast’","capital":"","population":"9972","id":"1643851131"},{"city":"Vuktyl","city_ascii":"Vuktyl","lat":"63.8667","lng":"57.3167","country":"Russia","iso2":"RU","iso3":"RUS","admin_name":"Komi","capital":"","population":"10017","id":"1643046290"},{"city":"Vera","city_ascii":"Vera","lat":"-29.4662","lng":"-60.2166","country":"Argentina","iso2":"AR","iso3":"ARG","admin_name":"Santa Fe","capital":"minor","population":"9979","id":"1032305174"},{"city":"Vernon","city_ascii":"Vernon","lat":"34.1480","lng":"-99.3000","country":"United States","iso2":"US","iso3":"USA","admin_name":"Texas","capital":"","population":"9919","id":"1840021912"},{"city":"Ventnor City","city_ascii":"Ventnor City","lat":"39.3457","lng":"-74.4860","country":"United States","iso2":"US","iso3":"USA","admin_name":"New Jersey","capital":"","population":"9895","id":"1840001539"},