[{"city":"Xi’an","city_ascii":"Xi'an","lat":"34.2667","lng":"108.9000","country":"China","iso2":"CN","iso3":"CHN","admin_name":"Shaanxi","capital":"admin","population":"7135000","id":"1156244079"},{"city":"Xinyang","city_ascii":"Xinyang","lat":"32.1264","lng":"114.0672","country":"China","iso2":"CN","iso3":"CHN","admin_name":"Henan","capital":"","population":"6634000","id":"1156273453"},{"city":"Xiangyang","city_ascii":"Xiangyang","lat":"32.0654","lng":"112.1531","country":"China","iso2":"CN","iso3":"CHN","admin_name":"Hubei","capital":"minor","population":"5844000","id":"1156107325"},{"city":"Xianyang","city_ascii":"Xianyang","lat":"34.3500","lng":"108.7167","country":"China","iso2":"CN","iso3":"CHN","admin_name":"Shaanxi","capital":"minor","population":"5040000","id":"1156120117"},{"city":"Xinpu","city_ascii":"Xinpu","lat":"34.5906","lng":"119.1801","country":"China","iso2":"CN","iso3":"CHN","admin_name":"Jiangsu","capital":"minor","population":"4790000","id":"1156035381"},{"city":"Xiaoganzhan","city_ascii":"Xiaoganzhan","lat":"30.9273","lng":"113.9110","country":"China","iso2":"CN","iso3":"CHN","admin_name":"Hubei","capital":"","population":"4665000","id":"1156002290"},{"city":"Xiaoxita","city_ascii":"Xiaoxita","lat":"30.7083","lng":"111.2803","country":"China","iso2":"CN","iso3":"CHN","admin_name":"Hubei","capital":"minor","population":"4115000","id":"1156764447"},{"city":"Xiamen","city_ascii":"Xiamen","lat":"24.4797","lng":"118.0819","country":"China","iso2":"CN","iso3":"CHN","admin_name":"Fujian","capital":"minor","population":"4110000","id":"1156212809"},{"city":"Xinzhou","city_ascii":"Xinzhou","lat":"38.4178","lng":"112.7233","country":"China","iso2":"CN","iso3":"CHN","admin_name":"Shanxi","capital":"minor","population":"3067501","id":"1156617534"},{"city":"Xiangtan","city_ascii":"Xiangtan","lat":"27.8431","lng":"112.9228","country":"China","iso2":"CN","iso3":"CHN","admin_name":"Hunan","capital":"","population":"2748552","id":"1156195684"},{"city":"Xuanzhou","city_ascii":"Xuanzhou","lat":"30.9475","lng":"118.7518","country":"China","iso2":"CN","iso3":"CHN","admin_name":"Anhui","capital":"","population":"2580000","id":"1156424311"},{"city":"Xining","city_ascii":"Xining","lat":"36.6239","lng":"101.7787","country":"China","iso2":"CN","iso3":"CHN","admin_name":"Qinghai","capital":"admin","population":"2154000","id":"1156081448"},{"city":"Xiping","city_ascii":"Xiping","lat":"40.0800","lng":"113.3000","country":"China","iso2":"CN","iso3":"CHN","admin_name":"Shanxi","capital":"minor","population":"1873000","id":"1156898522"},{"city":"Ximeicun","city_ascii":"Ximeicun","lat":"24.9633","lng":"118.3811","country":"China","iso2":"CN","iso3":"CHN","admin_name":"Fujian","capital":"","population":"1508000","id":"1156173813"},{"city":"Xushan","city_ascii":"Xushan","lat":"30.1697","lng":"121.2665","country":"China","iso2":"CN","iso3":"CHN","admin_name":"Zhejiang","capital":"minor","population":"1502000","id":"1156046916"},{"city":"Xintai","city_ascii":"Xintai","lat":"35.9100","lng":"117.7800","country":"China","iso2":"CN","iso3":"CHN","admin_name":"Shandong","capital":"","population":"1315942","id":"1156761230"},{"city":"Xinyu","city_ascii":"Xinyu","lat":"27.7950","lng":"114.9242","country":"China","iso2":"CN","iso3":"CHN","admin_name":"Jiangxi","capital":"minor","population":"1186700","id":"1156138735"},{"city":"Xiantao","city_ascii":"Xiantao","lat":"30.3833","lng":"113.4000","country":"China","iso2":"CN","iso3":"CHN","admin_name":"Hubei","capital":"","population":"1175085","id":"1156216927"},{"city":"Xishan","city_ascii":"Xishan","lat":"27.6609","lng":"113.4946","country":"China","iso2":"CN","iso3":"CHN","admin_name":"Hunan","capital":"minor","population":"1060000","id":"1156155575"},{"city":"Xingcheng","city_ascii":"Xingcheng","lat":"24.1681","lng":"115.6669","country":"China","iso2":"CN","iso3":"CHN","admin_name":"Guangdong","capital":"minor","population":"993000","id":"1156913008"},{"city":"Xibeijie","city_ascii":"Xibeijie","lat":"39.7370","lng":"98.5049","country":"China","iso2":"CN","iso3":"CHN","admin_name":"Gansu","capital":"minor","population":"977600","id":"1156960560"},{"city":"Xin’an","city_ascii":"Xin'an","lat":"34.3662","lng":"118.3369","country":"China","iso2":"CN","iso3":"CHN","admin_name":"Jiangsu","capital":"","population":"920628","id":"1156236053"},{"city":"Xinyi","city_ascii":"Xinyi","lat":"22.3559","lng":"110.9369","country":"China","iso2":"CN","iso3":"CHN","admin_name":"Guangdong","capital":"","population":"913708","id":"1156936644"},{"city":"Xindi","city_ascii":"Xindi","lat":"29.8182","lng":"113.4653","country":"China","iso2":"CN","iso3":"CHN","admin_name":"Hubei","capital":"","population":"819446","id":"1156263165"},{"city":"Xiashi","city_ascii":"Xiashi","lat":"30.5333","lng":"120.6833","country":"China","iso2":"CN","iso3":"CHN","admin_name":"Zhejiang","capital":"minor","population":"806966","id":"1156080077"},{"city":"Xiangxiang","city_ascii":"Xiangxiang","lat":"27.7389","lng":"112.5223","country":"China","iso2":"CN","iso3":"CHN","admin_name":"Hunan","capital":"","population":"787216","id":"1156524101"},{"city":"Xingyi","city_ascii":"Xingyi","lat":"25.0910","lng":"104.9011","country":"China","iso2":"CN","iso3":"CHN","admin_name":"Guizhou","capital":"","population":"783120","id":"1156255316"},{"city":"Xinhualu","city_ascii":"Xinhualu","lat":"34.3962","lng":"113.7249","country":"China","iso2":"CN","iso3":"CHN","admin_name":"Henan","capital":"minor","population":"758079","id":"1156544851"},{"city":"Xichang","city_ascii":"Xichang","lat":"27.8983","lng":"102.2706","country":"China","iso2":"CN","iso3":"CHN","admin_name":"Sichuan","capital":"minor","population":"712434","id":"1156116456"},{"city":"Xinmin","city_ascii":"Xinmin","lat":"41.9952","lng":"122.8224","country":"China","iso2":"CN","iso3":"CHN","admin_name":"Liaoning","capital":"","population":"680000","id":"1156368551"},{"city":"Xigazê","city_ascii":"Xigaze","lat":"29.2649","lng":"88.8799","country":"China","iso2":"CN","iso3":"CHN","admin_name":"Tibet","capital":"minor","population":"679771","id":"1156107208"},{"city":"Xiping","city_ascii":"Xiping","lat":"25.6005","lng":"103.8166","country":"China","iso2":"CN","iso3":"CHN","admin_name":"Yunnan","capital":"minor","population":"652604","id":"1156207794"},{"city":"Xinshi","city_ascii":"Xinshi","lat":"31.0236","lng":"113.1079","country":"China","iso2":"CN","iso3":"CHN","admin_name":"Hubei","capital":"minor","population":"636776","id":"1156422214"},{"city":"Xinxing","city_ascii":"Xinxing","lat":"39.8734","lng":"124.1453","country":"China","iso2":"CN","iso3":"CHN","admin_name":"Liaoning","capital":"minor","population":"627475","id":"1156258586"},{"city":"Xingtai","city_ascii":"Xingtai","lat":"37.0659","lng":"114.4753","country":"China","iso2":"CN","iso3":"CHN","admin_name":"Hebei","capital":"","population":"611739","id":"1156294952"},{"city":"Xinji","city_ascii":"Xinji","lat":"37.9423","lng":"115.2118","country":"China","iso2":"CN","iso3":"CHN","admin_name":"Hebei","capital":"","population":"615919","id":"1156456552"},{"city":"Xiulin","city_ascii":"Xiulin","lat":"29.7211","lng":"112.4037","country":"China","iso2":"CN","iso3":"CHN","admin_name":"Hubei","capital":"","population":"577022","id":"1156284109"},{"city":"Xingcheng","city_ascii":"Xingcheng","lat":"40.6189","lng":"120.7205","country":"China","iso2":"CN","iso3":"CHN","admin_name":"Liaoning","capital":"","population":"546176","id":"1156705922"},{"city":"Xalapa","city_ascii":"Xalapa","lat":"19.5400","lng":"-96.9275","country":"Mexico","iso2":"MX","iso3":"MEX","admin_name":"Veracruz","capital":"admin","population":"525147","id":"1484334948"},{"city":"Xiaoyi","city_ascii":"Xiaoyi","lat":"37.1449","lng":"111.7718","country":"China","iso2":"CN","iso3":"CHN","admin_name":"Shanxi","capital":"","population":"468770","id":"1156910270"},{"city":"Xicheng","city_ascii":"Xicheng","lat":"23.3629","lng":"103.1545","country":"China","iso2":"CN","iso3":"CHN","admin_name":"Yunnan","capital":"minor","population":"459781","id":"1156161838"},{"city":"Xingren","city_ascii":"Xingren","lat":"25.4352","lng":"105.1907","country":"China","iso2":"CN","iso3":"CHN","admin_name":"Guizhou","capital":"","population":"417919","id":"1156533633"},{"city":"Xai-Xai","city_ascii":"Xai-Xai","lat":"-25.0500","lng":"33.6500","country":"Mozambique","iso2":"MZ","iso3":"MOZ","admin_name":"Gaza","capital":"admin","population":"116343","id":"1508689070"},{"city":"Xırdalan","city_ascii":"Xirdalan","lat":"40.4486","lng":"49.7564","country":"Azerbaijan","iso2":"AZ","iso3":"AZE","admin_name":"Abşeron","capital":"admin","population":"95200","id":"1031145251"},{"city":"Xique-Xique","city_ascii":"Xique-Xique","lat":"-10.8229","lng":"-42.7281","country":"Brazil","iso2":"BR","iso3":"BRA","admin_name":"Bahia","capital":"","population":"35433","id":"1076763009"},{"city":"Xico","city_ascii":"Xico","lat":"19.4170","lng":"-97.0000","country":"Mexico","iso2":"MX","iso3":"MEX","admin_name":"Veracruz","capital":"minor","population":"38198","id":"1484011085"},{"city":"Xaçmaz","city_ascii":"Xacmaz","lat":"41.4681","lng":"48.8028","country":"Azerbaijan","iso2":"AZ","iso3":"AZE","admin_name":"Xaçmaz","capital":"admin","population":"39900","id":"1031335433"},{"city":"Xam Nua","city_ascii":"Xam Nua","lat":"20.4133","lng":"104.0480","country":"Laos","iso2":"LA","iso3":"LAO","admin_name":"Houaphan","capital":"admin","population":"38992","id":"1418975079"},{"city":"Xalisco","city_ascii":"Xalisco","lat":"21.4481","lng":"-104.9000","country":"Mexico","iso2":"MX","iso3":"MEX","admin_name":"Nayarit","capital":"minor","population":"21899","id":"1484321343"},{"city":"Xoxocotla","city_ascii":"Xoxocotla","lat":"18.6850","lng":"-99.2439","country":"Mexico","iso2":"MX","iso3":"MEX","admin_name":"Morelos","capital":"","population":"21074","id":"1484012470"},{"city":"Xaignabouli","city_ascii":"Xaignabouli","lat":"19.2576","lng":"101.7103","country":"Laos","iso2":"LA","iso3":"LAO","admin_name":"Xaignabouli","capital":"admin","population":"16200","id":"1418760593"},{"city":"Xicoténcatl","city_ascii":"Xicotencatl","lat":"22.9958","lng":"-98.9447","country":"Mexico","iso2":"MX","iso3":"MEX","admin_name":"Tamaulipas","capital":"minor","population":"9593","id":"1484154416"},{"city":"Xinguara","city_ascii":"Xinguara","lat":"-7.1006","lng":"-49.9480","country":"Brazil","iso2":"BR","iso3":"BRA","admin_name":"Pará","capital":"","population":"4047","id":"1076290442"},{"city":"X-Cán","city_ascii":"X-Can","lat":"20.8583","lng":"-87.6681","country":"Mexico","iso2":"MX","iso3":"MEX","admin_name":"Yucatán","capital":"","population":"5191","id":"1484190103"},{"city":"Xgħajra","city_ascii":"Xghajra","lat":"35.8856","lng":"14.5475","country":"Malta","iso2":"MT","iso3":"MLT","admin_name":"Xgħajra","capital":"admin","population":"","id":"1470535936"},{"city":"Xuddur","city_ascii":"Xuddur","lat":"4.1200","lng":"43.8878","country":"Somalia","iso2":"SO","iso3":"SOM","admin_name":"Bakool","capital":"admin","population":"1639","id":"1706568226"},{"city":"Xocalı","city_ascii":"Xocali","lat":"39.9111","lng":"46.7892","country":"Azerbaijan","iso2":"AZ","iso3":"AZE","admin_name":"Xocalı","capital":"admin","population":"1397","id":"1031237556"},{"city":"Xewkija","city_ascii":"Xewkija","lat":"36.0328","lng":"14.2581","country":"Malta","iso2":"MT","iso3":"MLT","admin_name":"Xewkija","capital":"admin","population":"","id":"1470040289"},{"city":"Xagħra","city_ascii":"Xaghra","lat":"36.0500","lng":"14.2644","country":"Malta","iso2":"MT","iso3":"MLT","admin_name":"Xagħra","capital":"admin","population":"","id":"1470781874"},{"city":"Xai","city_ascii":"Xai","lat":"20.6922","lng":"101.9847","country":"Laos","iso2":"LA","iso3":"LAO","admin_name":"Oudômxai","capital":"admin","population":"","id":"1418805827"},{"city":"Xocavənd","city_ascii":"Xocavand","lat":"39.7950","lng":"47.1117","country":"Azerbaijan","iso2":"AZ","iso3":"AZE","admin_name":"Xocavənd","capital":"admin","population":"","id":"1031454735"},{"city":"Xékong","city_ascii":"Xekong","lat":"15.3503","lng":"106.7286","country":"Laos","iso2":"LA","iso3":"LAO","admin_name":"Xékong","capital":"admin","population":"","id":"1418000082"},{"city":"Xızı","city_ascii":"Xizi","lat":"40.9111","lng":"49.0694","country":"Azerbaijan","iso2":"AZ","iso3":"AZE","admin_name":"Xızı","capital":"admin","population":"","id":"1031409125"},{"city":"Xo‘jayli Shahri","city_ascii":"Xo`jayli Shahri","lat":"42.4047","lng":"59.4517","country":"Uzbekistan","iso2":"UZ","iso3":"UZB","admin_name":"Qoraqalpog‘iston","capital":"minor","population":"60401","id":"1860783170"},{"city":"Xinqing","city_ascii":"Xinqing","lat":"48.2363","lng":"129.5059","country":"China","iso2":"CN","iso3":"CHN","admin_name":"Heilongjiang","capital":"","population":"55415","id":"1156618293"},{"city":"Xánthi","city_ascii":"Xanthi","lat":"41.1333","lng":"24.8833","country":"Greece","iso2":"GR","iso3":"GRC","admin_name":"Anatolikí Makedonía kai Thráki","capital":"minor","population":"56122","id":"1300051191"},{"city":"Xiva","city_ascii":"Xiva","lat":"41.3783","lng":"60.3639","country":"Uzbekistan","iso2":"UZ","iso3":"UZB","admin_name":"Xorazm","capital":"minor","population":"55568","id":"1860013300"},{"city":"Xankəndi","city_ascii":"Xankandi","lat":"39.8153","lng":"46.7519","country":"Azerbaijan","iso2":"AZ","iso3":"AZE","admin_name":"Xankəndi","capital":"","population":"49848","id":"1031053512"},{"city":"Xonobod","city_ascii":"Xonobod","lat":"40.8127","lng":"72.9731","country":"Uzbekistan","iso2":"UZ","iso3":"UZB","admin_name":"Andijon","capital":"","population":"35181","id":"1860608604"},{"city":"Xochistlahuaca","city_ascii":"Xochistlahuaca","lat":"16.7914","lng":"-98.2419","country":"Mexico","iso2":"MX","iso3":"MEX","admin_name":"Guerrero","capital":"minor","population":"28089","id":"1484003499"},{"city":"Xalatlaco","city_ascii":"Xalatlaco","lat":"19.1811","lng":"-99.4164","country":"Mexico","iso2":"MX","iso3":"MEX","admin_name":"México","capital":"minor","population":"26865","id":"1484277337"},{"city":"Xenia","city_ascii":"Xenia","lat":"39.6828","lng":"-83.9414","country":"United States","iso2":"US","iso3":"USA","admin_name":"Ohio","capital":"","population":"26947","id":"1840003790"},{"city":"Xinxing","city_ascii":"Xinxing","lat":"47.1601","lng":"123.8000","country":"China","iso2":"CN","iso3":"CHN","admin_name":"Heilongjiang","capital":"minor","population":"24317","id":"1156085832"},{"city":"Xanten","city_ascii":"Xanten","lat":"51.6622","lng":"6.4539","country":"Germany","iso2":"DE","iso3":"DEU","admin_name":"North Rhine-Westphalia","capital":"","population":"21690","id":"1276917094"},{"city":"Xochiatipan de Castillo","city_ascii":"Xochiatipan de Castillo","lat":"20.8333","lng":"-98.2850","country":"Mexico","iso2":"MX","iso3":"MEX","admin_name":"Hidalgo","capital":"","population":"18157","id":"1484688256"},{"city":"Xavantes","city_ascii":"Xavantes","lat":"-23.0389","lng":"-49.7094","country":"Brazil","iso2":"BR","iso3":"BRA","admin_name":"São Paulo","capital":"","population":"12484","id":"1076632906"},{"city":"Xichú","city_ascii":"Xichu","lat":"21.2997","lng":"-100.0553","country":"Mexico","iso2":"MX","iso3":"MEX","admin_name":"Guanajuato","capital":"minor","population":"11323","id":"1484008759"},{"city":"Xudat","city_ascii":"Xudat","lat":"41.6339","lng":"48.6772","country":"Azerbaijan","iso2":"AZ","iso3":"AZE","admin_name":"Xaçmaz","capital":"","population":"10894","id":"1031218803"},{"city":"Xylókastro","city_ascii":"Xylokastro","lat":"38.0667","lng":"22.6333","country":"Greece","iso2":"GR","iso3":"GRC","admin_name":"Peloponnísos","capital":"minor","population":"5500","id":"1300956672"},{"city":"Xangongo","city_ascii":"Xangongo","lat":"-16.7467","lng":"14.9747","country":"Angola","iso2":"AO","iso3":"AGO","admin_name":"Cunene","capital":"","population":"447","id":"1024323582"},{"city":"Xochicoatlán","city_ascii":"Xochicoatlan","lat":"20.7767","lng":"-98.6800","country":"Mexico","iso2":"MX","iso3":"MEX","admin_name":"Hidalgo","capital":"","population":"6954","id":"1484144977"},{"city":"Xiangkhoang","city_ascii":"Xiangkhoang","lat":"19.3337","lng":"103.3666","country":"Laos","iso2":"LA","iso3":"LAO","admin_name":"Xiangkhouang","capital":"","population":"5189","id":"1418829021"}]